Time(s),Time(m),"Roll (deg, +ve R)","Pitch (deg, +ve UP)",Heave (m),Heave Velocity (m/s),AX (m/s^2),AY (m/s^2),AZ (m/s^2),Vessel heading (degT),SOG (knots),COG (M deg),STATUS_MRU (1=OK),STATUS_GYRO (1=OK),STATUS_WIND (1=OK),STATUS_GPS (SOG_VOG) (1=OK),GPS Lat,GPS Lon,Visibility,Air Pressure,Air Temperature,Air Humidity,WX code,Cloud layer 1 altitude,Cloud layer 1 oct,Cloud layer 1 altitude,Cloud layer 1 oct,Cloud layer 1 altitude,Cloud layer 1 oct,Cloud layer 1 altitude,Cloud layer 1 oct
61200,0.0,0.499,-0.928,-0.654,0.048,0.016,-0.076,10.131,302.87,10.056305,332.78847,1,1,1,1,59.60151,5.4591311,3000,1005,20,80,+SHRA,1000,1,2000,2,3000,3,4000,4
61200.5,0.0,0.427,-0.93,-0.472,0.221,0.012,-0.013,10.164,302.97,10.04353,332.81871,1,1,1,1,59.60151,5.4591311,3000,1005,20,80,+SHRA,1000,1,2000,2,3000,3,4000,4
61201,0.0,0.373,-0.97,-0.235,0.363,0.024,0.05,10.141,302.97,10.056305,332.78847,1,1,1,1,59.60151,5.4591311,3000,1005,20,80,+SHRA,1000,1,2000,2,3000,3,4000,4
61201.5,0.0,0.345,-1.042,0.029,0.464,0.039,0.098,10.099,302.97,10.04353,332.75823,1,1,1,1,59.60151,5.4591311,3000,1005,20,80,+SHRA,1000,1,2000,2,3000,3,4000,4
61202,0.0,0.349,-1.139,0.289,0.511,0.071,0.112,10.008,302.97,9.9614477,332.78847,1,1,1,1,59.60151,5.4591311,3000,1005,20,80,+SHRA,1000,1,2000,2,3000,3,4000,4
61202.5,0.0,0.381,-1.247,0.515,0.496,0.098,0.087,9.908,302.97,9.8793651,332.75823,1,1,1,1,59.60151,5.4591311,3000,1005,20,80,+SHRA,1000,1,2000,2,3000,3,4000,4
61203,0.1,0.438,-1.35,0.679,0.418,0.15,0.012,9.764,302.97,9.8487493,332.72726,1,1,1,1,59.60151,5.4591311,3000,1005,20,80,+SHRA,1000,1,2000,2,3000,3,4000,4
61203.5,0.1,0.508,-1.437,0.76,0.287,0.176,-0.076,9.656,302.87,9.8793651,332.75823,1,1,1,1,59.60151,5.4591311,3000,1005,20,80,+SHRA,1000,1,2000,2,3000,3,4000,4
61204,0.1,0.59,-1.494,0.75,0.125,0.201,-0.178,9.553,302.87,9.8487493,332.78847,1,1,1,1,59.60151,5.4591311,3000,1005,20,80,+SHRA,1000,1,2000,2,3000,3,4000,4
61204.5,0.1,0.667,-1.511,0.65,-0.05,0.21,-0.268,9.511,302.67,9.8793651,332.81871,1,1,1,1,59.60151,5.4591311,3000,1005,20,80,+SHRA,1000,1,2000,2,3000,3,4000,4
61205,0.1,0.731,-1.489,0.476,-0.212,0.213,-0.304,9.487,302.67,9.9614477,332.80078,1,1,1,1,59.60151,5.4591311,3000,1005,20,80,+SHRA,1000,1,2000,2,3000,3,4000,4
61205.5,0.1,0.772,-1.431,0.251,-0.341,0.194,-0.299,9.531,302.67,9.8793651,332.78284,1,1,1,1,59.60151,5.4591311,3000,1005,20,80,+SHRA,1000,1,2000,2,3000,3,4000,4
61206,0.1,0.783,-1.339,0.009,-0.412,0.164,-0.296,9.604,302.67,9.9406147,332.77053,1,1,1,1,59.60151,5.4591311,3000,1005,20,80,+SHRA,1000,1,2000,2,3000,3,4000,4
61206.5,0.1,0.762,-1.236,-0.22,-0.428,0.121,-0.257,9.701,302.67,10.001864,332.76703,1,1,1,1,59.60151,5.4591311,3000,1005,20,80,+SHRA,1000,1,2000,2,3000,3,4000,4
61207,0.1,0.71,-1.128,-0.404,-0.381,0.067,-0.19,9.821,302.67,10.022697,332.76263,1,1,1,1,59.60151,5.4591311,3000,1005,20,80,+SHRA,1000,1,2000,2,3000,3,4000,4
61207.5,0.1,0.637,-1.035,-0.525,-0.295,0.046,-0.11,9.897,302.87,10.001864,332.76703,1,1,1,1,59.60151,5.4591311,3000,1005,20,80,+SHRA,1000,1,2000,2,3000,3,4000,4
61208,0.1,0.552,-0.97,-0.572,-0.172,0.014,-0.03,9.993,302.87,10.001864,332.78284,1,1,1,1,59.60151,5.4591311,3000,1005,20,80,+SHRA,1000,1,2000,2,3000,3,4000,4
61208.5,0.1,0.465,-0.942,-0.544,-0.045,0.019,0.007,10.019,303.07,10.04353,332.78284,1,1,1,1,59.60151,5.4591311,3000,1005,20,80,+SHRA,1000,1,2000,2,3000,3,4000,4
61209,0.2,0.386,-0.949,-0.455,0.076,0.022,0.025,10.04,303.07,10.04353,332.76703,1,1,1,1,59.60151,5.4591311,3000,1005,20,80,+SHRA,1000,1,2000,2,3000,3,4000,4
61209.5,0.2,0.325,-0.995,-0.32,0.171,0.041,0.015,10.001,303.17,10.04353,332.76703,1,1,1,1,59.60151,5.4591311,3000,1005,20,80,+SHRA,1000,1,2000,2,3000,3,4000,4
61210,0.2,0.284,-1.068,-0.165,0.231,0.061,-0.029,9.965,303.17,10.069079,332.76703,1,1,1,1,59.60151,5.4591311,3000,1005,20,80,+SHRA,1000,1,2000,2,3000,3,4000,4
61210.5,0.2,0.269,-1.161,-0.01,0.255,0.097,-0.067,9.902,303.17,10.089524,332.75823,1,1,1,1,59.60151,5.4591311,3000,1005,20,80,+SHRA,1000,1,2000,2,3000,3,4000,4
61211,0.2,0.28,-1.261,0.128,0.252,0.117,-0.069,9.87,303.17,10.099045,332.75823,1,1,1,1,59.60151,5.4591311,3000,1005,20,80,+SHRA,1000,1,2000,2,3000,3,4000,4
61211.5,0.2,0.317,-1.355,0.237,0.226,0.143,-0.083,9.821,303.17,10.089524,332.76703,1,1,1,1,59.60151,5.4591311,3000,1005,20,80,+SHRA,1000,1,2000,2,3000,3,4000,4
61212,0.2,0.378,-1.434,0.31,0.182,0.164,-0.107,9.782,303.17,10.069079,332.78284,1,1,1,1,59.60151,5.4591311,3000,1005,20,80,+SHRA,1000,1,2000,2,3000,3,4000,4
61212.5,0.2,0.461,-1.488,0.345,0.123,0.175,-0.162,9.74,302.97,10.011323,332.78284,1,1,1,1,59.60151,5.4591311,3000,1005,20,80,+SHRA,1000,1,2000,2,3000,3,4000,4
61213,0.2,0.557,-1.51,0.339,0.049,0.185,-0.218,9.698,302.97,10.001864,332.78284,1,1,1,1,59.60151,5.4591311,3000,1005,20,80,+SHRA,1000,1,2000,2,3000,3,4000,4
61213.5,0.2,0.657,-1.498,0.292,-0.029,0.191,-0.255,9.669,302.87,9.8678354,332.78444,1,1,1,1,59.60151,5.4591311,3000,1005,20,80,+SHRA,1000,1,2000,2,3000,3,4000,4
61214,0.2,0.752,-1.45,0.212,-0.106,0.186,-0.258,9.654,302.87,9.8678354,332.78444,1,1,1,1,59.60151,5.4591311,3000,1005,20,80,+SHRA,1000,1,2000,2,3000,3,4000,4
61214.5,0.2,0.826,-1.374,0.107,-0.168,0.167,-0.216,9.673,302.77,9.8678354,332.78444,1,1,1,1,59.60151,5.4591311,3000,1005,20,80,+SHRA,1000,1,2000,2,3000,3,4000,4
61215,0.3,0.873,-1.276,-0.008,-0.208,0.153,-0.154,9.699,302.77,10.001864,332.78444,1,1,1,1,59.60151,5.4591311,3000,1005,20,80,+SHRA,1000,1,2000,2,3000,3,4000,4
61215.5,0.3,0.885,-1.169,-0.117,-0.21,0.1,-0.083,9.779,302.87,10.001864,332.78444,1,1,1,1,59.60151,5.4591311,3000,1005,20,80,+SHRA,1000,1,2000,2,3000,3,4000,4
61216,0.3,0.863,-1.068,-0.2,-0.174,0.066,-0.01,9.849,302.87,10.001864,332.78444,1,1,1,1,59.60151,5.4591311,3000,1005,20,80,+SHRA,1000,1,2000,2,3000,3,4000,4
61216.5,0.3,0.807,-0.988,-0.244,-0.108,0.016,0.024,9.932,303.07,10.001864,332.78444,1,1,1,1,59.60151,5.4591311,3000,1005,20,80,+SHRA,1000,1,2000,2,3000,3,4000,4
61217,0.3,0.728,-0.942,-0.242,-0.02,0.005,0.018,9.971,303.07,10.011323,332.78444,1,1,1,1,59.60151,5.4591311,3000,1005,20,80,+SHRA,1000,1,2000,2,3000,3,4000,4
61217.5,0.3,0.638,-0.936,-0.195,0.063,0.009,0.011,9.977,303.27,10.089524,332.78444,1,1,1,1,59.60151,5.4591311,3000,1005,20,80,+SHRA,1000,1,2000,2,3000,3,4000,4
61218,0.3,0.551,-0.969,-0.118,0.126,0.034,-0.019,9.944,303.27,10.089524,332.79567,1,1,1,1,59.60151,5.4591311,3000,1005,20,80,+SHRA,1000,1,2000,2,3000,3,4000,4
61218.5,0.3,0.475,-1.034,-0.03,0.15,0.065,-0.05,9.876,303.27,10.089524,332.82546,1,1,1,1,59.60151,5.4591311,3000,1005,20,80,+SHRA,1000,1,2000,2,3000,3,4000,4
61219,0.3,0.42,-1.12,0.048,0.138,0.096,-0.069,9.806,303.27,10.089524,332.79567,1,1,1,1,59.60151,5.4591311,3000,1005,20,80,+SHRA,1000,1,2000,2,3000,3,4000,4
61219.5,0.3,0.393,-1.213,0.1,0.092,0.135,-0.082,9.741,303.37,10.089524,332.79567,1,1,1,1,59.60151,5.4591311,3000,1005,20,80,+SHRA,1000,1,2000,2,3000,3,4000,4
61220,0.3,0.4,-1.302,0.119,0.038,0.144,-0.067,9.726,303.37,10.011323,332.78444,1,1,1,1,59.60151,5.4591311,3000,1005,20,80,+SHRA,1000,1,2000,2,3000,3,4000,4
61220.5,0.3,0.437,-1.376,0.107,-0.017,0.167,-0.068,9.716,303.27,10.011323,332.78444,1,1,1,1,59.60151,5.4591311,3000,1005,20,80,+SHRA,1000,1,2000,2,3000,3,4000,4
61221,0.4,0.499,-1.43,0.073,-0.061,0.171,-0.124,9.724,303.27,10.011323,332.79567,1,1,1,1,59.60151,5.4591311,3000,1005,20,80,+SHRA,1000,1,2000,2,3000,3,4000,4
61221.5,0.4,0.578,-1.457,0.026,-0.09,0.172,-0.187,9.749,303.17,10.011323,332.82299,1,1,1,1,59.60151,5.4591311,3000,1005,20,80,+SHRA,1000,1,2000,2,3000,3,4000,4
61222,0.4,0.664,-1.455,-0.025,-0.104,0.173,-0.233,9.763,303.17,9.9837084,332.82299,1,1,1,1,59.60151,5.4591311,3000,1005,20,80,+SHRA,1000,1,2000,2,3000,3,4000,4
61222.5,0.4,0.742,-1.427,-0.07,-0.1,0.159,-0.255,9.799,303.07,9.9806772,332.90066,1,1,1,1,59.60151,5.4591311,3000,1005,20,80,+SHRA,1000,1,2000,2,3000,3,4000,4
61223,0.4,0.8,-1.378,-0.102,-0.082,0.145,-0.228,9.828,303.07,9.9837084,332.90066,1,1,1,1,59.60151,5.4591311,3000,1005,20,80,+SHRA,1000,1,2000,2,3000,3,4000,4
61223.5,0.4,0.82,-1.311,-0.118,-0.052,0.128,-0.175,9.858,303.07,10.011323,332.90066,1,1,1,1,59.60151,5.4591311,3000,1005,20,80,+SHRA,1000,1,2000,2,3000,3,4000,4
61224,0.4,0.812,-1.239,-0.114,-0.018,0.118,-0.09,9.864,303.07,10.011323,332.90066,1,1,1,1,59.60151,5.4591311,3000,1005,20,80,+SHRA,1000,1,2000,2,3000,3,4000,4
61224.5,0.4,0.763,-1.164,-0.092,0.019,0.085,0.003,9.894,303.27,10.03197,332.90098,1,1,1,1,59.60151,5.4591311,3000,1005,20,80,+SHRA,1000,1,2000,2,3000,3,4000,4
61225,0.4,0.686,-1.098,-0.055,0.058,0.071,0.058,9.901,303.27,10.03197,332.92103,1,1,1,1,59.60151,5.4591311,3000,1005,20,80,+SHRA,1000,1,2000,2,3000,3,4000,4
61225.5,0.4,0.592,-1.045,-0.004,0.095,0.047,0.083,9.914,303.27,10.011323,332.98064,1,1,1,1,59.60151,5.4591311,3000,1005,20,80,+SHRA,1000,1,2000,2,3000,3,4000,4
61226,0.4,0.489,-1.015,0.056,0.127,0.048,0.035,9.905,303.27,10.011323,332.98064,1,1,1,1,59.60151,5.4591311,3000,1005,20,80,+SHRA,1000,1,2000,2,3000,3,4000,4
61226.5,0.4,0.396,-1.014,0.12,0.151,0.039,-0.047,9.907,303.47,10.011323,332.92103,1,1,1,1,59.60151,5.4591311,3000,1005,20,80,+SHRA,1000,1,2000,2,3000,3,4000,4
61227,0.5,0.322,-1.041,0.182,0.162,0.052,-0.116,9.873,303.47,9.9837084,332.90098,1,1,1,1,59.60151,5.4591311,3000,1005,20,80,+SHRA,1000,1,2000,2,3000,3,4000,4
61227.5,0.5,0.275,-1.092,0.231,0.15,0.068,-0.19,9.837,303.57,10.03197,332.90098,1,1,1,1,59.60151,5.4591311,3000,1005,20,80,+SHRA,1000,1,2000,2,3000,3,4000,4
61228,0.5,0.263,-1.165,0.259,0.113,0.098,-0.228,9.767,303.57,10.143747,332.92103,1,1,1,1,59.60151,5.4591311,3000,1005,20,80,+SHRA,1000,1,2000,2,3000,3,4000,4
61228.5,0.5,0.279,-1.245,0.253,0.04,0.137,-0.22,9.694,303.47,10.143747,332.90098,1,1,1,1,59.60151,5.4591311,3000,1005,20,80,+SHRA,1000,1,2000,2,3000,3,4000,4
61229,0.5,0.32,-1.322,0.207,-0.042,0.161,-0.202,9.651,303.47,10.143747,332.90098,1,1,1,1,59.60151,5.4591311,3000,1005,20,80,+SHRA,1000,1,2000,2,3000,3,4000,4
61229.5,0.5,0.382,-1.387,0.123,-0.136,0.188,-0.182,9.614,303.47,10.03197,332.90098,1,1,1,1,59.60151,5.4591311,3000,1005,20,80,+SHRA,1000,1,2000,2,3000,3,4000,4
61230,0.5,0.449,-1.426,0.01,-0.209,0.181,-0.174,9.634,303.47,9.9837084,332.92103,0,1,1,1,59.60151,5.4591311,3000,1005,20,80,+SHRA,1000,1,2000,2,3000,3,4000,4
61230.5,0.5,0.521,-1.436,-0.117,-0.261,0.177,-0.163,9.663,303.37,9.9806772,332.97954,0,1,1,1,59.60151,5.4591311,3000,1005,20,80,+SHRA,1000,1,2000,2,3000,3,4000,4
61231,0.5,0.59,-1.42,-0.237,-0.265,0.145,-0.132,9.76,303.37,9.9806772,332.92103,0,1,1,1,59.60151,5.4591311,3000,1005,20,80,+SHRA,1000,1,2000,2,3000,3,4000,4
61231.5,0.5,0.649,-1.378,-0.327,-0.226,0.126,-0.08,9.836,303.37,9.7135223,332.90098,0,1,1,1,59.60151,5.4591311,3000,1005,20,80,+SHRA,1000,1,2000,2,3000,3,4000,4
61232,0.5,0.694,-1.323,-0.371,-0.143,0.092,-0.031,9.943,303.37,9.6797267,332.90098,0,1,1,1,59.60151,5.4591311,3000,1005,20,80,+SHRA,1000,1,2000,2,3000,3,4000,4
61232.5,0.5,0.723,-1.259,-0.358,-0.035,0.076,-0.002,9.998,303.37,9.6797267,332.90098,0,1,1,1,59.60151,5.4591311,3000,1005,20,80,+SHRA,1000,1,2000,2,3000,3,4000,4
61233,0.6,0.736,-1.198,-0.288,0.085,0.053,-0.016,10.063,303.37,9.6797267,332.90066,0,1,1,1,59.60151,5.4591311,3000,1005,20,80,+SHRA,1000,1,2000,2,3000,3,4000,4
61233.5,0.6,0.733,-1.15,-0.169,0.198,0.062,-0.028,10.057,303.57,9.7135223,332.89868,0,1,1,1,59.60151,5.4591311,3000,1005,20,80,+SHRA,1000,1,2000,2,3000,3,4000,4
61234,0.6,0.724,-1.121,-0.019,0.28,0.059,-0.08,10.034,303.57,9.7135223,332.89868,0,1,1,1,59.60151,5.4591311,3000,1005,20,80,+SHRA,1000,1,2000,2,3000,3,4000,4
61234.5,0.6,0.708,-1.116,0.139,0.318,0.085,-0.131,9.945,303.47,9.6797267,332.89868,0,1,1,1,59.60151,5.4591311,3000,1005,20,80,+SHRA,1000,1,2000,2,3000,3,4000,4
61235,0.6,0.7,-1.131,0.276,0.301,0.1,-0.156,9.854,303.47,9.6693286,332.83452,0,1,1,1,59.60151,5.4591311,3000,1005,20,80,+SHRA,1000,1,2000,2,3000,3,4000,4
61235.5,0.6,0.699,-1.16,0.371,0.236,0.118,-0.15,9.748,303.57,9.6693286,332.89868,0,1,1,1,59.60151,5.4591311,3000,1005,20,80,+SHRA,1000,1,2000,2,3000,3,4000,4
61236,0.6,0.708,-1.198,0.406,0.132,0.129,-0.088,9.661,303.57,9.6072882,332.90098,0,1,1,1,59.60151,5.4591311,3000,1005,20,80,+SHRA,1000,1,2000,2,3000,3,4000,4
61236.5,0.6,0.729,-1.238,0.376,0.006,0.143,-0.032,9.587,303.57,9.5927228,332.90098,0,1,1,1,59.60151,5.4591311,3000,1005,20,80,+SHRA,1000,1,2000,2,3000,3,4000,4
61237,0.6,0.759,-1.272,0.282,-0.133,0.156,-0.001,9.536,303.57,9.6693286,332.89868,0,1,1,1,59.60151,5.4591311,3000,1005,20,80,+SHRA,1000,1,2000,2,3000,3,4000,4
61237.5,0.6,0.79,-1.291,0.136,-0.258,0.162,0.003,9.53,303.57,9.6797267,332.94056,0,1,1,1,59.60151,5.4591311,3000,1005,20,80,+SHRA,1000,1,2000,2,3000,3,4000,4
61238,0.6,0.812,-1.29,-0.044,-0.352,0.154,-0.025,9.569,303.57,9.6797267,332.94056,0,1,1,1,59.60151,5.4591311,3000,1005,20,80,+SHRA,1000,1,2000,2,3000,3,4000,4
61238.5,0.6,0.825,-1.277,-0.228,-0.394,0.142,-0.06,9.65,303.57,9.6693286,332.89868,0,1,1,1,59.60151,5.4591311,3000,1005,20,80,+SHRA,1000,1,2000,2,3000,3,4000,4
61239,0.7,0.82,-1.244,-0.39,-0.383,0.131,-0.094,9.747,303.57,9.5927228,332.83452,0,1,1,1,59.60151,5.4591311,3000,1005,20,80,+SHRA,1000,1,2000,2,3000,3,4000,4
61239.5,0.7,0.801,-1.205,-0.503,-0.311,0.103,-0.122,9.873,303.57,9.4829463,332.83452,0,1,1,1,59.60151,5.4591311,3000,1005,20,80,+SHRA,1000,1,2000,2,3000,3,4000,4
61240,0.7,0.773,-1.159,-0.548,-0.194,0.086,-0.15,9.979,303.57,9.4829463,332.83452,0,1,1,1,59.60151,5.4591311,3000,1005,20,80,+SHRA,1000,1,2000,2,3000,3,4000,4
61240.5,0.7,0.746,-1.125,-0.516,-0.043,0.061,-0.174,10.077,303.57,9.5927228,332.83452,0,1,1,1,59.60151,5.4591311,3000,1005,20,80,+SHRA,1000,1,2000,2,3000,3,4000,4
61241,0.7,0.729,-1.102,-0.406,0.122,0.05,-0.146,10.138,303.57,9.5978115,332.81353,0,1,1,1,59.60151,5.4591311,3000,1005,20,80,+SHRA,1000,1,2000,2,3000,3,4000,4
61241.5,0.7,0.721,-1.097,-0.228,0.288,0.031,-0.086,10.189,303.57,9.5927228,332.81353,0,1,1,1,59.60151,5.4591311,3000,1005,20,80,+SHRA,1000,1,2000,2,3000,3,4000,4
61242,0.7,0.726,-1.118,0.001,0.43,0.033,-0.002,10.175,303.57,9.5927228,332.81353,0,1,1,1,59.60151,5.4591311,3000,1005,20,80,+SHRA,1000,1,2000,2,3000,3,4000,4
61242.5,0.7,0.732,-1.162,0.253,0.528,0.034,0.082,10.129,303.67,9.5978115,332.89868,0,1,1,1,59.60151,5.4591311,3000,1005,20,80,+SHRA,1000,1,2000,2,3000,3,4000,4
61243,0.7,0.742,-1.227,0.496,0.558,0.067,0.127,10.002,303.67,9.5978115,332.89868,0,1,1,1,59.60151,5.4591311,3000,1005,20,80,+SHRA,1000,1,2000,2,3000,3,4000,4
61243.5,0.7,0.745,-1.304,0.693,0.51,0.105,0.112,9.852,303.77,9.5927228,332.89868,0,1,1,1,59.60151,5.4591311,3000,1005,20,80,+SHRA,1000,1,2000,2,3000,3,4000,4
61244,0.7,0.738,-1.38,0.809,0.38,0.155,0.059,9.667,303.77,9.5927228,332.92456,0,1,1,1,59.60151,5.4591311,3000,1005,20,80,+SHRA,1000,1,2000,2,3000,3,4000,4
61244.5,0.7,0.717,-1.443,0.819,0.181,0.203,-0.01,9.503,303.67,9.5978115,332.89868,0,1,1,1,59.60151,5.4591311,3000,1005,20,80,+SHRA,1000,1,2000,2,3000,3,4000,4
61245,0.8,0.682,-1.482,0.712,-0.059,0.237,-0.094,9.365,303.67,9.5978115,332.81353,0,1,1,1,59.60151,5.4591311,3000,1005,20,80,+SHRA,1000,1,2000,2,3000,3,4000,4
61245.5,0.8,0.628,-1.485,0.493,-0.31,0.258,-0.172,9.296,303.57,9.6693286,332.72636,0,1,1,1,59.60151,5.4591311,3000,1005,20,80,+SHRA,1000,1,2000,2,3000,3,4000,4
61246,0.8,0.554,-1.45,0.189,-0.526,0.251,-0.249,9.302,303.57,9.6693286,332.72636,0,1,1,1,59.60151,5.4591311,3000,1005,20,80,+SHRA,1000,1,2000,2,3000,3,4000,4
61246.5,0.8,0.467,-1.378,-0.162,-0.679,0.225,-0.311,9.388,303.57,9.6693286,332.81353,0,1,1,1,59.60151,5.4591311,3000,1005,20,80,+SHRA,1000,1,2000,2,3000,3,4000,4
61247,0.8,0.37,-1.272,-0.509,-0.734,0.171,-0.346,9.554,303.57,9.6693286,332.83952,0,1,1,1,59.60151,5.4591311,3000,1005,20,80,+SHRA,1000,1,2000,2,3000,3,4000,4
61247.5,0.8,0.276,-1.153,-0.8,-0.685,0.113,-0.331,9.754,303.57,9.5978115,332.81353,0,1,1,1,59.60151,5.4591311,3000,1005,20,80,+SHRA,1000,1,2000,2,3000,3,4000,4
61248,0.8,0.196,-1.034,-0.988,-0.526,0.038,-0.253,9.992,303.57,9.5978115,332.81353,0,1,1,1,59.60151,5.4591311,3000,1005,20,80,+SHRA,1000,1,2000,2,3000,3,4000,4
61248.5,0.8,0.139,-0.935,-1.04,-0.286,-0.021,-0.161,10.181,303.57,9.5927228,332.81353,0,1,1,1,59.60151,5.4591311,3000,1005,20,80,+SHRA,1000,1,2000,2,3000,3,4000,4
61249,0.8,0.108,-0.875,-0.944,0.004,-0.077,-0.096,10.341,303.57,9.5927228,332.83952,0,1,1,1,59.60151,5.4591311,3000,1005,20,80,+SHRA,1000,1,2000,2,3000,3,4000,4
61249.5,0.8,0.105,-0.865,-0.711,0.295,-0.084,-0.039,10.4,303.77,9.5978115,332.81353,0,1,1,1,59.60151,5.4591311,3000,1005,20,80,+SHRA,1000,1,2000,2,3000,3,4000,4
61250,0.8,0.123,-0.906,-0.372,0.556,-0.084,-0.02,10.413,303.77,9.8760622,332.81353,0,1,1,1,59.60151,5.4591311,3000,1005,20,80,+SHRA,1000,1,2000,2,3000,3,4000,4
61250.5,0.8,0.158,-1,0.029,0.741,-0.041,-0.027,10.312,303.87,9.8760622,332.72636,0,1,1,1,59.60151,5.4591311,3000,1005,20,80,+SHRA,1000,1,2000,2,3000,3,4000,4
61251,0.9,0.204,-1.13,0.437,0.829,0.015,-0.028,10.168,303.87,9.8760622,332.72636,0,1,1,1,59.60151,5.4591311,3000,1005,20,80,+SHRA,1000,1,2000,2,3000,3,4000,4
61251.5,0.9,0.254,-1.286,0.793,0.8,0.105,-0.073,9.939,303.77,10.142932,332.47143,0,1,1,1,59.60151,5.4591311,3000,1005,20,80,+SHRA,1000,1,2000,2,3000,3,4000,4
61252,0.9,0.298,-1.443,1.045,0.655,0.183,-0.136,9.705,303.77,10.186176,332.72636,0,1,1,1,59.60151,5.4591311,3000,1005,20,80,+SHRA,1000,1,2000,2,3000,3,4000,4
61252.5,0.9,0.333,-1.581,1.154,0.408,0.256,-0.2,9.455,303.57,10.186176,332.47143,0,1,1,1,59.60151,5.4591311,3000,1005,20,80,+SHRA,1000,1,2000,2,3000,3,4000,4
61253,0.9,0.359,-1.681,1.097,0.093,0.306,-0.24,9.273,303.57,10.186176,332.36007,0,1,1,1,59.60151,5.4591311,3000,1005,20,80,+SHRA,1000,1,2000,2,3000,3,4000,4
61253.5,0.9,0.37,-1.721,0.879,-0.241,0.334,-0.272,9.152,303.57,10.196011,332.3261,0,1,1,1,59.60151,5.4591311,3000,1005,20,80,+SHRA,1000,1,2000,2,3000,3,4000,4
61254,0.9,0.375,-1.696,0.527,-0.556,0.328,-0.272,9.131,303.57,10.277698,332.36007,0,1,1,1,59.60151,5.4591311,3000,1005,20,80,+SHRA,1000,1,2000,2,3000,3,4000,4
61254.5,0.9,0.38,-1.603,0.088,-0.792,0.296,-0.244,9.21,303.47,10.380292,332.47143,0,1,1,1,59.60151,5.4591311,3000,1005,20,80,+SHRA,1000,1,2000,2,3000,3,4000,4
61255,0.9,0.389,-1.457,-0.376,-0.922,0.231,-0.202,9.383,303.47,10.380292,332.36007,0,1,1,1,59.60151,5.4591311,3000,1005,20,80,+SHRA,1000,1,2000,2,3000,3,4000,4
61255.5,0.9,0.405,-1.276,-0.796,-0.918,0.152,-0.144,9.615,303.47,10.380292,332.3261,0,1,1,1,59.60151,5.4591311,3000,1005,20,80,+SHRA,1000,1,2000,2,3000,3,4000,4
61256,0.9,0.429,-1.08,-1.113,-0.789,0.069,-0.113,9.872,303.47,10.413216,332.15201,0,1,1,1,59.60151,5.4591311,3000,1005,20,80,+SHRA,1000,1,2000,2,3000,3,4000,4
61256.5,0.9,0.463,-0.898,-1.28,-0.544,-0.014,-0.088,10.125,303.47,10.380292,332.15201,0,1,1,1,59.60151,5.4591311,3000,1005,20,80,+SHRA,1000,1,2000,2,3000,3,4000,4
61257,1.0,0.5,-0.754,-1.271,-0.225,-0.081,-0.047,10.333,303.47,10.380292,332.3261,0,1,1,1,59.60151,5.4591311,3000,1005,20,80,+SHRA,1000,1,2000,2,3000,3,4000,4
61257.5,1.0,0.542,-0.674,-1.085,0.135,-0.134,-0.03,10.489,303.47,10.413216,332.3261,0,1,1,1,59.60151,5.4591311,3000,1005,20,80,+SHRA,1000,1,2000,2,3000,3,4000,4
61258,1.0,0.585,-0.664,-0.745,0.473,-0.133,-0.017,10.515,303.47,10.260111,332.15201,0,1,1,1,59.60151,5.4591311,3000,1005,20,80,+SHRA,1000,1,2000,2,3000,3,4000,4
61258.5,1.0,0.629,-0.729,-0.299,0.752,-0.117,-0.03,10.478,303.47,10.196011,332.15201,0,1,1,1,59.60151,5.4591311,3000,1005,20,80,+SHRA,1000,1,2000,2,3000,3,4000,4
61259,1.0,0.675,-0.856,0.195,0.926,-0.058,-0.038,10.327,303.47,10.260111,332.15201,0,1,1,1,59.60151,5.4591311,3000,1005,20,80,+SHRA,1000,1,2000,2,3000,3,4000,4
61259.5,1.0,0.721,-1.035,0.669,0.983,0.002,-0.054,10.149,303.47,10.196011,332.12266,0,1,1,1,59.60151,5.4591311,3000,1005,20,80,+SHRA,1000,1,2000,2,3000,3,4000,4
61260,1.0,0.771,-1.238,1.061,0.907,0.105,-0.105,9.88,303.47,10.186176,332.15201,0,1,1,1,59.60151,5.4591311,3000,1005,20,80,+SHRA,1000,1,2000,2,3000,3,4000,4
61260.5,1.0,0.816,-1.439,1.317,0.711,0.187,-0.123,9.634,303.37,10.196011,332.15201,1,1,1,1,59.60151,5.4591311,3000,1005,20,80,+SHRA,1000,1,2000,2,3000,3,4000,4
61261,1.0,0.851,-1.615,1.402,0.42,0.27,-0.109,9.396,303.37,10.186176,332.3261,1,1,1,1,59.60151,5.4591311,3000,1005,20,80,+SHRA,1000,1,2000,2,3000,3,4000,4
61261.5,1.0,0.873,-1.743,1.304,0.079,0.32,-0.069,9.245,303.27,10.186176,332.3261,1,1,1,1,59.60151,5.4591311,3000,1005,20,80,+SHRA,1000,1,2000,2,3000,3,4000,4
61262,1.0,0.878,-1.811,1.041,-0.265,0.346,-0.051,9.158,303.27,9.8760622,332.3261,1,1,1,1,59.60151,5.4591311,3000,1005,20,80,+SHRA,1000,1,2000,2,3000,3,4000,4
61262.5,1.0,0.864,-1.805,0.648,-0.568,0.333,-0.048,9.177,303.17,10.186176,332.3261,1,1,1,1,59.60151,5.4591311,3000,1005,20,80,+SHRA,1000,1,2000,2,3000,3,4000,4
61263,1.1,0.831,-1.734,0.18,-0.783,0.293,-0.034,9.277,303.17,10.186176,332.37149,1,1,1,1,59.60151,5.4591311,3000,1005,20,80,+SHRA,1000,1,2000,2,3000,3,4000,4
61263.5,1.1,0.782,-1.608,-0.298,-0.887,0.229,-0.043,9.457,303.17,9.8760622,332.44692,1,1,1,1,59.60151,5.4591311,3000,1005,20,80,+SHRA,1000,1,2000,2,3000,3,4000,4
61264,1.1,0.724,-1.448,-0.723,-0.867,0.156,-0.055,9.672,303.17,10.186176,332.44692,1,1,1,1,59.60151,5.4591311,3000,1005,20,80,+SHRA,1000,1,2000,2,3000,3,4000,4
61264.5,1.1,0.66,-1.275,-1.04,-0.736,0.084,-0.069,9.886,303.07,10.186176,332.37149,1,1,1,1,59.60151,5.4591311,3000,1005,20,80,+SHRA,1000,1,2000,2,3000,3,4000,4
61265,1.1,0.602,-1.115,-1.214,-0.52,0.02,-0.074,10.07,303.07,10.186176,332.37149,1,1,1,1,59.60151,5.4591311,3000,1005,20,80,+SHRA,1000,1,2000,2,3000,3,4000,4
61265.5,1.1,0.551,-0.984,-1.234,-0.265,-0.019,-0.096,10.188,303.17,10.186176,332.44692,1,1,1,1,59.60151,5.4591311,3000,1005,20,80,+SHRA,1000,1,2000,2,3000,3,4000,4
61266,1.1,0.517,-0.892,-1.111,0,-0.037,-0.109,10.254,303.17,10.196011,332.52,1,1,1,1,59.60151,5.4591311,3000,1005,20,80,+SHRA,1000,1,2000,2,3000,3,4000,4
61266.5,1.1,0.5,-0.847,-0.874,0.228,-0.022,-0.122,10.229,303.07,10.196011,332.52,1,1,1,1,59.60151,5.4591311,3000,1005,20,80,+SHRA,1000,1,2000,2,3000,3,4000,4
61267,1.1,0.507,-0.845,-0.564,0.405,-0.009,-0.157,10.183,303.07,10.186176,332.5707,1,1,1,1,59.60151,5.4591311,3000,1005,20,80,+SHRA,1000,1,2000,2,3000,3,4000,4
61267.5,1.1,0.53,-0.88,-0.225,0.506,0.025,-0.158,10.07,303.07,10.196011,332.52,1,1,1,1,59.60151,5.4591311,3000,1005,20,80,+SHRA,1000,1,2000,2,3000,3,4000,4
61268,1.1,0.563,-0.946,0.101,0.546,0.039,-0.136,10,303.07,10.248836,332.5707,1,1,1,1,59.60151,5.4591311,3000,1005,20,80,+SHRA,1000,1,2000,2,3000,3,4000,4
61268.5,1.1,0.6,-1.029,0.383,0.52,0.087,-0.126,9.877,302.97,10.145917,332.5707,1,1,1,1,59.60151,5.4591311,3000,1005,20,80,+SHRA,1000,1,2000,2,3000,3,4000,4
61269,1.2,0.631,-1.119,0.595,0.453,0.108,-0.141,9.813,302.97,9.948793,332.5707,1,1,1,1,59.60151,5.4591311,3000,1005,20,80,+SHRA,1000,1,2000,2,3000,3,4000,4
61269.5,1.2,0.648,-1.213,0.732,0.358,0.132,-0.141,9.737,302.87,9.948793,332.5707,1,1,1,1,59.60151,5.4591311,3000,1005,20,80,+SHRA,1000,1,2000,2,3000,3,4000,4
61270,1.2,0.653,-1.297,0.79,0.251,0.13,-0.142,9.726,302.87,9.948793,332.5707,1,1,1,1,59.60151,5.4591311,3000,1005,20,80,+SHRA,1000,1,2000,2,3000,3,4000,4
61270.5,1.2,0.641,-1.372,0.781,0.152,0.143,-0.116,9.706,302.87,9.8492741,332.5707,1,1,1,1,59.60151,5.4591311,3000,1005,20,80,+SHRA,1000,1,2000,2,3000,3,4000,4
61271,1.2,0.617,-1.432,0.717,0.061,0.15,-0.064,9.714,302.87,9.948793,332.59025,1,1,1,1,59.60151,5.4591311,3000,1005,20,80,+SHRA,1000,1,2000,2,3000,3,4000,4
61271.5,1.2,0.585,-1.479,0.614,-0.012,0.153,-0.022,9.719,302.87,9.948793,332.59025,1,1,1,1,59.60151,5.4591311,3000,1005,20,80,+SHRA,1000,1,2000,2,3000,3,4000,4
61272,1.2,0.553,-1.513,0.484,-0.079,0.162,-0.014,9.711,302.87,10.145917,332.5707,1,1,1,1,59.60151,5.4591311,3000,1005,20,80,+SHRA,1000,1,2000,2,3000,3,4000,4
61272.5,1.2,0.524,-1.533,0.337,-0.138,0.17,-0.048,9.696,302.87,10.15074,332.5707,1,1,1,1,59.60151,5.4591311,3000,1005,20,80,+SHRA,1000,1,2000,2,3000,3,4000,4
61273,1.2,0.507,-1.534,0.176,-0.202,0.191,-0.045,9.662,302.87,10.15074,332.5707,1,1,1,1,59.60151,5.4591311,3000,1005,20,80,+SHRA,1000,1,2000,2,3000,3,4000,4
61273.5,1.2,0.499,-1.518,0.006,-0.263,0.196,-0.035,9.644,302.87,10.15074,332.59025,1,1,1,1,59.60151,5.4591311,3000,1005,20,80,+SHRA,1000,1,2000,2,3000,3,4000,4
61274,1.2,0.505,-1.483,-0.171,-0.335,0.209,-0.07,9.59,302.87,10.15074,332.5707,1,1,1,1,59.60151,5.4591311,3000,1005,20,80,+SHRA,1000,1,2000,2,3000,3,4000,4
61274.5,1.2,0.525,-1.426,-0.352,-0.397,0.194,-0.091,9.59,302.87,10.15074,332.59025,1,1,1,1,59.60151,5.4591311,3000,1005,20,80,+SHRA,1000,1,2000,2,3000,3,4000,4
61275,1.3,0.556,-1.346,-0.528,-0.445,0.179,-0.171,9.591,302.87,10.248836,332.59025,1,1,1,1,59.60151,5.4591311,3000,1005,20,80,+SHRA,1000,1,2000,2,3000,3,4000,4
61275.5,1.3,0.594,-1.252,-0.686,-0.458,0.142,-0.237,9.666,302.77,10.293701,332.59025,1,1,1,1,59.60151,5.4591311,3000,1005,20,80,+SHRA,1000,1,2000,2,3000,3,4000,4
61276,1.3,0.639,-1.147,-0.806,-0.419,0.101,-0.266,9.762,302.77,10.248836,332.86006,1,1,1,1,59.60151,5.4591311,3000,1005,20,80,+SHRA,1000,1,2000,2,3000,3,4000,4
61276.5,1.3,0.692,-1.04,-0.865,-0.324,0.057,-0.264,9.897,302.57,10.248836,332.91537,1,1,1,1,59.60151,5.4591311,3000,1005,20,80,+SHRA,1000,1,2000,2,3000,3,4000,4
61277,1.3,0.75,-0.949,-0.846,-0.175,0.022,-0.246,10.019,302.57,10.248836,332.86006,1,1,1,1,59.60151,5.4591311,3000,1005,20,80,+SHRA,1000,1,2000,2,3000,3,4000,4
61277.5,1.3,0.807,-0.884,-0.738,0.01,-0.021,-0.208,10.144,302.57,10.293701,332.68768,1,1,1,1,59.60151,5.4591311,3000,1005,20,80,+SHRA,1000,1,2000,2,3000,3,4000,4
61278,1.3,0.864,-0.852,-0.542,0.218,-0.036,-0.147,10.236,302.57,10.293701,332.68768,1,1,1,1,59.60151,5.4591311,3000,1005,20,80,+SHRA,1000,1,2000,2,3000,3,4000,4
61278.5,1.3,0.906,-0.865,-0.269,0.421,-0.036,-0.042,10.281,302.57,10.293701,332.70503,1,1,1,1,59.60151,5.4591311,3000,1005,20,80,+SHRA,1000,1,2000,2,3000,3,4000,4
61279,1.3,0.939,-0.92,0.058,0.6,-0.023,0.053,10.281,302.57,10.31596,332.70503,1,1,1,1,59.60151,5.4591311,3000,1005,20,80,+SHRA,1000,1,2000,2,3000,3,4000,4
61279.5,1.3,0.949,-1.018,0.409,0.718,0.009,0.154,10.205,302.67,10.31596,332.86006,1,1,1,1,59.60151,5.4591311,3000,1005,20,80,+SHRA,1000,1,2000,2,3000,3,4000,4
61280,1.3,0.935,-1.149,0.741,0.764,0.039,0.27,10.101,302.67,10.357771,333.12919,1,1,1,1,59.60151,5.4591311,3000,1005,20,80,+SHRA,1000,1,2000,2,3000,3,4000,4
61280.5,1.3,0.898,-1.299,1.016,0.72,0.102,0.292,9.92,302.67,10.357771,333.13923,1,1,1,1,59.60151,5.4591311,3000,1005,20,80,+SHRA,1000,1,2000,2,3000,3,4000,4
61281,1.4,0.84,-1.449,1.195,0.587,0.156,0.245,9.738,302.67,10.31596,333.12919,1,1,1,1,59.60151,5.4591311,3000,1005,20,80,+SHRA,1000,1,2000,2,3000,3,4000,4
61281.5,1.4,0.765,-1.584,1.25,0.378,0.213,0.149,9.544,302.67,10.31596,333.12919,1,1,1,1,59.60151,5.4591311,3000,1005,20,80,+SHRA,1000,1,2000,2,3000,3,4000,4
61282,1.4,0.683,-1.684,1.167,0.111,0.252,-0.021,9.388,302.67,10.31596,332.86006,1,1,1,1,59.60151,5.4591311,3000,1005,20,80,+SHRA,1000,1,2000,2,3000,3,4000,4
61282.5,1.4,0.602,-1.731,0.947,-0.18,0.287,-0.163,9.264,302.57,10.31596,332.86006,1,1,1,1,59.60151,5.4591311,3000,1005,20,80,+SHRA,1000,1,2000,2,3000,3,4000,4
61283,1.4,0.529,-1.724,0.609,-0.464,0.303,-0.288,9.212,302.57,10.293701,332.86006,1,1,1,1,59.60151,5.4591311,3000,1005,20,80,+SHRA,1000,1,2000,2,3000,3,4000,4
61283.5,1.4,0.47,-1.664,0.19,-0.693,0.283,-0.368,9.251,302.47,10.293701,332.82534,1,1,1,1,59.60151,5.4591311,3000,1005,20,80,+SHRA,1000,1,2000,2,3000,3,4000,4
61284,1.4,0.42,-1.552,-0.261,-0.843,0.245,-0.405,9.36,302.47,10.347241,332.86006,1,1,1,1,59.60151,5.4591311,3000,1005,20,80,+SHRA,1000,1,2000,2,3000,3,4000,4
61284.5,1.4,0.391,-1.406,-0.689,-0.883,0.177,-0.387,9.546,302.27,10.347241,332.88845,1,1,1,1,59.60151,5.4591311,3000,1005,20,80,+SHRA,1000,1,2000,2,3000,3,4000,4
61285,1.4,0.378,-1.252,-1.038,-0.816,0.111,-0.322,9.746,302.27,10.357771,332.86006,1,1,1,1,59.60151,5.4591311,3000,1005,20,80,+SHRA,1000,1,2000,2,3000,3,4000,4
61285.5,1.4,0.379,-1.1,-1.266,-0.646,0.039,-0.252,9.964,302.27,10.357771,332.86006,1,1,1,1,59.60151,5.4591311,3000,1005,20,80,+SHRA,1000,1,2000,2,3000,3,4000,4
61286,1.4,0.39,-0.977,-1.347,-0.408,-0.01,-0.212,10.127,302.27,10.557164,332.88845,1,1,1,1,59.60151,5.4591311,3000,1005,20,80,+SHRA,1000,1,2000,2,3000,3,4000,4
61286.5,1.4,0.415,-0.894,-1.274,-0.129,-0.044,-0.173,10.26,302.27,10.557164,332.88845,1,1,1,1,59.60151,5.4591311,3000,1005,20,80,+SHRA,1000,1,2000,2,3000,3,4000,4
61287,1.5,0.447,-0.858,-1.063,0.144,-0.055,-0.07,10.301,302.27,10.557164,332.88845,1,1,1,1,59.60151,5.4591311,3000,1005,20,80,+SHRA,1000,1,2000,2,3000,3,4000,4
61287.5,1.5,0.48,-0.869,-0.747,0.384,-0.05,-0.016,10.304,302.37,10.557164,332.88845,1,1,1,1,59.60151,5.4591311,3000,1005,20,80,+SHRA,1000,1,2000,2,3000,3,4000,4
61288,1.5,0.512,-0.922,-0.367,0.559,-0.012,0.007,10.216,302.37,10.357771,332.88845,1,1,1,1,59.60151,5.4591311,3000,1005,20,80,+SHRA,1000,1,2000,2,3000,3,4000,4
61288.5,1.5,0.537,-1.008,0.026,0.655,0.024,0.05,10.116,302.37,10.347241,332.86006,1,1,1,1,59.60151,5.4591311,3000,1005,20,80,+SHRA,1000,1,2000,2,3000,3,4000,4
61289,1.5,0.558,-1.113,0.389,0.672,0.08,0.032,9.979,302.37,10.357771,332.82534,1,1,1,1,59.60151,5.4591311,3000,1005,20,80,+SHRA,1000,1,2000,2,3000,3,4000,4
61289.5,1.5,0.567,-1.221,0.684,0.611,0.125,0.024,9.848,302.37,10.463992,332.82534,1,1,1,1,59.60151,5.4591311,3000,1005,20,80,+SHRA,1000,1,2000,2,3000,3,4000,4
61290,1.5,0.564,-1.321,0.885,0.493,0.172,0.026,9.718,302.37,10.463992,332.82534,1,1,1,1,59.60151,5.4591311,3000,1005,20,80,+SHRA,1000,1,2000,2,3000,3,4000,4
61290.5,1.5,0.548,-1.4,0.977,0.33,0.196,0,9.618,302.27,10.357771,332.82534,1,1,1,1,59.60151,5.4591311,3000,1005,20,80,+SHRA,1000,1,2000,2,3000,3,4000,4
61291,1.5,0.525,-1.453,0.962,0.152,0.211,-0.087,9.557,302.27,10.463992,332.82534,1,1,1,1,59.60151,5.4591311,3000,1005,20,80,+SHRA,1000,1,2000,2,3000,3,4000,4
61291.5,1.5,0.495,-1.473,0.852,-0.025,0.222,-0.18,9.519,302.17,10.496027,332.74588,1,1,1,1,59.60151,5.4591311,3000,1005,20,80,+SHRA,1000,1,2000,2,3000,3,4000,4
61292,1.5,0.47,-1.465,0.669,-0.173,0.206,-0.253,9.541,302.17,10.496027,332.70503,1,1,1,1,59.60151,5.4591311,3000,1005,20,80,+SHRA,1000,1,2000,2,3000,3,4000,4
61292.5,1.5,0.454,-1.431,0.442,-0.286,0.185,-0.357,9.574,302.07,10.496027,332.70503,1,1,1,1,59.60151,5.4591311,3000,1005,20,80,+SHRA,1000,1,2000,2,3000,3,4000,4
61293,1.6,0.456,-1.38,0.198,-0.354,0.163,-0.326,9.639,302.07,10.463992,332.70503,1,1,1,1,59.60151,5.4591311,3000,1005,20,80,+SHRA,1000,1,2000,2,3000,3,4000,4
61293.5,1.6,0.474,-1.322,-0.034,-0.373,0.132,-0.23,9.715,301.97,10.347241,332.64004,1,1,1,1,59.60151,5.4591311,3000,1005,20,80,+SHRA,1000,1,2000,2,3000,3,4000,4
61294,1.6,0.507,-1.264,-0.23,-0.345,0.1,-0.142,9.808,301.97,10.347241,332.64004,1,1,1,1,59.60151,5.4591311,3000,1005,20,80,+SHRA,1000,1,2000,2,3000,3,4000,4
61294.5,1.6,0.56,-1.211,-0.373,-0.28,0.077,-0.109,9.87,302.07,10.250946,332.74588,1,1,1,1,59.60151,5.4591311,3000,1005,20,80,+SHRA,1000,1,2000,2,3000,3,4000,4
61295,1.6,0.619,-1.175,-0.454,-0.195,0.048,-0.035,9.927,302.07,10.088904,332.74588,1,1,1,1,59.60151,5.4591311,3000,1005,20,80,+SHRA,1000,1,2000,2,3000,3,4000,4
61295.5,1.6,0.679,-1.157,-0.476,-0.103,0.034,0.01,9.95,302.07,9.726853,332.74588,1,1,1,1,59.60151,5.4591311,3000,1005,20,80,+SHRA,1000,1,2000,2,3000,3,4000,4
61296,1.6,0.738,-1.157,-0.446,-0.019,0.036,-0.005,9.952,302.07,9.726853,332.74588,1,1,1,1,59.60151,5.4591311,3000,1005,20,80,+SHRA,1000,1,2000,2,3000,3,4000,4
61296.5,1.6,0.791,-1.172,-0.378,0.051,0.056,0.017,9.931,302.07,10.088904,332.75946,1,1,1,1,59.60151,5.4591311,3000,1005,20,80,+SHRA,1000,1,2000,2,3000,3,4000,4
61297,1.6,0.84,-1.201,-0.288,0.095,0.072,0.002,9.899,302.07,10.088904,332.75946,1,1,1,1,59.60151,5.4591311,3000,1005,20,80,+SHRA,1000,1,2000,2,3000,3,4000,4
61297.5,1.6,0.878,-1.231,-0.19,0.122,0.088,-0.04,9.88,302.07,10.088904,332.74588,1,1,1,1,59.60151,5.4591311,3000,1005,20,80,+SHRA,1000,1,2000,2,3000,3,4000,4
61298,1.6,0.906,-1.261,-0.097,0.126,0.116,-0.083,9.841,302.07,10.088904,332.62153,1,1,1,1,59.60151,5.4591311,3000,1005,20,80,+SHRA,1000,1,2000,2,3000,3,4000,4
61298.5,1.6,0.921,-1.286,-0.016,0.12,0.138,-0.097,9.824,301.97,10.194083,332.62153,1,1,1,1,59.60151,5.4591311,3000,1005,20,80,+SHRA,1000,1,2000,2,3000,3,4000,4
61299,1.7,0.919,-1.303,0.048,0.101,0.163,-0.128,9.794,301.97,10.250946,332.62153,1,1,1,1,59.60151,5.4591311,3000,1005,20,80,+SHRA,1000,1,2000,2,3000,3,4000,4
61299.5,1.7,0.901,-1.31,0.091,0.075,0.167,-0.11,9.788,301.97,10.250946,332.60207,1,1,1,1,59.60151,5.4591311,3000,1005,20,80,+SHRA,1000,1,2000,2,3000,3,4000,4
61300,1.7,0.865,-1.309,0.115,0.047,0.162,-0.077,9.774,301.97,10.250946,332.59052,1,1,1,1,59.60151,5.4591311,3000,1005,20,80,+SHRA,1000,1,2000,2,3000,3,4000,4
61300.5,1.7,0.818,-1.295,0.121,0.022,0.14,-0.037,9.786,301.87,10.194083,332.50718,1,1,1,1,59.60151,5.4591311,3000,1005,20,80,+SHRA,1000,1,2000,2,3000,3,4000,4
61301,1.7,0.765,-1.28,0.113,-0.002,0.135,0.013,9.772,301.87,10.250946,332.50718,1,1,1,1,59.60151,5.4591311,3000,1005,20,80,+SHRA,1000,1,2000,2,3000,3,4000,4
61301.5,1.7,0.716,-1.259,0.094,-0.023,0.115,0.072,9.777,301.87,10.250946,332.32605,1,1,1,1,59.60151,5.4591311,3000,1005,20,80,+SHRA,1000,1,2000,2,3000,3,4000,4
61302,1.7,0.67,-1.236,0.067,-0.043,0.101,0.058,9.776,301.87,10.194083,332.32605,1,1,1,1,59.60151,5.4591311,3000,1005,20,80,+SHRA,1000,1,2000,2,3000,3,4000,4
61302.5,1.7,0.633,-1.208,0.034,-0.058,0.088,0.016,9.784,301.87,10.078997,332.32605,1,1,1,1,59.60151,5.4591311,3000,1005,20,80,+SHRA,1000,1,2000,2,3000,3,4000,4
61303,1.7,0.603,-1.183,0,-0.064,0.086,-0.042,9.791,301.87,9.9974525,332.50718,1,1,1,1,59.60151,5.4591311,3000,1005,20,80,+SHRA,1000,1,2000,2,3000,3,4000,4
61303.5,1.7,0.576,-1.165,-0.029,-0.06,0.08,-0.13,9.816,301.97,9.9974525,332.50718,1,1,1,1,59.60151,5.4591311,3000,1005,20,80,+SHRA,1000,1,2000,2,3000,3,4000,4
61304,1.7,0.551,-1.149,-0.046,-0.034,0.069,-0.2,9.866,301.97,9.9974525,332.60207,1,1,1,1,59.60151,5.4591311,3000,1005,20,80,+SHRA,1000,1,2000,2,3000,3,4000,4
61304.5,1.7,0.533,-1.146,-0.046,0.001,0.076,-0.253,9.883,301.87,9.9974525,332.60207,1,1,1,1,59.60151,5.4591311,3000,1005,20,80,+SHRA,1000,1,2000,2,3000,3,4000,4
61305,1.8,0.517,-1.155,-0.028,0.037,0.088,-0.267,9.889,301.87,9.9974525,332.75946,1,1,1,1,59.60151,5.4591311,3000,1005,20,80,+SHRA,1000,1,2000,2,3000,3,4000,4
61305.5,1.8,0.51,-1.177,0.003,0.066,0.093,-0.268,9.88,301.77,9.9974525,332.70296,1,1,1,1,59.60151,5.4591311,3000,1005,20,80,+SHRA,1000,1,2000,2,3000,3,4000,4
61306,1.8,0.519,-1.206,0.04,0.081,0.103,-0.243,9.856,301.77,9.9974525,332.75946,1,1,1,1,59.60151,5.4591311,3000,1005,20,80,+SHRA,1000,1,2000,2,3000,3,4000,4
61306.5,1.8,0.545,-1.239,0.074,0.077,0.113,-0.172,9.821,301.77,9.726853,332.75946,1,1,1,1,59.60151,5.4591311,3000,1005,20,80,+SHRA,1000,1,2000,2,3000,3,4000,4
61307,1.8,0.587,-1.276,0.094,0.05,0.134,-0.131,9.769,301.77,9.726853,332.75946,1,1,1,1,59.60151,5.4591311,3000,1005,20,80,+SHRA,1000,1,2000,2,3000,3,4000,4
61307.5,1.8,0.637,-1.304,0.094,0.009,0.143,-0.068,9.737,301.77,9.9974525,332.75946,1,1,1,1,59.60151,5.4591311,3000,1005,20,80,+SHRA,1000,1,2000,2,3000,3,4000,4
61308,1.8,0.693,-1.323,0.072,-0.037,0.145,-0.03,9.724,301.77,9.9974525,332.75946,1,1,1,1,59.60151,5.4591311,3000,1005,20,80,+SHRA,1000,1,2000,2,3000,3,4000,4
61308.5,1.8,0.739,-1.328,0.031,-0.077,0.143,-0.021,9.732,301.87,9.9974525,332.7755,1,1,1,1,59.60151,5.4591311,3000,1005,20,80,+SHRA,1000,1,2000,2,3000,3,4000,4
61309,1.8,0.774,-1.321,-0.019,-0.098,0.134,0.02,9.763,301.87,10.02367,332.7755,1,1,1,1,59.60151,5.4591311,3000,1005,20,80,+SHRA,1000,1,2000,2,3000,3,4000,4
61309.5,1.8,0.79,-1.305,-0.065,-0.095,0.118,0.05,9.811,301.87,10.078997,332.75946,1,1,1,1,59.60151,5.4591311,3000,1005,20,80,+SHRA,1000,1,2000,2,3000,3,4000,4
61310,1.8,0.787,-1.283,-0.096,-0.064,0.097,0.052,9.872,301.87,10.02367,332.70296,1,1,1,1,59.60151,5.4591311,3000,1005,20,80,+SHRA,1000,1,2000,2,3000,3,4000,4
61310.5,1.8,0.767,-1.263,-0.101,-0.012,0.083,0.004,9.92,301.87,10.078997,332.70296,1,1,1,1,59.60151,5.4591311,3000,1005,20,80,+SHRA,1000,1,2000,2,3000,3,4000,4
61311,1.9,0.737,-1.246,-0.077,0.048,0.077,0.001,9.942,301.87,10.083048,332.68017,1,1,1,1,59.60151,5.4591311,3000,1005,20,80,+SHRA,1000,1,2000,2,3000,3,4000,4
61311.5,1.9,0.698,-1.235,-0.031,0.092,0.086,-0.054,9.919,301.87,10.078997,332.60207,1,1,1,1,59.60151,5.4591311,3000,1005,20,80,+SHRA,1000,1,2000,2,3000,3,4000,4
61312,1.9,0.656,-1.231,0.025,0.115,0.098,-0.123,9.882,301.87,10.02367,332.54872,1,1,1,1,59.60151,5.4591311,3000,1005,20,80,+SHRA,1000,1,2000,2,3000,3,4000,4
61312.5,1.9,0.62,-1.226,0.077,0.111,0.113,-0.129,9.823,301.77,9.9974525,332.54872,1,1,1,1,59.60151,5.4591311,3000,1005,20,80,+SHRA,1000,1,2000,2,3000,3,4000,4
61313,1.9,0.603,-1.223,0.112,0.083,0.116,-0.169,9.78,301.77,10.02367,332.54872,1,1,1,1,59.60151,5.4591311,3000,1005,20,80,+SHRA,1000,1,2000,2,3000,3,4000,4
61313.5,1.9,0.601,-1.218,0.122,0.032,0.134,-0.225,9.722,301.67,10.02367,332.56646,1,1,1,1,59.60151,5.4591311,3000,1005,20,80,+SHRA,1000,1,2000,2,3000,3,4000,4
61314,1.9,0.618,-1.21,0.103,-0.025,0.131,-0.219,9.708,301.67,9.9974525,332.56646,1,1,1,1,59.60151,5.4591311,3000,1005,20,80,+SHRA,1000,1,2000,2,3000,3,4000,4
61314.5,1.9,0.653,-1.199,0.06,-0.075,0.126,-0.183,9.705,301.67,9.9974525,332.56646,1,1,1,1,59.60151,5.4591311,3000,1005,20,80,+SHRA,1000,1,2000,2,3000,3,4000,4
61315,1.9,0.702,-1.186,0.002,-0.109,0.107,-0.205,9.739,301.67,9.9210635,332.68017,1,1,1,1,59.60151,5.4591311,3000,1005,20,80,+SHRA,1000,1,2000,2,3000,3,4000,4
61315.5,1.9,0.758,-1.179,-0.058,-0.122,0.099,-0.132,9.764,301.67,9.9210635,332.68783,1,1,1,1,59.60151,5.4591311,3000,1005,20,80,+SHRA,1000,1,2000,2,3000,3,4000,4
61316,1.9,0.81,-1.178,-0.109,-0.114,0.083,-0.06,9.813,301.67,9.9974525,332.70296,1,1,1,1,59.60151,5.4591311,3000,1005,20,80,+SHRA,1000,1,2000,2,3000,3,4000,4
61316.5,1.9,0.852,-1.186,-0.142,-0.082,0.073,-0.034,9.855,301.67,9.9974525,332.70296,1,1,1,1,59.60151,5.4591311,3000,1005,20,80,+SHRA,1000,1,2000,2,3000,3,4000,4
61317,2.0,0.874,-1.203,-0.152,-0.043,0.079,0.002,9.878,301.67,9.9210635,332.70296,1,1,1,1,59.60151,5.4591311,3000,1005,20,80,+SHRA,1000,1,2000,2,3000,3,4000,4
61317.5,2.0,0.87,-1.225,-0.137,0.003,0.082,0.029,9.899,301.77,9.8744502,332.70296,1,1,1,1,59.60151,5.4591311,3000,1005,20,80,+SHRA,1000,1,2000,2,3000,3,4000,4
61318,2.0,0.839,-1.252,-0.104,0.038,0.099,0.007,9.883,301.77,9.8744502,332.80929,1,1,1,1,59.60151,5.4591311,3000,1005,20,80,+SHRA,1000,1,2000,2,3000,3,4000,4
61318.5,2.0,0.79,-1.276,-0.06,0.065,0.111,-0.03,9.875,301.77,9.8744502,332.70296,1,1,1,1,59.60151,5.4591311,3000,1005,20,80,+SHRA,1000,1,2000,2,3000,3,4000,4
61319,2.0,0.722,-1.293,-0.013,0.073,0.13,-0.037,9.834,301.77,9.8744502,332.68783,1,1,1,1,59.60151,5.4591311,3000,1005,20,80,+SHRA,1000,1,2000,2,3000,3,4000,4
61319.5,2.0,0.654,-1.301,0.028,0.069,0.138,-0.079,9.824,301.77,9.8744502,332.68017,1,1,1,1,59.60151,5.4591311,3000,1005,20,80,+SHRA,1000,1,2000,2,3000,3,4000,4
61320,2.0,0.593,-1.299,0.06,0.059,0.148,-0.07,9.813,301.77,9.86553,332.68017,1,1,1,1,59.60151,5.4591311,3000,1005,20,80,+SHRA,1000,1,2000,2,3000,3,4000,4
61320.5,2.0,0.55,-1.286,0.082,0.05,0.139,-0.07,9.816,301.77,9.86553,332.59962,1,1,1,1,59.60151,5.4591311,3000,1005,20,80,+SHRA,1000,1,2000,2,3000,3,4000,4
61321,2.0,0.536,-1.264,0.095,0.04,0.128,-0.089,9.805,301.77,9.86553,332.59962,1,1,1,1,59.60151,5.4591311,3000,1005,20,80,+SHRA,1000,1,2000,2,3000,3,4000,4
61321.5,2.0,0.549,-1.236,0.1,0.03,0.116,-0.139,9.811,301.77,9.86553,332.59962,1,1,1,1,59.60151,5.4591311,3000,1005,20,80,+SHRA,1000,1,2000,2,3000,3,4000,4
61322,2.0,0.584,-1.206,0.1,0.025,0.102,-0.115,9.82,301.77,9.86553,332.59962,1,1,1,1,59.60151,5.4591311,3000,1005,20,80,+SHRA,1000,1,2000,2,3000,3,4000,4
61322.5,2.0,0.627,-1.181,0.096,0.023,0.085,-0.146,9.829,301.77,9.86553,332.68017,1,1,1,1,59.60151,5.4591311,3000,1005,20,80,+SHRA,1000,1,2000,2,3000,3,4000,4
61323,2.1,0.669,-1.16,0.091,0.022,0.077,-0.167,9.832,301.77,9.6684862,332.68783,1,1,1,1,59.60151,5.4591311,3000,1005,20,80,+SHRA,1000,1,2000,2,3000,3,4000,4
61323.5,2.1,0.698,-1.156,0.086,0.023,0.074,-0.111,9.826,301.77,9.7567894,332.68783,1,1,1,1,59.60151,5.4591311,3000,1005,20,80,+SHRA,1000,1,2000,2,3000,3,4000,4
61324,2.1,0.71,-1.162,0.079,0.018,0.071,-0.131,9.819,301.77,9.7567894,332.68017,1,1,1,1,59.60151,5.4591311,3000,1005,20,80,+SHRA,1000,1,2000,2,3000,3,4000,4
61324.5,2.1,0.698,-1.182,0.066,0,0.088,-0.103,9.783,301.77,9.6669413,332.68017,1,1,1,1,59.60151,5.4591311,3000,1005,20,80,+SHRA,1000,1,2000,2,3000,3,4000,4
61325,2.1,0.669,-1.209,0.044,-0.026,0.101,-0.095,9.759,301.77,9.6062989,332.68783,1,1,1,1,59.60151,5.4591311,3000,1005,20,80,+SHRA,1000,1,2000,2,3000,3,4000,4
61325.5,2.1,0.625,-1.239,0.011,-0.059,0.108,-0.086,9.743,301.77,9.6062989,332.68783,1,1,1,1,59.60151,5.4591311,3000,1005,20,80,+SHRA,1000,1,2000,2,3000,3,4000,4
61326,2.1,0.578,-1.267,-0.034,-0.091,0.114,-0.111,9.735,301.77,9.6062989,332.59962,1,1,1,1,59.60151,5.4591311,3000,1005,20,80,+SHRA,1000,1,2000,2,3000,3,4000,4
61326.5,2.1,0.537,-1.291,-0.085,-0.118,0.128,-0.101,9.736,301.87,9.6062989,332.59962,1,1,1,1,59.60151,5.4591311,3000,1005,20,80,+SHRA,1000,1,2000,2,3000,3,4000,4
61327,2.1,0.512,-1.303,-0.138,-0.13,0.126,-0.123,9.759,301.87,9.6062989,332.68783,1,1,1,1,59.60151,5.4591311,3000,1005,20,80,+SHRA,1000,1,2000,2,3000,3,4000,4
61327.5,2.1,0.503,-1.303,-0.182,-0.126,0.132,-0.112,9.791,301.77,9.4059842,332.69633,1,1,1,1,59.60151,5.4591311,3000,1005,20,80,+SHRA,1000,1,2000,2,3000,3,4000,4
61328,2.1,0.514,-1.293,-0.212,-0.104,0.13,-0.15,9.823,301.77,9.4059842,332.69633,1,1,1,1,59.60151,5.4591311,3000,1005,20,80,+SHRA,1000,1,2000,2,3000,3,4000,4
61328.5,2.1,0.544,-1.274,-0.221,-0.071,0.127,-0.148,9.854,301.87,9.4059842,332.68783,1,1,1,1,59.60151,5.4591311,3000,1005,20,80,+SHRA,1000,1,2000,2,3000,3,4000,4
61329,2.2,0.584,-1.245,-0.207,-0.026,0.121,-0.164,9.885,301.87,9.4059842,332.59962,1,1,1,1,59.60151,5.4591311,3000,1005,20,80,+SHRA,1000,1,2000,2,3000,3,4000,4
61329.5,2.2,0.63,-1.21,-0.17,0.025,0.109,-0.197,9.914,301.77,9.4736868,332.59257,1,1,1,1,59.60151,5.4591311,3000,1005,20,80,+SHRA,1000,1,2000,2,3000,3,4000,4
61330,2.2,0.672,-1.178,-0.11,0.08,0.099,-0.167,9.932,301.77,9.4059842,332.59962,1,1,1,1,59.60151,5.4591311,3000,1005,20,80,+SHRA,1000,1,2000,2,3000,3,4000,4
61330.5,2.2,0.703,-1.152,-0.032,0.133,0.082,-0.12,9.945,301.87,9.4059842,332.59257,1,1,1,1,59.60151,5.4591311,3000,1005,20,80,+SHRA,1000,1,2000,2,3000,3,4000,4
61331,2.2,0.717,-1.139,0.059,0.177,0.07,-0.036,9.945,301.87,9.4736868,332.59257,1,1,1,1,59.60151,5.4591311,3000,1005,20,80,+SHRA,1000,1,2000,2,3000,3,4000,4
61331.5,2.2,0.717,-1.14,0.152,0.208,0.061,0.016,9.935,301.87,9.4059842,332.50291,1,1,1,1,59.60151,5.4591311,3000,1005,20,80,+SHRA,1000,1,2000,2,3000,3,4000,4
61332,2.2,0.703,-1.152,0.24,0.215,0.067,0.036,9.889,301.87,9.4059842,332.45141,1,1,1,1,59.60151,5.4591311,3000,1005,20,80,+SHRA,1000,1,2000,2,3000,3,4000,4
61332.5,2.2,0.682,-1.18,0.31,0.201,0.071,0.058,9.848,301.97,9.4736868,332.34931,1,1,1,1,59.60151,5.4591311,3000,1005,20,80,+SHRA,1000,1,2000,2,3000,3,4000,4
61333,2.2,0.659,-1.218,0.353,0.161,0.085,0.038,9.791,301.97,9.4736868,332.34931,1,1,1,1,59.60151,5.4591311,3000,1005,20,80,+SHRA,1000,1,2000,2,3000,3,4000,4
61333.5,2.2,0.642,-1.26,0.36,0.098,0.103,-0.019,9.739,301.97,9.6062989,332.34931,1,1,1,1,59.60151,5.4591311,3000,1005,20,80,+SHRA,1000,1,2000,2,3000,3,4000,4
61334,2.2,0.633,-1.299,0.327,0.015,0.131,-0.079,9.67,301.97,9.643711,332.34931,1,1,1,1,59.60151,5.4591311,3000,1005,20,80,+SHRA,1000,1,2000,2,3000,3,4000,4
61334.5,2.2,0.634,-1.332,0.251,-0.083,0.152,-0.161,9.621,301.97,9.643711,332.31522,1,1,1,1,59.60151,5.4591311,3000,1005,20,80,+SHRA,1000,1,2000,2,3000,3,4000,4
61335,2.3,0.646,-1.351,0.136,-0.18,0.164,-0.228,9.588,301.97,9.643711,332.31522,1,1,1,1,59.60151,5.4591311,3000,1005,20,80,+SHRA,1000,1,2000,2,3000,3,4000,4
61335.5,2.3,0.663,-1.35,-0.009,-0.273,0.17,-0.281,9.575,301.87,9.643711,332.31522,1,1,1,1,59.60151,5.4591311,3000,1005,20,80,+SHRA,1000,1,2000,2,3000,3,4000,4
61336,2.3,0.679,-1.332,-0.17,-0.335,0.161,-0.262,9.619,301.87,9.643711,332.34931,1,1,1,1,59.60151,5.4591311,3000,1005,20,80,+SHRA,1000,1,2000,2,3000,3,4000,4
61336.5,2.3,0.696,-1.293,-0.325,-0.355,0.149,-0.195,9.696,301.87,9.643711,332.34931,1,1,1,1,59.60151,5.4591311,3000,1005,20,80,+SHRA,1000,1,2000,2,3000,3,4000,4
61337,2.3,0.705,-1.243,-0.45,-0.322,0.126,-0.121,9.795,301.87,9.4736868,332.34931,1,1,1,1,59.60151,5.4591311,3000,1005,20,80,+SHRA,1000,1,2000,2,3000,3,4000,4
61337.5,2.3,0.706,-1.188,-0.525,-0.246,0.101,-0.067,9.895,301.97,9.643711,332.31522,1,1,1,1,59.60151,5.4591311,3000,1005,20,80,+SHRA,1000,1,2000,2,3000,3,4000,4
61338,2.3,0.701,-1.138,-0.536,-0.13,0.074,-0.057,9.993,301.97,9.643711,332.31522,1,1,1,1,59.60151,5.4591311,3000,1005,20,80,+SHRA,1000,1,2000,2,3000,3,4000,4
61338.5,2.3,0.687,-1.1,-0.478,0.005,0.062,-0.063,10.052,301.97,9.6931593,332.31522,1,1,1,1,59.60151,5.4591311,3000,1005,20,80,+SHRA,1000,1,2000,2,3000,3,4000,4
61339,2.3,0.672,-1.078,-0.356,0.149,0.042,-0.07,10.105,301.97,9.6931593,332.34931,1,1,1,1,59.60151,5.4591311,3000,1005,20,80,+SHRA,1000,1,2000,2,3000,3,4000,4
61339.5,2.3,0.655,-1.078,-0.182,0.279,0.033,-0.052,10.118,301.97,9.6931593,332.31522,1,1,1,1,59.60151,5.4591311,3000,1005,20,80,+SHRA,1000,1,2000,2,3000,3,4000,4
61340,2.3,0.643,-1.1,0.025,0.382,0.035,-0.045,10.097,301.97,9.6977935,332.31522,1,1,1,1,59.60151,5.4591311,3000,1005,20,80,+SHRA,1000,1,2000,2,3000,3,4000,4
61340.5,2.3,0.641,-1.142,0.241,0.443,0.052,0.008,10.035,301.97,9.6977935,332.31522,1,1,1,1,59.60151,5.4591311,3000,1005,20,80,+SHRA,1000,1,2000,2,3000,3,4000,4
61341,2.4,0.645,-1.2,0.438,0.453,0.072,0.033,9.945,301.97,9.6977935,332.31522,1,1,1,1,59.60151,5.4591311,3000,1005,20,80,+SHRA,1000,1,2000,2,3000,3,4000,4
61341.5,2.4,0.657,-1.269,0.592,0.402,0.1,-0.002,9.822,302.07,9.6931593,332.50291,1,1,1,1,59.60151,5.4591311,3000,1005,20,80,+SHRA,1000,1,2000,2,3000,3,4000,4
61342,2.4,0.676,-1.335,0.677,0.289,0.134,-0.016,9.683,302.07,9.643711,332.55736,1,1,1,1,59.60151,5.4591311,3000,1005,20,80,+SHRA,1000,1,2000,2,3000,3,4000,4
61342.5,2.4,0.694,-1.385,0.674,0.126,0.167,-0.063,9.554,302.07,9.6931593,332.50291,1,1,1,1,59.60151,5.4591311,3000,1005,20,80,+SHRA,1000,1,2000,2,3000,3,4000,4
61343,2.4,0.708,-1.414,0.578,-0.066,0.195,-0.106,9.455,302.07,9.6931593,332.31522,1,1,1,1,59.60151,5.4591311,3000,1005,20,80,+SHRA,1000,1,2000,2,3000,3,4000,4
61343.5,2.4,0.712,-1.417,0.396,-0.262,0.209,-0.143,9.4,302.07,9.6977935,332.50291,1,1,1,1,59.60151,5.4591311,3000,1005,20,80,+SHRA,1000,1,2000,2,3000,3,4000,4
61344,2.4,0.701,-1.385,0.146,-0.436,0.211,-0.166,9.401,302.07,9.6977935,332.50291,1,1,1,1,59.60151,5.4591311,3000,1005,20,80,+SHRA,1000,1,2000,2,3000,3,4000,4
61344.5,2.4,0.674,-1.323,-0.139,-0.557,0.191,-0.182,9.47,302.07,9.7156909,332.31522,1,1,1,1,59.60151,5.4591311,3000,1005,20,80,+SHRA,1000,1,2000,2,3000,3,4000,4
61345,2.4,0.634,-1.241,-0.42,-0.604,0.156,-0.234,9.594,302.07,9.7156909,332.55736,1,1,1,1,59.60151,5.4591311,3000,1005,20,80,+SHRA,1000,1,2000,2,3000,3,4000,4
61345.5,2.4,0.585,-1.148,-0.657,-0.563,0.108,-0.269,9.76,302.07,9.7329963,332.55736,1,1,1,1,59.60151,5.4591311,3000,1005,20,80,+SHRA,1000,1,2000,2,3000,3,4000,4
61346,2.4,0.54,-1.057,-0.811,-0.442,0.066,-0.276,9.926,302.07,9.7485004,332.60337,1,1,1,1,59.60151,5.4591311,3000,1005,20,80,+SHRA,1000,1,2000,2,3000,3,4000,4
61346.5,2.4,0.506,-0.986,-0.858,-0.25,0.019,-0.224,10.099,302.07,9.7523945,332.60337,1,1,1,1,59.60151,5.4591311,3000,1005,20,80,+SHRA,1000,1,2000,2,3000,3,4000,4
61347,2.5,0.49,-0.945,-0.783,-0.012,-0.019,-0.157,10.234,302.07,9.7523945,332.62584,1,1,1,1,59.60151,5.4591311,3000,1005,20,80,+SHRA,1000,1,2000,2,3000,3,4000,4
61347.5,2.5,0.507,-0.943,-0.594,0.233,-0.031,-0.061,10.304,302.07,9.7523945,332.62584,1,1,1,1,59.60151,5.4591311,3000,1005,20,80,+SHRA,1000,1,2000,2,3000,3,4000,4
61348,2.5,0.55,-0.981,-0.315,0.453,-0.025,0.041,10.308,302.07,9.8710318,332.62584,1,1,1,1,59.60151,5.4591311,3000,1005,20,80,+SHRA,1000,1,2000,2,3000,3,4000,4
61348.5,2.5,0.616,-1.06,0.02,0.615,-0.005,0.092,10.248,302.17,9.8710318,332.60337,1,1,1,1,59.60151,5.4591311,3000,1005,20,80,+SHRA,1000,1,2000,2,3000,3,4000,4
61349,2.5,0.697,-1.164,0.364,0.699,0.04,0.102,10.124,302.17,9.8710318,332.60337,1,1,1,1,59.60151,5.4591311,3000,1005,20,80,+SHRA,1000,1,2000,2,3000,3,4000,4
61349.5,2.5,0.771,-1.283,0.67,0.69,0.095,0.067,9.959,302.27,9.7523945,332.62584,1,1,1,1,59.60151,5.4591311,3000,1005,20,80,+SHRA,1000,1,2000,2,3000,3,4000,4
61350,2.5,0.832,-1.399,0.898,0.591,0.148,0.034,9.78,302.27,9.7523945,332.70985,1,1,1,1,59.60151,5.4591311,3000,1005,20,80,+SHRA,1000,1,2000,2,3000,3,4000,4
61350.5,2.5,0.861,-1.497,1.013,0.411,0.203,-0.01,9.597,302.27,9.7523945,332.70985,1,1,1,1,59.60151,5.4591311,3000,1005,20,80,+SHRA,1000,1,2000,2,3000,3,4000,4
61351,2.5,0.854,-1.564,1,0.179,0.241,-0.037,9.454,302.27,9.8216287,332.62584,1,1,1,1,59.60151,5.4591311,3000,1005,20,80,+SHRA,1000,1,2000,2,3000,3,4000,4
61351.5,2.5,0.808,-1.591,0.859,-0.078,0.258,-0.032,9.354,302.17,9.8216287,332.62584,1,1,1,1,59.60151,5.4591311,3000,1005,20,80,+SHRA,1000,1,2000,2,3000,3,4000,4
61352,2.5,0.731,-1.571,0.608,-0.321,0.248,-0.077,9.328,302.17,9.7927047,332.60337,1,1,1,1,59.60151,5.4591311,3000,1005,20,80,+SHRA,1000,1,2000,2,3000,3,4000,4
61352.5,2.5,0.636,-1.509,0.28,-0.522,0.231,-0.137,9.344,302.17,9.7927047,332.62584,1,1,1,1,59.60151,5.4591311,3000,1005,20,80,+SHRA,1000,1,2000,2,3000,3,4000,4
61353,2.6,0.538,-1.411,-0.085,-0.66,0.193,-0.223,9.424,302.17,9.8216287,332.70985,1,1,1,1,59.60151,5.4591311,3000,1005,20,80,+SHRA,1000,1,2000,2,3000,3,4000,4
61353.5,2.6,0.455,-1.29,-0.443,-0.719,0.145,-0.304,9.546,302.17,9.8216287,332.70985,1,1,1,1,59.60151,5.4591311,3000,1005,20,80,+SHRA,1000,1,2000,2,3000,3,4000,4
61354,2.6,0.406,-1.159,-0.752,-0.698,0.101,-0.335,9.682,302.17,9.8216287,332.71119,1,1,1,1,59.60151,5.4591311,3000,1005,20,80,+SHRA,1000,1,2000,2,3000,3,4000,4
61354.5,2.6,0.397,-1.035,-0.976,-0.597,0.051,-0.321,9.84,302.17,9.8216287,332.71119,1,1,1,1,59.60151,5.4591311,3000,1005,20,80,+SHRA,1000,1,2000,2,3000,3,4000,4
61355,2.6,0.427,-0.932,-1.092,-0.434,0.009,-0.282,9.986,302.17,9.8216287,332.71119,1,1,1,1,59.60151,5.4591311,3000,1005,20,80,+SHRA,1000,1,2000,2,3000,3,4000,4
61355.5,2.6,0.492,-0.86,-1.087,-0.223,-0.022,-0.216,10.128,302.07,9.927725,332.95094,1,1,1,1,59.60151,5.4591311,3000,1005,20,80,+SHRA,1000,1,2000,2,3000,3,4000,4
61356,2.6,0.576,-0.826,-0.963,0.011,-0.019,-0.127,10.203,302.07,9.927725,332.95094,1,1,1,1,59.60151,5.4591311,3000,1005,20,80,+SHRA,1000,1,2000,2,3000,3,4000,4
61356.5,2.6,0.661,-0.834,-0.733,0.24,-0.025,-0.046,10.262,302.27,9.8216287,332.95094,1,1,1,1,59.60151,5.4591311,3000,1005,20,80,+SHRA,1000,1,2000,2,3000,3,4000,4
61357,2.6,0.735,-0.885,-0.424,0.443,-0.017,0.02,10.258,302.27,9.927725,332.95094,1,1,1,1,59.60151,5.4591311,3000,1005,20,80,+SHRA,1000,1,2000,2,3000,3,4000,4
61357.5,2.6,0.781,-0.969,-0.071,0.593,0.008,0.077,10.211,302.27,9.927725,332.95094,1,1,1,1,59.60151,5.4591311,3000,1005,20,80,+SHRA,1000,1,2000,2,3000,3,4000,4
61358,2.6,0.802,-1.078,0.289,0.679,0.048,0.116,10.121,302.27,9.8216287,332.97518,1,1,1,1,59.60151,5.4591311,3000,1005,20,80,+SHRA,1000,1,2000,2,3000,3,4000,4
61358.5,2.6,0.795,-1.201,0.614,0.685,0.096,0.127,9.992,302.27,9.8216287,333.09369,1,1,1,1,59.60151,5.4591311,3000,1005,20,80,+SHRA,1000,1,2000,2,3000,3,4000,4
61359,2.7,0.766,-1.324,0.869,0.617,0.141,0.097,9.841,302.27,9.8216287,333.09369,1,1,1,1,59.60151,5.4591311,3000,1005,20,80,+SHRA,1000,1,2000,2,3000,3,4000,4
61359.5,2.7,0.722,-1.43,1.026,0.475,0.183,0.07,9.686,302.27,9.927725,333.25077,1,1,1,1,59.60151,5.4591311,3000,1005,20,80,+SHRA,1000,1,2000,2,3000,3,4000,4
61360,2.7,0.674,-1.512,1.068,0.286,0.209,0,9.562,302.27,9.8216287,333.27312,1,1,1,1,59.60151,5.4591311,3000,1005,20,80,+SHRA,1000,1,2000,2,3000,3,4000,4
61360.5,2.7,0.629,-1.554,0.992,0.07,0.235,-0.086,9.464,302.27,9.927725,333.25077,1,1,1,1,59.60151,5.4591311,3000,1005,20,80,+SHRA,1000,1,2000,2,3000,3,4000,4
61361,2.7,0.596,-1.558,0.812,-0.142,0.234,-0.149,9.434,302.27,9.927725,333.09369,1,1,1,1,59.60151,5.4591311,3000,1005,20,80,+SHRA,1000,1,2000,2,3000,3,4000,4
61361.5,2.7,0.58,-1.524,0.553,-0.326,0.219,-0.201,9.44,302.27,9.927725,333.09369,1,1,1,1,59.60151,5.4591311,3000,1005,20,80,+SHRA,1000,1,2000,2,3000,3,4000,4
61362,2.7,0.578,-1.462,0.249,-0.458,0.183,-0.226,9.5,302.27,9.976952,332.97518,1,1,1,1,59.60151,5.4591311,3000,1005,20,80,+SHRA,1000,1,2000,2,3000,3,4000,4
61362.5,2.7,0.583,-1.379,-0.064,-0.534,0.151,-0.254,9.563,302.17,9.976952,332.95094,1,1,1,1,59.60151,5.4591311,3000,1005,20,80,+SHRA,1000,1,2000,2,3000,3,4000,4
61363,2.7,0.592,-1.282,-0.354,-0.556,0.126,-0.246,9.649,302.17,9.976952,333.09369,1,1,1,1,59.60151,5.4591311,3000,1005,20,80,+SHRA,1000,1,2000,2,3000,3,4000,4
61363.5,2.7,0.602,-1.183,-0.595,-0.525,0.096,-0.22,9.741,302.17,9.8216287,333.09369,1,1,1,1,59.60151,5.4591311,3000,1005,20,80,+SHRA,1000,1,2000,2,3000,3,4000,4
61364,2.7,0.609,-1.088,-0.767,-0.448,0.069,-0.207,9.843,302.17,9.9716778,333.25077,1,1,1,1,59.60151,5.4591311,3000,1005,20,80,+SHRA,1000,1,2000,2,3000,3,4000,4
61364.5,2.7,0.608,-1.008,-0.859,-0.331,0.049,-0.165,9.932,302.17,9.8216287,333.27312,1,1,1,1,59.60151,5.4591311,3000,1005,20,80,+SHRA,1000,1,2000,2,3000,3,4000,4
61365,2.8,0.608,-0.949,-0.863,-0.188,0.028,-0.111,10.008,302.17,9.8216287,333.27312,1,1,1,1,59.60151,5.4591311,3000,1005,20,80,+SHRA,1000,1,2000,2,3000,3,4000,4
61365.5,2.8,0.606,-0.917,-0.783,-0.027,0.01,-0.058,10.071,302.27,9.8216287,333.32372,1,1,1,1,59.60151,5.4591311,3000,1005,20,80,+SHRA,1000,1,2000,2,3000,3,4000,4
61366,2.8,0.612,-0.913,-0.628,0.131,-0.005,-0.021,10.11,302.27,9.9716778,333.42777,1,1,1,1,59.60151,5.4591311,3000,1005,20,80,+SHRA,1000,1,2000,2,3000,3,4000,4
61366.5,2.8,0.62,-0.938,-0.415,0.274,0.008,0.006,10.119,302.27,9.976952,333.42777,1,1,1,1,59.60151,5.4591311,3000,1005,20,80,+SHRA,1000,1,2000,2,3000,3,4000,4
61367,2.8,0.631,-0.988,-0.167,0.385,0.022,0.001,10.092,302.27,9.9716778,333.42777,1,1,1,1,59.60151,5.4591311,3000,1005,20,80,+SHRA,1000,1,2000,2,3000,3,4000,4
61367.5,2.8,0.639,-1.062,0.091,0.457,0.04,-0.043,10.052,302.37,9.976952,333.42777,1,1,1,1,59.60151,5.4591311,3000,1005,20,80,+SHRA,1000,1,2000,2,3000,3,4000,4
61368,2.8,0.64,-1.149,0.331,0.474,0.087,-0.1,9.943,302.37,9.976952,333.42777,1,1,1,1,59.60151,5.4591311,3000,1005,20,80,+SHRA,1000,1,2000,2,3000,3,4000,4
61368.5,2.8,0.629,-1.243,0.529,0.441,0.115,-0.126,9.863,302.37,9.9716778,333.40474,1,1,1,1,59.60151,5.4591311,3000,1005,20,80,+SHRA,1000,1,2000,2,3000,3,4000,4
61369,2.8,0.605,-1.332,0.664,0.364,0.143,-0.115,9.769,302.37,9.9482052,333.27312,1,1,1,1,59.60151,5.4591311,3000,1005,20,80,+SHRA,1000,1,2000,2,3000,3,4000,4
61369.5,2.8,0.569,-1.407,0.726,0.252,0.182,-0.087,9.69,302.37,9.783898,333.27312,1,1,1,1,59.60151,5.4591311,3000,1005,20,80,+SHRA,1000,1,2000,2,3000,3,4000,4
61370,2.8,0.522,-1.465,0.712,0.121,0.212,-0.07,9.615,302.37,9.783898,333.2217,1,1,1,1,59.60151,5.4591311,3000,1005,20,80,+SHRA,1000,1,2000,2,3000,3,4000,4
61370.5,2.8,0.475,-1.496,0.624,-0.023,0.213,-0.061,9.577,302.37,9.8276358,333.40474,1,1,1,1,59.60151,5.4591311,3000,1005,20,80,+SHRA,1000,1,2000,2,3000,3,4000,4
61371,2.9,0.439,-1.502,0.474,-0.159,0.221,-0.075,9.549,302.37,9.783898,333.39418,1,1,1,1,59.60151,5.4591311,3000,1005,20,80,+SHRA,1000,1,2000,2,3000,3,4000,4
61371.5,2.9,0.423,-1.477,0.28,-0.272,0.197,-0.102,9.57,302.37,9.8276358,333.2217,1,1,1,1,59.60151,5.4591311,3000,1005,20,80,+SHRA,1000,1,2000,2,3000,3,4000,4
61372,2.9,0.436,-1.427,0.067,-0.344,0.165,-0.126,9.619,302.37,9.9482052,333.2217,1,1,1,1,59.60151,5.4591311,3000,1005,20,80,+SHRA,1000,1,2000,2,3000,3,4000,4
61372.5,2.9,0.478,-1.357,-0.141,-0.373,0.128,-0.126,9.692,302.27,9.9482052,333.2217,1,1,1,1,59.60151,5.4591311,3000,1005,20,80,+SHRA,1000,1,2000,2,3000,3,4000,4
61373,2.9,0.546,-1.274,-0.318,-0.349,0.088,-0.136,9.794,302.27,9.9482052,333.39418,1,1,1,1,59.60151,5.4591311,3000,1005,20,80,+SHRA,1000,1,2000,2,3000,3,4000,4
61373.5,2.9,0.621,-1.193,-0.444,-0.282,0.053,-0.117,9.878,302.27,9.9716778,333.2217,1,1,1,1,59.60151,5.4591311,3000,1005,20,80,+SHRA,1000,1,2000,2,3000,3,4000,4
61374,2.9,0.694,-1.118,-0.505,-0.18,0.027,-0.118,9.959,302.27,9.9716778,333.2217,1,1,1,1,59.60151,5.4591311,3000,1005,20,80,+SHRA,1000,1,2000,2,3000,3,4000,4
61374.5,2.9,0.753,-1.061,-0.499,-0.069,0.022,-0.139,9.985,302.27,9.9482052,333.09915,1,1,1,1,59.60151,5.4591311,3000,1005,20,80,+SHRA,1000,1,2000,2,3000,3,4000,4
61375,2.9,0.787,-1.028,-0.437,0.035,0.022,-0.158,10.001,302.27,9.9482052,332.84245,1,1,1,1,59.60151,5.4591311,3000,1005,20,80,+SHRA,1000,1,2000,2,3000,3,4000,4
61375.5,2.9,0.794,-1.018,-0.335,0.111,0.054,-0.191,9.945,302.27,9.9482052,332.84245,1,1,1,1,59.60151,5.4591311,3000,1005,20,80,+SHRA,1000,1,2000,2,3000,3,4000,4
61376,2.9,0.772,-1.029,-0.217,0.144,0.078,-0.198,9.88,302.27,9.8276358,333.09915,1,1,1,1,59.60151,5.4591311,3000,1005,20,80,+SHRA,1000,1,2000,2,3000,3,4000,4
61376.5,2.9,0.728,-1.056,-0.107,0.137,0.111,-0.199,9.794,302.27,9.783898,333.09915,1,1,1,1,59.60151,5.4591311,3000,1005,20,80,+SHRA,1000,1,2000,2,3000,3,4000,4
61377,3.0,0.665,-1.09,-0.025,0.091,0.137,-0.142,9.729,302.27,9.7184585,332.84245,1,1,1,1,59.60151,5.4591311,3000,1005,20,80,+SHRA,1000,1,2000,2,3000,3,4000,4
61377.5,3.0,0.593,-1.127,0.021,0.03,0.151,-0.067,9.693,302.47,9.7184585,332.84245,1,1,1,1,59.60151,5.4591311,3000,1005,20,80,+SHRA,1000,1,2000,2,3000,3,4000,4
61378,3.0,0.528,-1.161,0.03,-0.032,0.152,-0.013,9.69,302.47,9.783898,332.84245,1,1,1,1,59.60151,5.4591311,3000,1005,20,80,+SHRA,1000,1,2000,2,3000,3,4000,4
61378.5,3.0,0.481,-1.189,0.014,-0.074,0.143,0.002,9.715,302.47,9.7184585,332.76552,1,1,1,1,59.60151,5.4591311,3000,1005,20,80,+SHRA,1000,1,2000,2,3000,3,4000,4
61379,3.0,0.459,-1.207,-0.014,-0.089,0.127,0.003,9.763,302.47,9.7184585,332.84245,1,1,1,1,59.60151,5.4591311,3000,1005,20,80,+SHRA,1000,1,2000,2,3000,3,4000,4
61379.5,3.0,0.473,-1.22,-0.036,-0.069,0.101,-0.007,9.847,302.57,9.7147475,332.76552,1,1,1,1,59.60151,5.4591311,3000,1005,20,80,+SHRA,1000,1,2000,2,3000,3,4000,4
61380,3.0,0.52,-1.226,-0.037,-0.015,0.093,-0.03,9.921,302.57,9.7147475,332.72756,1,1,1,1,59.60151,5.4591311,3000,1005,20,80,+SHRA,1000,1,2000,2,3000,3,4000,4
61380.5,3.0,0.592,-1.232,-0.003,0.074,0.064,-0.069,10.024,302.57,9.7184585,332.68234,1,1,1,1,59.60151,5.4591311,3000,1005,20,80,+SHRA,1000,1,2000,2,3000,3,4000,4
61381,3.0,0.681,-1.244,0.074,0.186,0.051,-0.081,10.085,302.57,9.783898,332.6719,1,1,1,1,59.60151,5.4591311,3000,1005,20,80,+SHRA,1000,1,2000,2,3000,3,4000,4
61381.5,3.0,0.775,-1.267,0.19,0.293,0.044,-0.087,10.11,302.37,9.783898,332.6719,1,1,1,1,59.60151,5.4591311,3000,1005,20,80,+SHRA,1000,1,2000,2,3000,3,4000,4
61382,3.0,0.863,-1.301,0.333,0.376,0.053,-0.07,10.078,302.37,9.783898,332.6719,1,1,1,1,59.60151,5.4591311,3000,1005,20,80,+SHRA,1000,1,2000,2,3000,3,4000,4
61382.5,3.0,0.926,-1.345,0.477,0.411,0.078,-0.047,10.002,302.27,9.8276358,332.68234,1,1,1,1,59.60151,5.4591311,3000,1005,20,80,+SHRA,1000,1,2000,2,3000,3,4000,4
61383,3.1,0.961,-1.396,0.597,0.387,0.113,-0.025,9.876,302.27,9.8276358,332.68234,1,1,1,1,59.60151,5.4591311,3000,1005,20,80,+SHRA,1000,1,2000,2,3000,3,4000,4
61383.5,3.1,0.962,-1.443,0.662,0.289,0.158,-0.031,9.712,302.27,9.8276358,332.72756,1,1,1,1,59.60151,5.4591311,3000,1005,20,80,+SHRA,1000,1,2000,2,3000,3,4000,4
61384,3.1,0.934,-1.476,0.646,0.125,0.193,-0.074,9.551,302.27,9.8276358,332.68234,1,1,1,1,59.60151,5.4591311,3000,1005,20,80,+SHRA,1000,1,2000,2,3000,3,4000,4
61384.5,3.1,0.883,-1.488,0.534,-0.088,0.234,-0.117,9.402,302.27,9.8276358,332.72756,1,1,1,1,59.60151,5.4591311,3000,1005,20,80,+SHRA,1000,1,2000,2,3000,3,4000,4
61385,3.1,0.815,-1.465,0.326,-0.314,0.24,-0.126,9.328,302.27,9.9621774,332.68234,1,1,1,1,59.60151,5.4591311,3000,1005,20,80,+SHRA,1000,1,2000,2,3000,3,4000,4
61385.5,3.1,0.744,-1.407,0.04,-0.524,0.239,-0.151,9.305,302.37,9.8276358,332.6719,1,1,1,1,59.60151,5.4591311,3000,1005,20,80,+SHRA,1000,1,2000,2,3000,3,4000,4
61386,3.1,0.678,-1.317,-0.292,-0.681,0.205,-0.162,9.369,302.37,9.9621774,332.6719,1,1,1,1,59.60151,5.4591311,3000,1005,20,80,+SHRA,1000,1,2000,2,3000,3,4000,4
61386.5,3.1,0.629,-1.202,-0.628,-0.761,0.165,-0.166,9.487,302.47,10.032952,332.6719,1,1,1,1,59.60151,5.4591311,3000,1005,20,80,+SHRA,1000,1,2000,2,3000,3,4000,4
