Time(s),Time(m),"Roll (deg, +ve R)","Pitch (deg, +ve UP)",Heave (m),Heave Velocity (m/s),AX (m/s^2),AY (m/s^2),AZ (m/s^2),Vessel heading (degT),SOG (knots),COG (M deg),STATUS_MRU (1=OK),STATUS_GYRO (1=OK),STATUS_WIND (1=OK),STATUS_GPS (SOG_VOG) (1=OK),GPS Lat,GPS Lon,Visibility,Air Pressure,Air Temperature,Air Humidity,WX code,Cloud layer 1 altitude,Cloud layer 1 oct,Cloud layer 1 altitude,Cloud layer 1 oct,Cloud layer 1 altitude,Cloud layer 1 oct,Cloud layer 1 altitude,Cloud layer 1 oct
0,0,-0.113,-0.125,0.828,0.848,-0.04,-0.116,10.094,70,0,0,1,1,1,1,59.60151,5.4591311,3000,1005,20,80,#NAME?,1000,1,2000,2,3000,3,4000,4
0.5,0,-0.053,-0.271,1.161,0.828,-0.013,-0.188,10.014,70,0,0,1,1,1,1,59.60151,5.4591311,3000,1005,20,80,#NAME?,1000,1,2000,2,3000,3,4000,4
1,0,0.031,-0.434,1.407,0.752,0.034,-0.223,9.91,70,0,0,1,1,1,1,59.60151,5.4591311,3000,1005,20,80,#NAME?,1000,1,2000,2,3000,3,4000,4
1.5,0,0.135,-0.609,1.55,0.629,0.08,-0.224,9.801,70,0,0,1,1,1,1,59.60151,5.4591311,3000,1005,20,80,#NAME?,1000,1,2000,2,3000,3,4000,4
2,0,0.252,-0.784,1.58,0.449,0.147,-0.184,9.656,70,0,0,1,1,1,1,59.60151,5.4591311,3000,1005,20,80,#NAME?,1000,1,2000,2,3000,3,4000,4
2.5,0,0.378,-0.945,1.488,0.224,0.207,-0.108,9.515,70,0,0,1,1,1,1,59.60151,5.4591311,3000,1005,20,80,#NAME?,1000,1,2000,2,3000,3,4000,4
3,0.1,0.494,-1.079,1.271,-0.047,0.275,-0.024,9.341,70,0,0,1,1,1,1,59.60151,5.4591311,3000,1005,20,80,#NAME?,1000,1,2000,2,3000,3,4000,4
3.5,0.1,0.594,-1.168,0.931,-0.347,0.316,0.056,9.213,70,0,0,1,1,1,1,59.60151,5.4591311,3000,1005,20,80,#NAME?,1000,1,2000,2,3000,3,4000,4
4,0.1,0.667,-1.196,0.484,-0.651,0.349,0.147,9.111,70,0,0,1,1,1,1,59.60151,5.4591311,3000,1005,20,80,#NAME?,1000,1,2000,2,3000,3,4000,4
4.5,0.1,0.704,-1.148,-0.043,-0.926,0.349,0.231,9.095,70,0,0,1,1,1,1,59.60151,5.4591311,3000,1005,20,80,#NAME?,1000,1,2000,2,3000,3,4000,4
5,0.1,0.698,-1.026,-0.607,-1.127,0.315,0.338,9.164,70,0,0,1,1,1,1,59.60151,5.4591311,3000,1005,20,80,#NAME?,1000,1,2000,2,3000,3,4000,4
5.5,0.1,0.647,-0.835,-1.151,-1.223,0.234,0.401,9.34,70,0,0,1,1,1,1,59.60151,5.4591311,3000,1005,20,80,#NAME?,1000,1,2000,2,3000,3,4000,4
6,0.1,0.549,-0.593,-1.613,-1.178,0.128,0.436,9.59,70,0,0,1,1,1,1,59.60151,5.4591311,3000,1005,20,80,#NAME?,1000,1,2000,2,3000,3,4000,4
6.5,0.1,0.415,-0.325,-1.932,-0.996,0.01,0.384,9.895,70,0,0,1,1,1,1,59.60151,5.4591311,3000,1005,20,80,#NAME?,1000,1,2000,2,3000,3,4000,4
7,0.1,0.255,-0.06,-2.057,-0.668,-0.111,0.277,10.225,70,0,0,1,1,1,1,59.60151,5.4591311,3000,1005,20,80,#NAME?,1000,1,2000,2,3000,3,4000,4
7.5,0.1,0.093,0.167,-1.958,-0.252,-0.189,0.134,10.472,70,0,0,1,1,1,1,59.60151,5.4591311,3000,1005,20,80,#NAME?,1000,1,2000,2,3000,3,4000,4
8,0.1,-0.048,0.334,-1.637,0.213,-0.258,-0.003,10.681,70,0,0,1,1,1,1,59.60151,5.4591311,3000,1005,20,80,#NAME?,1000,1,2000,2,3000,3,4000,4
8.5,0.1,-0.152,0.409,-1.122,0.657,-0.255,-0.137,10.712,70,0,0,1,1,1,1,59.60151,5.4591311,3000,1005,20,80,#NAME?,1000,1,2000,2,3000,3,4000,4
9,0.2,-0.199,0.392,-0.476,1.022,-0.245,-0.215,10.694,70,0,0,1,1,1,1,59.60151,5.4591311,3000,1005,20,80,#NAME?,1000,1,2000,2,3000,3,4000,4
9.5,0.2,-0.183,0.278,0.231,1.271,-0.17,-0.271,10.514,70,0,0,1,1,1,1,59.60151,5.4591311,3000,1005,20,80,#NAME?,1000,1,2000,2,3000,3,4000,4
10,0.2,-0.107,0.09,0.909,1.355,-0.082,-0.297,10.273,70,0,0,1,1,1,1,59.60151,5.4591311,3000,1005,20,80,#NAME?,1000,1,2000,2,3000,3,4000,4
10.5,0.2,0.016,-0.158,1.482,1.29,0.007,-0.276,9.992,70,0,0,1,1,1,1,59.60151,5.4591311,3000,1005,20,80,#NAME?,1000,1,2000,2,3000,3,4000,4
11,0.2,0.173,-0.431,1.88,1.057,0.123,-0.224,9.665,70,0,0,1,1,1,1,59.60151,5.4591311,3000,1005,20,80,#NAME?,1000,1,2000,2,3000,3,4000,4
11.5,0.2,0.34,-0.696,2.06,0.72,0.211,-0.174,9.402,70,0,0,1,1,1,1,59.60151,5.4591311,3000,1005,20,80,#NAME?,1000,1,2000,2,3000,3,4000,4
12,0.2,0.499,-0.926,2.004,0.293,0.299,-0.068,9.156,70,0,0,1,1,1,1,59.60151,5.4591311,3000,1005,20,80,#NAME?,1000,1,2000,2,3000,3,4000,4
12.5,0.2,0.626,-1.091,1.724,-0.137,0.325,0.038,9.065,70,0,0,1,1,1,1,59.60151,5.4591311,3000,1005,20,80,#NAME?,1000,1,2000,2,3000,3,4000,4
13,0.2,0.705,-1.178,1.263,-0.546,0.364,0.135,8.993,70,0,0,1,1,1,1,59.60151,5.4591311,3000,1005,20,80,#NAME?,1000,1,2000,2,3000,3,4000,4
13.5,0.2,0.729,-1.178,0.678,-0.863,0.334,0.239,9.101,70,0,0,1,1,1,1,59.60151,5.4591311,3000,1005,20,80,#NAME?,1000,1,2000,2,3000,3,4000,4
14,0.2,0.693,-1.103,0.046,-1.069,0.303,0.284,9.215,70,0,0,1,1,1,1,59.60151,5.4591311,3000,1005,20,80,#NAME?,1000,1,2000,2,3000,3,4000,4
14.5,0.2,0.602,-0.96,-0.564,-1.143,0.212,0.32,9.454,70,0,0,1,1,1,1,59.60151,5.4591311,3000,1005,20,80,#NAME?,1000,1,2000,2,3000,3,4000,4
15,0.3,0.46,-0.772,-1.08,-1.087,0.146,0.345,9.658,70,0,0,1,1,1,1,59.60151,5.4591311,3000,1005,20,80,#NAME?,1000,1,2000,2,3000,3,4000,4
15.5,0.3,0.292,-0.56,-1.453,-0.909,0.045,0.333,9.931,70,0,0,1,1,1,1,59.60151,5.4591311,3000,1005,20,80,#NAME?,1000,1,2000,2,3000,3,4000,4
16,0.3,0.115,-0.354,-1.643,-0.632,-0.025,0.297,10.136,70,0,0,1,1,1,1,59.60151,5.4591311,3000,1005,20,80,#NAME?,1000,1,2000,2,3000,3,4000,4
16.5,0.3,-0.047,-0.174,-1.64,-0.303,-0.087,0.221,10.313,70,0,0,1,1,1,1,59.60151,5.4591311,3000,1005,20,80,#NAME?,1000,1,2000,2,3000,3,4000,4
17,0.3,-0.184,-0.035,-1.453,0.048,-0.118,0.125,10.404,70,0,0,1,1,1,1,59.60151,5.4591311,3000,1005,20,80,#NAME?,1000,1,2000,2,3000,3,4000,4
17.5,0.3,-0.277,0.048,-1.117,0.357,-0.128,-0.03,10.41,70,0,0,1,1,1,1,59.60151,5.4591311,3000,1005,20,80,#NAME?,1000,1,2000,2,3000,3,4000,4
18,0.3,-0.321,0.071,-0.68,0.615,-0.122,-0.165,10.377,70,0,0,1,1,1,1,59.60151,5.4591311,3000,1005,20,80,#NAME?,1000,1,2000,2,3000,3,4000,4
18.5,0.3,-0.315,0.04,-0.198,0.772,-0.079,-0.259,10.241,70,0,0,1,1,1,1,59.60151,5.4591311,3000,1005,20,80,#NAME?,1000,1,2000,2,3000,3,4000,4
19,0.3,-0.259,-0.037,0.27,0.845,-0.053,-0.331,10.128,70,0,0,1,1,1,1,59.60151,5.4591311,3000,1005,20,80,#NAME?,1000,1,2000,2,3000,3,4000,4
19.5,0.3,-0.163,-0.151,0.68,0.82,0.011,-0.318,9.948,70,0,0,1,1,1,1,59.60151,5.4591311,3000,1005,20,80,#NAME?,1000,1,2000,2,3000,3,4000,4
20,0.3,-0.045,-0.285,0.992,0.726,0.041,-0.252,9.84,70,0,0,1,1,1,1,59.60151,5.4591311,3000,1005,20,80,#NAME?,1000,1,2000,2,3000,3,4000,4
20.5,0.3,0.085,-0.431,1.184,0.559,0.115,-0.176,9.661,70,0,0,1,1,1,1,59.60151,5.4591311,3000,1005,20,80,#NAME?,1000,1,2000,2,3000,3,4000,4
21,0.4,0.207,-0.57,1.243,0.347,0.161,-0.086,9.552,70,0,0,1,1,1,1,59.60151,5.4591311,3000,1005,20,80,#NAME?,1000,1,2000,2,3000,3,4000,4
21.5,0.4,0.31,-0.691,1.17,0.108,0.211,-0.024,9.427,70,0,0,1,1,1,1,59.60151,5.4591311,3000,1005,20,80,#NAME?,1000,1,2000,2,3000,3,4000,4
22,0.4,0.373,-0.782,0.975,-0.135,0.216,0.049,9.39,70,0,0,1,1,1,1,59.60151,5.4591311,3000,1005,20,80,#NAME?,1000,1,2000,2,3000,3,4000,4
22.5,0.4,0.388,-0.838,0.689,-0.347,0.214,0.126,9.38,70,0,0,1,1,1,1,59.60151,5.4591311,3000,1005,20,80,#NAME?,1000,1,2000,2,3000,3,4000,4
23,0.4,0.355,-0.853,0.34,-0.527,0.215,0.201,9.397,70,0,0,1,1,1,1,59.60151,5.4591311,3000,1005,20,80,#NAME?,1000,1,2000,2,3000,3,4000,4
23.5,0.4,0.28,-0.829,-0.033,-0.645,0.203,0.286,9.468,70,0,0,1,1,1,1,59.60151,5.4591311,3000,1005,20,80,#NAME?,1000,1,2000,2,3000,3,4000,4
24,0.4,0.173,-0.762,-0.393,-0.699,0.178,0.323,9.562,70,0,0,1,1,1,1,59.60151,5.4591311,3000,1005,20,80,#NAME?,1000,1,2000,2,3000,3,4000,4
24.5,0.4,0.047,-0.665,-0.702,-0.67,0.124,0.317,9.72,70,0,0,1,1,1,1,59.60151,5.4591311,3000,1005,20,80,#NAME?,1000,1,2000,2,3000,3,4000,4
25,0.4,-0.086,-0.548,-0.926,-0.577,0.097,0.278,9.835,70,0,0,1,1,1,1,59.60151,5.4591311,3000,1005,20,80,#NAME?,1000,1,2000,2,3000,3,4000,4
25.5,0.4,-0.211,-0.422,-1.049,-0.425,0.052,0.183,9.974,70,0,0,1,1,1,1,59.60151,5.4591311,3000,1005,20,80,#NAME?,1000,1,2000,2,3000,3,4000,4
26,0.4,-0.313,-0.302,-1.056,-0.232,0.009,0.038,10.079,70,0,0,1,1,1,1,59.60151,5.4591311,3000,1005,20,80,#NAME?,1000,1,2000,2,3000,3,4000,4
26.5,0.4,-0.384,-0.198,-0.952,-0.017,-0.043,-0.101,10.187,70,0,0,1,1,1,1,59.60151,5.4591311,3000,1005,20,80,#NAME?,1000,1,2000,2,3000,3,4000,4
27,0.5,-0.415,-0.126,-0.748,0.197,-0.048,-0.206,10.212,70,0,0,1,1,1,1,59.60151,5.4591311,3000,1005,20,80,#NAME?,1000,1,2000,2,3000,3,4000,4
27.5,0.5,-0.4,-0.089,-0.468,0.382,-0.061,-0.241,10.216,70,0,0,1,1,1,1,59.60151,5.4591311,3000,1005,20,80,#NAME?,1000,1,2000,2,3000,3,4000,4
28,0.5,-0.337,-0.093,-0.145,0.518,-0.049,-0.248,10.157,70,0,0,1,1,1,1,59.60151,5.4591311,3000,1005,20,80,#NAME?,1000,1,2000,2,3000,3,4000,4
28.5,0.5,-0.234,-0.137,0.181,0.589,-0.021,-0.226,10.066,70,0,0,1,1,1,1,59.60151,5.4591311,3000,1005,20,80,#NAME?,1000,1,2000,2,3000,3,4000,4
29,0.5,-0.104,-0.207,0.477,0.595,0.012,-0.193,9.959,70,0,0,1,1,1,1,59.60151,5.4591311,3000,1005,20,80,#NAME?,1000,1,2000,2,3000,3,4000,4
29.5,0.5,0.038,-0.303,0.71,0.538,0.05,-0.17,9.85,70,0,0,1,1,1,1,59.60151,5.4591311,3000,1005,20,80,#NAME?,1000,1,2000,2,3000,3,4000,4
30,0.5,0.176,-0.412,0.862,0.433,0.091,-0.155,9.745,70,0,0,1,1,1,1,59.60151,5.4591311,3000,1005,20,80,#NAME?,1000,1,2000,2,3000,3,4000,4
30.5,0.5,0.293,-0.522,0.922,0.293,0.131,-0.086,9.659,70,0,0,1,1,1,1,59.60151,5.4591311,3000,1005,20,80,#NAME?,1000,1,2000,2,3000,3,4000,4
31,0.5,0.381,-0.623,0.891,0.141,0.143,0.014,9.609,70,0,0,1,1,1,1,59.60151,5.4591311,3000,1005,20,80,#NAME?,1000,1,2000,2,3000,3,4000,4
31.5,0.5,0.423,-0.705,0.778,-0.018,0.168,0.097,9.556,70,0,0,1,1,1,1,59.60151,5.4591311,3000,1005,20,80,#NAME?,1000,1,2000,2,3000,3,4000,4
32,0.5,0.417,-0.767,0.599,-0.168,0.183,0.179,9.531,70,0,0,1,1,1,1,59.60151,5.4591311,3000,1005,20,80,#NAME?,1000,1,2000,2,3000,3,4000,4
32.5,0.5,0.364,-0.798,0.369,-0.301,0.187,0.22,9.52,70,0,0,1,1,1,1,59.60151,5.4591311,3000,1005,20,80,#NAME?,1000,1,2000,2,3000,3,4000,4
33,0.6,0.272,-0.796,0.11,-0.409,0.185,0.26,9.544,70,0,0,1,1,1,1,59.60151,5.4591311,3000,1005,20,80,#NAME?,1000,1,2000,2,3000,3,4000,4
33.5,0.6,0.156,-0.757,-0.154,-0.478,0.175,0.284,9.588,70,0,0,1,1,1,1,59.60151,5.4591311,3000,1005,20,80,#NAME?,1000,1,2000,2,3000,3,4000,4
34,0.6,0.028,-0.688,-0.4,-0.497,0.14,0.275,9.675,70,0,0,1,1,1,1,59.60151,5.4591311,3000,1005,20,80,#NAME?,1000,1,2000,2,3000,3,4000,4
34.5,0.6,-0.095,-0.595,-0.601,-0.465,0.109,0.209,9.764,70,0,0,1,1,1,1,59.60151,5.4591311,3000,1005,20,80,#NAME?,1000,1,2000,2,3000,3,4000,4
35,0.6,-0.202,-0.488,-0.739,-0.383,0.065,0.118,9.875,70,0,0,1,1,1,1,59.60151,5.4591311,3000,1005,20,80,#NAME?,1000,1,2000,2,3000,3,4000,4
35.5,0.6,-0.283,-0.383,-0.796,-0.259,0.03,0.012,9.965,70,0,0,1,1,1,1,59.60151,5.4591311,3000,1005,20,80,#NAME?,1000,1,2000,2,3000,3,4000,4
36,0.6,-0.33,-0.287,-0.77,-0.109,-0.009,-0.094,10.05,70,0,0,1,1,1,1,59.60151,5.4591311,3000,1005,20,80,#NAME?,1000,1,2000,2,3000,3,4000,4
36.5,0.6,-0.337,-0.216,-0.663,0.054,-0.037,-0.15,10.106,70,0,0,1,1,1,1,59.60151,5.4591311,3000,1005,20,80,#NAME?,1000,1,2000,2,3000,3,4000,4
37,0.6,-0.317,-0.173,-0.488,0.204,-0.047,-0.19,10.122,70,0,0,1,1,1,1,59.60151,5.4591311,3000,1005,20,80,#NAME?,1000,1,2000,2,3000,3,4000,4
37.5,0.6,-0.272,-0.163,-0.265,0.332,-0.037,-0.214,10.108,70,0,0,1,1,1,1,59.60151,5.4591311,3000,1005,20,80,#NAME?,1000,1,2000,2,3000,3,4000,4
38,0.6,-0.212,-0.186,-0.02,0.416,-0.01,-0.189,10.05,70,0,0,1,1,1,1,59.60151,5.4591311,3000,1005,20,80,#NAME?,1000,1,2000,2,3000,3,4000,4
38.5,0.6,-0.154,-0.241,0.217,0.446,0.023,-0.159,9.968,70,0,0,1,1,1,1,59.60151,5.4591311,3000,1005,20,80,#NAME?,1000,1,2000,2,3000,3,4000,4
39,0.7,-0.107,-0.316,0.416,0.412,0.079,-0.152,9.835,70,0,0,1,1,1,1,59.60151,5.4591311,3000,1005,20,80,#NAME?,1000,1,2000,2,3000,3,4000,4
39.5,0.7,-0.082,-0.403,0.549,0.317,0.115,-0.119,9.709,70,0,0,1,1,1,1,59.60151,5.4591311,3000,1005,20,80,#NAME?,1000,1,2000,2,3000,3,4000,4
40,0.7,-0.084,-0.486,0.598,0.167,0.162,-0.061,9.574,70,0,0,1,1,1,1,59.60151,5.4591311,3000,1005,20,80,#NAME?,1000,1,2000,2,3000,3,4000,4
40.5,0.7,-0.109,-0.551,0.552,-0.013,0.201,-0.01,9.481,70,0,0,1,1,1,1,59.60151,5.4591311,3000,1005,20,80,#NAME?,1000,1,2000,2,3000,3,4000,4
41,0.7,-0.149,-0.591,0.421,-0.192,0.206,0.049,9.448,70,0,0,1,1,1,1,59.60151,5.4591311,3000,1005,20,80,#NAME?,1000,1,2000,2,3000,3,4000,4
41.5,0.7,-0.193,-0.597,0.225,-0.339,0.19,0.075,9.485,70,0,0,1,1,1,1,59.60151,5.4591311,3000,1005,20,80,#NAME?,1000,1,2000,2,3000,3,4000,4
42,0.7,-0.234,-0.569,-0.001,-0.428,0.157,0.098,9.573,70,0,0,1,1,1,1,59.60151,5.4591311,3000,1005,20,80,#NAME?,1000,1,2000,2,3000,3,4000,4
42.5,0.7,-0.256,-0.516,-0.217,-0.436,0.1,0.066,9.723,70,0,0,1,1,1,1,59.60151,5.4591311,3000,1005,20,80,#NAME?,1000,1,2000,2,3000,3,4000,4
43,0.7,-0.26,-0.452,-0.383,-0.36,0.034,-0.004,9.902,70,0,0,1,1,1,1,59.60151,5.4591311,3000,1005,20,80,#NAME?,1000,1,2000,2,3000,3,4000,4
43.5,0.7,-0.246,-0.387,-0.465,-0.207,-0.014,-0.071,10.051,70,0,0,1,1,1,1,59.60151,5.4591311,3000,1005,20,80,#NAME?,1000,1,2000,2,3000,3,4000,4
44,0.7,-0.21,-0.337,-0.446,-0.009,-0.073,-0.071,10.213,70,0,0,1,1,1,1,59.60151,5.4591311,3000,1005,20,80,#NAME?,1000,1,2000,2,3000,3,4000,4
44.5,0.7,-0.164,-0.316,-0.322,0.218,-0.078,-0.055,10.281,70,0,0,1,1,1,1,59.60151,5.4591311,3000,1005,20,80,#NAME?,1000,1,2000,2,3000,3,4000,4
45,0.8,-0.115,-0.329,-0.113,0.413,-0.066,-0.054,10.297,70,0,0,1,1,1,1,59.60151,5.4591311,3000,1005,20,80,#NAME?,1000,1,2000,2,3000,3,4000,4
45.5,0.8,-0.063,-0.383,0.158,0.593,-0.061,-0.041,10.295,70,0,0,1,1,1,1,59.60151,5.4591311,3000,1005,20,80,#NAME?,1000,1,2000,2,3000,3,4000,4
46,0.8,-0.01,-0.475,0.448,0.672,0.011,-0.053,10.128,70,0,0,1,1,1,1,59.60151,5.4591311,3000,1005,20,80,#NAME?,1000,1,2000,2,3000,3,4000,4
46.5,0.8,0.044,-0.593,0.707,0.665,0.064,-0.002,9.96,70,0,0,1,1,1,1,59.60151,5.4591311,3000,1005,20,80,#NAME?,1000,1,2000,2,3000,3,4000,4
47,0.8,0.108,-0.719,0.882,0.515,0.172,0.002,9.641,70,0,0,1,1,1,1,59.60151,5.4591311,3000,1005,20,80,#NAME?,1000,1,2000,2,3000,3,4000,4
47.5,0.8,0.175,-0.828,0.923,0.267,0.219,0.002,9.438,70,0,0,1,1,1,1,59.60151,5.4591311,3000,1005,20,80,#NAME?,1000,1,2000,2,3000,3,4000,4
48,0.8,0.251,-0.904,0.809,-0.065,0.31,-0.002,9.166,70,0,0,1,1,1,1,59.60151,5.4591311,3000,1005,20,80,#NAME?,1000,1,2000,2,3000,3,4000,4
48.5,0.8,0.33,-0.918,0.537,-0.415,0.31,-0.003,9.097,70,0,0,1,1,1,1,59.60151,5.4591311,3000,1005,20,80,#NAME?,1000,1,2000,2,3000,3,4000,4
49,0.8,0.41,-0.867,0.138,-0.739,0.33,0.03,9.027,70,0,0,1,1,1,1,59.60151,5.4591311,3000,1005,20,80,#NAME?,1000,1,2000,2,3000,3,4000,4
49.5,0.8,0.489,-0.744,-0.342,-0.988,0.272,0.044,9.148,70,0,0,1,1,1,1,59.60151,5.4591311,3000,1005,20,80,#NAME?,1000,1,2000,2,3000,3,4000,4
50,0.8,0.56,-0.565,-0.832,-1.102,0.195,0.12,9.328,70,0,0,1,1,1,1,59.60151,5.4591311,3000,1005,20,80,#NAME?,1000,1,2000,2,3000,3,4000,4
50.5,0.8,0.62,-0.349,-1.263,-1.08,0.094,0.188,9.618,70,0,0,1,1,1,1,59.60151,5.4591311,3000,1005,20,80,#NAME?,1000,1,2000,2,3000,3,4000,4
51,0.9,0.664,-0.123,-1.56,-0.882,-0.006,0.252,9.942,70,0,0,1,1,1,1,59.60151,5.4591311,3000,1005,20,80,#NAME?,1000,1,2000,2,3000,3,4000,4
51.5,0.9,0.691,0.08,-1.671,-0.565,-0.105,0.295,10.251,70,0,0,1,1,1,1,59.60151,5.4591311,3000,1005,20,80,#NAME?,1000,1,2000,2,3000,3,4000,4
52,0.9,0.7,0.229,-1.563,-0.133,-0.202,0.252,10.537,70,0,0,1,1,1,1,59.60151,5.4591311,3000,1005,20,80,#NAME?,1000,1,2000,2,3000,3,4000,4
52.5,0.9,0.685,0.305,-1.241,0.316,-0.228,0.209,10.672,70,0,0,1,1,1,1,59.60151,5.4591311,3000,1005,20,80,#NAME?,1000,1,2000,2,3000,3,4000,4
53,0.9,0.651,0.293,-0.739,0.747,-0.239,0.176,10.735,70,0,0,1,1,1,1,59.60151,5.4591311,3000,1005,20,80,#NAME?,1000,1,2000,2,3000,3,4000,4
53.5,0.9,0.604,0.192,-0.12,1.072,-0.183,0.121,10.621,70,0,0,1,1,1,1,59.60151,5.4591311,3000,1005,20,80,#NAME?,1000,1,2000,2,3000,3,4000,4
54,0.9,0.543,0.015,0.537,1.285,-0.137,0.041,10.494,70,0,0,1,1,1,1,59.60151,5.4591311,3000,1005,20,80,#NAME?,1000,1,2000,2,3000,3,4000,4
54.5,0.9,0.47,-0.225,1.155,1.336,-0.024,-0.02,10.211,70,0,0,1,1,1,1,59.60151,5.4591311,3000,1005,20,80,#NAME?,1000,1,2000,2,3000,3,4000,4
55,0.9,0.395,-0.497,1.657,1.244,0.042,-0.081,9.979,70,0,0,1,1,1,1,59.60151,5.4591311,3000,1005,20,80,#NAME?,1000,1,2000,2,3000,3,4000,4
55.5,0.9,0.317,-0.775,1.986,1.009,0.158,-0.124,9.647,70,0,0,1,1,1,1,59.60151,5.4591311,3000,1005,20,80,#NAME?,1000,1,2000,2,3000,3,4000,4
56,0.9,0.24,-1.026,2.1,0.66,0.24,-0.128,9.403,70,0,0,1,1,1,1,59.60151,5.4591311,3000,1005,20,80,#NAME?,1000,1,2000,2,3000,3,4000,4
56.5,0.9,0.166,-1.22,1.989,0.241,0.326,-0.11,9.148,70,0,0,1,1,1,1,59.60151,5.4591311,3000,1005,20,80,#NAME?,1000,1,2000,2,3000,3,4000,4
57,1,0.096,-1.337,1.657,-0.214,0.367,-0.065,9.005,70,0,0,1,1,1,1,59.60151,5.4591311,3000,1005,20,80,#NAME?,1000,1,2000,2,3000,3,4000,4
57.5,1,0.032,-1.361,1.141,-0.645,0.391,-0.012,8.92,70,0,0,1,1,1,1,59.60151,5.4591311,3000,1005,20,80,#NAME?,1000,1,2000,2,3000,3,4000,4
58,1,-0.027,-1.291,0.491,-1.02,0.383,0.094,8.941,70,0,0,1,1,1,1,59.60151,5.4591311,3000,1005,20,80,#NAME?,1000,1,2000,2,3000,3,4000,4
58.5,1,-0.08,-1.13,-0.22,-1.275,0.336,0.187,9.072,70,0,0,1,1,1,1,59.60151,5.4591311,3000,1005,20,80,#NAME?,1000,1,2000,2,3000,3,4000,4
59,1,-0.123,-0.897,-0.916,-1.402,0.268,0.269,9.269,70,0,0,1,1,1,1,59.60151,5.4591311,3000,1005,20,80,#NAME?,1000,1,2000,2,3000,3,4000,4
59.5,1,-0.161,-0.619,-1.519,-1.362,0.157,0.251,9.556,70,0,0,1,1,1,1,59.60151,5.4591311,3000,1005,20,80,#NAME?,1000,1,2000,2,3000,3,4000,4
60,1,-0.199,-0.322,-1.964,-1.191,0.06,0.163,9.818,70,0,0,1,1,1,1,59.60151,5.4591311,3000,1005,20,80,#NAME?,1000,1,2000,2,3000,3,4000,4
60.5,1,-0.24,-0.039,-2.204,-0.88,-0.061,0.085,10.137,70,0,0,1,1,1,1,59.60151,5.4591311,3000,1005,20,80,#NAME?,1000,1,2000,2,3000,3,4000,4
61,1,-0.282,0.197,-2.209,-0.481,-0.15,-0.02,10.364,70,0,0,1,1,1,1,59.60151,5.4591311,3000,1005,20,80,#NAME?,1000,1,2000,2,3000,3,4000,4
61.5,1,-0.323,0.366,-1.98,-0.023,-0.249,-0.187,10.596,70,0,0,1,1,1,1,59.60151,5.4591311,3000,1005,20,80,#NAME?,1000,1,2000,2,3000,3,4000,4
62,1,-0.354,0.442,-1.541,0.424,-0.251,-0.256,10.64,70,0,0,1,1,1,1,59.60151,5.4591311,3000,1005,20,80,#NAME?,1000,1,2000,2,3000,3,4000,4
62.5,1,-0.368,0.428,-0.945,0.826,-0.286,-0.299,10.705,70,0,0,1,1,1,1,59.60151,5.4591311,3000,1005,20,80,#NAME?,1000,1,2000,2,3000,3,4000,4
63,1.1,-0.36,0.319,-0.253,1.123,-0.209,-0.32,10.547,70,0,0,1,1,1,1,59.60151,5.4591311,3000,1005,20,80,#NAME?,1000,1,2000,2,3000,3,4000,4
63.5,1.1,-0.323,0.137,0.45,1.294,-0.157,-0.317,10.424,70,0,0,1,1,1,1,59.60151,5.4591311,3000,1005,20,80,#NAME?,1000,1,2000,2,3000,3,4000,4
64,1.1,-0.256,-0.107,1.096,1.327,-0.035,-0.285,10.157,70,0,0,1,1,1,1,59.60151,5.4591311,3000,1005,20,80,#NAME?,1000,1,2000,2,3000,3,4000,4
64.5,1.1,-0.162,-0.378,1.612,1.213,0.065,-0.199,9.933,70,0,0,1,1,1,1,59.60151,5.4591311,3000,1005,20,80,#NAME?,1000,1,2000,2,3000,3,4000,4
65,1.1,-0.043,-0.653,1.953,0.987,0.178,-0.087,9.654,70,0,0,1,1,1,1,59.60151,5.4591311,3000,1005,20,80,#NAME?,1000,1,2000,2,3000,3,4000,4
65.5,1.1,0.087,-0.901,2.083,0.65,0.268,0.05,9.416,70,0,0,1,1,1,1,59.60151,5.4591311,3000,1005,20,80,#NAME?,1000,1,2000,2,3000,3,4000,4
66,1.1,0.228,-1.095,1.996,0.269,0.328,0.155,9.234,70,0,0,1,1,1,1,59.60151,5.4591311,3000,1005,20,80,#NAME?,1000,1,2000,2,3000,3,4000,4
66.5,1.1,0.361,-1.219,1.705,-0.143,0.367,0.23,9.101,70,0,0,1,1,1,1,59.60151,5.4591311,3000,1005,20,80,#NAME?,1000,1,2000,2,3000,3,4000,4
67,1.1,0.482,-1.262,1.25,-0.503,0.347,0.254,9.105,70,0,0,1,1,1,1,59.60151,5.4591311,3000,1005,20,80,#NAME?,1000,1,2000,2,3000,3,4000,4
67.5,1.1,0.583,-1.225,0.685,-0.809,0.332,0.247,9.118,70,0,0,1,1,1,1,59.60151,5.4591311,3000,1005,20,80,#NAME?,1000,1,2000,2,3000,3,4000,4
68,1.1,0.65,-1.114,0.074,-1.003,0.256,0.243,9.275,70,0,0,1,1,1,1,59.60151,5.4591311,3000,1005,20,80,#NAME?,1000,1,2000,2,3000,3,4000,4
68.5,1.1,0.684,-0.947,-0.519,-1.101,0.215,0.219,9.38,70,0,0,1,1,1,1,59.60151,5.4591311,3000,1005,20,80,#NAME?,1000,1,2000,2,3000,3,4000,4
69,1.2,0.68,-0.742,-1.04,-1.087,0.125,0.19,9.595,70,0,0,1,1,1,1,59.60151,5.4591311,3000,1005,20,80,#NAME?,1000,1,2000,2,3000,3,4000,4
69.5,1.2,0.65,-0.519,-1.441,-0.982,0.084,0.161,9.73,70,0,0,1,1,1,1,59.60151,5.4591311,3000,1005,20,80,#NAME?,1000,1,2000,2,3000,3,4000,4
70,1.2,0.598,-0.298,-1.699,-0.798,0.016,0.155,9.933,70,0,0,1,1,1,1,59.60151,5.4591311,3000,1005,20,80,#NAME?,1000,1,2000,2,3000,3,4000,4
70.5,1.2,0.537,-0.095,-1.791,-0.549,-0.026,0.136,10.067,70,0,0,1,1,1,1,59.60151,5.4591311,3000,1005,20,80,#NAME?,1000,1,2000,2,3000,3,4000,4
71,1.2,0.482,0.067,-1.719,-0.258,-0.094,0.12,10.247,70,0,0,1,1,1,1,59.60151,5.4591311,3000,1005,20,80,#NAME?,1000,1,2000,2,3000,3,4000,4
71.5,1.2,0.434,0.179,-1.486,0.065,-0.127,0.067,10.355,70,0,0,1,1,1,1,59.60151,5.4591311,3000,1005,20,80,#NAME?,1000,1,2000,2,3000,3,4000,4
72,1.2,0.407,0.23,-1.118,0.375,-0.155,0.034,10.432,70,0,0,1,1,1,1,59.60151,5.4591311,3000,1005,20,80,#NAME?,1000,1,2000,2,3000,3,4000,4
72.5,1.2,0.393,0.215,-0.645,0.662,-0.161,-0.007,10.45,70,0,0,1,1,1,1,59.60151,5.4591311,3000,1005,20,80,#NAME?,1000,1,2000,2,3000,3,4000,4
73,1.2,0.39,0.137,-0.113,0.877,-0.129,-0.018,10.389,70,0,0,1,1,1,1,59.60151,5.4591311,3000,1005,20,80,#NAME?,1000,1,2000,2,3000,3,4000,4
73.5,1.2,0.387,0,0.43,1.02,-0.1,-0.009,10.313,70,0,0,1,1,1,1,59.60151,5.4591311,3000,1005,20,80,#NAME?,1000,1,2000,2,3000,3,4000,4
74,1.2,0.368,-0.18,0.931,1.057,-0.022,-0.029,10.137,70,0,0,1,1,1,1,59.60151,5.4591311,3000,1005,20,80,#NAME?,1000,1,2000,2,3000,3,4000,4
74.5,1.2,0.329,-0.384,1.343,1.005,0.033,-0.016,9.99,70,0,0,1,1,1,1,59.60151,5.4591311,3000,1005,20,80,#NAME?,1000,1,2000,2,3000,3,4000,4
75,1.3,0.262,-0.604,1.628,0.85,0.124,-0.007,9.763,70,0,0,1,1,1,1,59.60151,5.4591311,3000,1005,20,80,#NAME?,1000,1,2000,2,3000,3,4000,4
75.5,1.3,0.165,-0.813,1.757,0.615,0.182,0.019,9.593,70,0,0,1,1,1,1,59.60151,5.4591311,3000,1005,20,80,#NAME?,1000,1,2000,2,3000,3,4000,4
76,1.3,0.049,-0.994,1.717,0.317,0.254,0.008,9.389,70,0,0,1,1,1,1,59.60151,5.4591311,3000,1005,20,80,#NAME?,1000,1,2000,2,3000,3,4000,4
76.5,1.3,-0.078,-1.128,1.507,-0.023,0.298,-0.005,9.245,70,0,0,1,1,1,1,59.60151,5.4591311,3000,1005,20,80,#NAME?,1000,1,2000,2,3000,3,4000,4
77,1.3,-0.204,-1.2,1.143,-0.374,0.338,0.004,9.118,70,0,0,1,1,1,1,59.60151,5.4591311,3000,1005,20,80,#NAME?,1000,1,2000,2,3000,3,4000,4
77.5,1.3,-0.315,-1.198,0.653,-0.706,0.335,0.017,9.079,70,0,0,1,1,1,1,59.60151,5.4591311,3000,1005,20,80,#NAME?,1000,1,2000,2,3000,3,4000,4
78,1.3,-0.408,-1.118,0.082,-0.98,0.321,0.064,9.096,70,0,0,1,1,1,1,59.60151,5.4591311,3000,1005,20,80,#NAME?,1000,1,2000,2,3000,3,4000,4
78.5,1.3,-0.468,-0.963,-0.518,-1.166,0.27,0.095,9.21,70,0,0,1,1,1,1,59.60151,5.4591311,3000,1005,20,80,#NAME?,1000,1,2000,2,3000,3,4000,4
79,1.3,-0.503,-0.748,-1.082,-1.224,0.184,0.072,9.419,70,0,0,1,1,1,1,59.60151,5.4591311,3000,1005,20,80,#NAME?,1000,1,2000,2,3000,3,4000,4
79.5,1.3,-0.515,-0.495,-1.544,-1.146,0.095,0.038,9.678,70,0,0,1,1,1,1,59.60151,5.4591311,3000,1005,20,80,#NAME?,1000,1,2000,2,3000,3,4000,4
80,1.3,-0.503,-0.23,-1.848,-0.927,-0.005,-0.01,9.97,70,0,0,1,1,1,1,59.60151,5.4591311,3000,1005,20,80,#NAME?,1000,1,2000,2,3000,3,4000,4
80.5,1.3,-0.481,0.012,-1.954,-0.608,-0.077,-0.061,10.207,70,0,0,1,1,1,1,59.60151,5.4591311,3000,1005,20,80,#NAME?,1000,1,2000,2,3000,3,4000,4
81,1.4,-0.452,0.213,-1.85,-0.218,-0.145,-0.139,10.42,70,0,0,1,1,1,1,59.60151,5.4591311,3000,1005,20,80,#NAME?,1000,1,2000,2,3000,3,4000,4
81.5,1.4,-0.419,0.344,-1.547,0.182,-0.177,-0.178,10.527,70,0,0,1,1,1,1,59.60151,5.4591311,3000,1005,20,80,#NAME?,1000,1,2000,2,3000,3,4000,4
82,1.4,-0.381,0.397,-1.082,0.561,-0.193,-0.228,10.585,70,0,0,1,1,1,1,59.60151,5.4591311,3000,1005,20,80,#NAME?,1000,1,2000,2,3000,3,4000,4
82.5,1.4,-0.334,0.364,-0.505,0.874,-0.176,-0.267,10.544,70,0,0,1,1,1,1,59.60151,5.4591311,3000,1005,20,80,#NAME?,1000,1,2000,2,3000,3,4000,4
83,1.4,-0.281,0.252,0.122,1.1,-0.144,-0.282,10.463,70,0,0,1,1,1,1,59.60151,5.4591311,3000,1005,20,80,#NAME?,1000,1,2000,2,3000,3,4000,4
83.5,1.4,-0.21,0.068,0.74,1.221,-0.099,-0.261,10.321,70,0,0,1,1,1,1,59.60151,5.4591311,3000,1005,20,80,#NAME?,1000,1,2000,2,3000,3,4000,4
84,1.4,-0.121,-0.169,1.288,1.227,-0.042,-0.219,10.148,70,0,0,1,1,1,1,59.60151,5.4591311,3000,1005,20,80,#NAME?,1000,1,2000,2,3000,3,4000,4
84.5,1.4,-0.011,-0.438,1.716,1.122,0.039,-0.155,9.926,70,0,0,1,1,1,1,59.60151,5.4591311,3000,1005,20,80,#NAME?,1000,1,2000,2,3000,3,4000,4
85,1.4,0.116,-0.714,1.983,0.907,0.121,-0.046,9.692,70,0,0,1,1,1,1,59.60151,5.4591311,3000,1005,20,80,#NAME?,1000,1,2000,2,3000,3,4000,4
85.5,1.4,0.257,-0.969,2.061,0.603,0.204,0.046,9.463,70,0,0,1,1,1,1,59.60151,5.4591311,3000,1005,20,80,#NAME?,1000,1,2000,2,3000,3,4000,4
86,1.4,0.396,-1.179,1.938,0.234,0.278,0.156,9.262,70,0,0,1,1,1,1,59.60151,5.4591311,3000,1005,20,80,#NAME?,1000,1,2000,2,3000,3,4000,4
86.5,1.4,0.527,-1.319,1.625,-0.163,0.341,0.249,9.108,70,0,0,1,1,1,1,59.60151,5.4591311,3000,1005,20,80,#NAME?,1000,1,2000,2,3000,3,4000,4
87,1.5,0.64,-1.374,1.148,-0.556,0.377,0.302,9.017,70,0,0,1,1,1,1,59.60151,5.4591311,3000,1005,20,80,#NAME?,1000,1,2000,2,3000,3,4000,4
87.5,1.5,0.725,-1.338,0.549,-0.898,0.374,0.35,9.013,70,0,0,1,1,1,1,59.60151,5.4591311,3000,1005,20,80,#NAME?,1000,1,2000,2,3000,3,4000,4
88,1.5,0.78,-1.211,-0.116,-1.166,0.357,0.378,9.069,70,0,0,1,1,1,1,59.60151,5.4591311,3000,1005,20,80,#NAME?,1000,1,2000,2,3000,3,4000,4
88.5,1.5,0.799,-1.007,-0.783,-1.316,0.292,0.337,9.23,70,0,0,1,1,1,1,59.60151,5.4591311,3000,1005,20,80,#NAME?,1000,1,2000,2,3000,3,4000,4
89,1.5,0.783,-0.743,-1.383,-1.338,0.202,0.301,9.448,70,0,0,1,1,1,1,59.60151,5.4591311,3000,1005,20,80,#NAME?,1000,1,2000,2,3000,3,4000,4
89.5,1.5,0.729,-0.446,-1.853,-1.21,0.085,0.211,9.741,70,0,0,1,1,1,1,59.60151,5.4591311,3000,1005,20,80,#NAME?,1000,1,2000,2,3000,3,4000,4
90,1.5,0.642,-0.148,-2.137,-0.951,-0.027,0.137,10.023,70,0,0,1,1,1,1,59.60151,5.4591311,3000,1005,20,80,#NAME?,1000,1,2000,2,3000,3,4000,4
90.5,1.5,0.535,0.119,-2.203,-0.585,-0.13,0.055,10.298,70,0,0,1,1,1,1,59.60151,5.4591311,3000,1005,20,80,#NAME?,1000,1,2000,2,3000,3,4000,4
91,1.5,0.418,0.325,-2.038,-0.158,-0.196,-0.016,10.482,70,0,0,1,1,1,1,59.60151,5.4591311,3000,1005,20,80,#NAME?,1000,1,2000,2,3000,3,4000,4
91.5,1.5,0.304,0.454,-1.666,0.275,-0.243,-0.036,10.612,70,0,0,1,1,1,1,59.60151,5.4591311,3000,1005,20,80,#NAME?,1000,1,2000,2,3000,3,4000,4
92,1.5,0.204,0.49,-1.126,0.676,-0.241,-0.08,10.634,70,0,0,1,1,1,1,59.60151,5.4591311,3000,1005,20,80,#NAME?,1000,1,2000,2,3000,3,4000,4
92.5,1.5,0.123,0.435,-0.479,0.991,-0.223,-0.053,10.579,70,0,0,1,1,1,1,59.60151,5.4591311,3000,1005,20,80,#NAME?,1000,1,2000,2,3000,3,4000,4
93,1.6,0.064,0.29,0.206,1.204,-0.173,-0.048,10.452,70,0,0,1,1,1,1,59.60151,5.4591311,3000,1005,20,80,#NAME?,1000,1,2000,2,3000,3,4000,4
93.5,1.6,0.023,0.076,0.858,1.281,-0.087,-0.06,10.247,70,0,0,1,1,1,1,59.60151,5.4591311,3000,1005,20,80,#NAME?,1000,1,2000,2,3000,3,4000,4
94,1.6,-0.004,-0.187,1.41,1.228,0.009,-0.038,10.012,70,0,0,1,1,1,1,59.60151,5.4591311,3000,1005,20,80,#NAME?,1000,1,2000,2,3000,3,4000,4
94.5,1.6,-0.024,-0.469,1.806,1.041,0.111,-0.042,9.745,70,0,0,1,1,1,1,59.60151,5.4591311,3000,1005,20,80,#NAME?,1000,1,2000,2,3000,3,4000,4
95,1.6,-0.049,-0.74,2.007,0.755,0.196,-0.052,9.519,70,0,0,1,1,1,1,59.60151,5.4591311,3000,1005,20,80,#NAME?,1000,1,2000,2,3000,3,4000,4
95.5,1.6,-0.087,-0.976,1.998,0.392,0.287,-0.042,9.295,70,0,0,1,1,1,1,59.60151,5.4591311,3000,1005,20,80,#NAME?,1000,1,2000,2,3000,3,4000,4
96,1.6,-0.144,-1.148,1.784,0.005,0.329,-0.041,9.18,70,0,0,1,1,1,1,59.60151,5.4591311,3000,1005,20,80,#NAME?,1000,1,2000,2,3000,3,4000,4
96.5,1.6,-0.226,-1.243,1.397,-0.365,0.35,-0.045,9.111,70,0,0,1,1,1,1,59.60151,5.4591311,3000,1005,20,80,#NAME?,1000,1,2000,2,3000,3,4000,4
97,1.6,-0.327,-1.251,0.884,-0.677,0.328,-0.048,9.159,70,0,0,1,1,1,1,59.60151,5.4591311,3000,1005,20,80,#NAME?,1000,1,2000,2,3000,3,4000,4
97.5,1.6,-0.438,-1.181,0.307,-0.902,0.301,-0.018,9.231,70,0,0,1,1,1,1,59.60151,5.4591311,3000,1005,20,80,#NAME?,1000,1,2000,2,3000,3,4000,4
98,1.6,-0.555,-1.037,-0.275,-1.027,0.235,-0.012,9.384,70,0,0,1,1,1,1,59.60151,5.4591311,3000,1005,20,80,#NAME?,1000,1,2000,2,3000,3,4000,4
98.5,1.6,-0.662,-0.84,-0.802,-1.042,0.171,-0.03,9.551,70,0,0,1,1,1,1,59.60151,5.4591311,3000,1005,20,80,#NAME?,1000,1,2000,2,3000,3,4000,4
99,1.7,-0.752,-0.611,-1.225,-0.956,0.096,-0.038,9.75,70,0,0,1,1,1,1,59.60151,5.4591311,3000,1005,20,80,#NAME?,1000,1,2000,2,3000,3,4000,4
99.5,1.7,-0.812,-0.373,-1.507,-0.776,0.031,-0.055,9.929,70,0,0,1,1,1,1,59.60151,5.4591311,3000,1005,20,80,#NAME?,1000,1,2000,2,3000,3,4000,4
100,1.7,-0.839,-0.153,-1.628,-0.538,-0.037,-0.085,10.088,70,0,0,1,1,1,1,59.60151,5.4591311,3000,1005,20,80,#NAME?,1000,1,2000,2,3000,3,4000,4
100.5,1.7,-0.829,0.029,-1.587,-0.256,-0.084,-0.129,10.214,70,0,0,1,1,1,1,59.60151,5.4591311,3000,1005,20,80,#NAME?,1000,1,2000,2,3000,3,4000,4
101,1.7,-0.779,0.158,-1.395,0.029,-0.121,-0.167,10.29,70,0,0,1,1,1,1,59.60151,5.4591311,3000,1005,20,80,#NAME?,1000,1,2000,2,3000,3,4000,4
101.5,1.7,-0.694,0.222,-1.078,0.304,-0.139,-0.198,10.336,70,0,0,1,1,1,1,59.60151,5.4591311,3000,1005,20,80,#NAME?,1000,1,2000,2,3000,3,4000,4
102,1.7,-0.572,0.218,-0.672,0.536,-0.132,-0.227,10.316,70,0,0,1,1,1,1,59.60151,5.4591311,3000,1005,20,80,#NAME?,1000,1,2000,2,3000,3,4000,4
102.5,1.7,-0.425,0.152,-0.218,0.715,-0.121,-0.235,10.282,70,0,0,1,1,1,1,59.60151,5.4591311,3000,1005,20,80,#NAME?,1000,1,2000,2,3000,3,4000,4
103,1.7,-0.261,0.029,0.241,0.82,-0.073,-0.215,10.183,70,0,0,1,1,1,1,59.60151,5.4591311,3000,1005,20,80,#NAME?,1000,1,2000,2,3000,3,4000,4
103.5,1.7,-0.092,-0.134,0.662,0.851,-0.029,-0.158,10.083,70,0,0,1,1,1,1,59.60151,5.4591311,3000,1005,20,80,#NAME?,1000,1,2000,2,3000,3,4000,4
104,1.7,0.071,-0.322,1.011,0.806,0.037,-0.103,9.935,70,0,0,1,1,1,1,59.60151,5.4591311,3000,1005,20,80,#NAME?,1000,1,2000,2,3000,3,4000,4
104.5,1.7,0.216,-0.519,1.257,0.686,0.094,-0.048,9.797,70,0,0,1,1,1,1,59.60151,5.4591311,3000,1005,20,80,#NAME?,1000,1,2000,2,3000,3,4000,4
105,1.8,0.334,-0.704,1.377,0.501,0.167,0.031,9.624,70,0,0,1,1,1,1,59.60151,5.4591311,3000,1005,20,80,#NAME?,1000,1,2000,2,3000,3,4000,4
105.5,1.8,0.422,-0.858,1.36,0.261,0.221,0.102,9.482,70,0,0,1,1,1,1,59.60151,5.4591311,3000,1005,20,80,#NAME?,1000,1,2000,2,3000,3,4000,4
106,1.8,0.475,-0.967,1.207,-0.005,0.267,0.178,9.363,70,0,0,1,1,1,1,59.60151,5.4591311,3000,1005,20,80,#NAME?,1000,1,2000,2,3000,3,4000,4
106.5,1.8,0.5,-1.019,0.931,-0.277,0.287,0.219,9.295,70,0,0,1,1,1,1,59.60151,5.4591311,3000,1005,20,80,#NAME?,1000,1,2000,2,3000,3,4000,4
107,1.8,0.506,-1.009,0.561,-0.516,0.282,0.233,9.287,70,0,0,1,1,1,1,59.60151,5.4591311,3000,1005,20,80,#NAME?,1000,1,2000,2,3000,3,4000,4
107.5,1.8,0.499,-0.943,0.135,-0.705,0.255,0.214,9.33,70,0,0,1,1,1,1,59.60151,5.4591311,3000,1005,20,80,#NAME?,1000,1,2000,2,3000,3,4000,4
108,1.8,0.489,-0.827,-0.301,-0.813,0.204,0.185,9.438,70,0,0,1,1,1,1,59.60151,5.4591311,3000,1005,20,80,#NAME?,1000,1,2000,2,3000,3,4000,4
108.5,1.8,0.472,-0.675,-0.703,-0.84,0.149,0.156,9.57,70,0,0,1,1,1,1,59.60151,5.4591311,3000,1005,20,80,#NAME?,1000,1,2000,2,3000,3,4000,4
109,1.8,0.449,-0.501,-1.028,-0.776,0.082,0.152,9.744,70,0,0,1,1,1,1,59.60151,5.4591311,3000,1005,20,80,#NAME?,1000,1,2000,2,3000,3,4000,4
109.5,1.8,0.413,-0.324,-1.243,-0.635,0.033,0.119,9.895,70,0,0,1,1,1,1,59.60151,5.4591311,3000,1005,20,80,#NAME?,1000,1,2000,2,3000,3,4000,4
110,1.8,0.361,-0.161,-1.328,-0.431,-0.026,0.095,10.054,70,0,0,1,1,1,1,59.60151,5.4591311,3000,1005,20,80,#NAME?,1000,1,2000,2,3000,3,4000,4
110.5,1.8,0.29,-0.029,-1.276,-0.189,-0.064,0.086,10.167,70,0,0,1,1,1,1,59.60151,5.4591311,3000,1005,20,80,#NAME?,1000,1,2000,2,3000,3,4000,4
111,1.9,0.205,0.063,-1.095,0.074,-0.1,0.051,10.277,70,0,0,1,1,1,1,59.60151,5.4591311,3000,1005,20,80,#NAME?,1000,1,2000,2,3000,3,4000,4
111.5,1.9,0.111,0.102,-0.802,0.331,-0.116,0,10.325,70,0,0,1,1,1,1,59.60151,5.4591311,3000,1005,20,80,#NAME?,1000,1,2000,2,3000,3,4000,4
112,1.9,0.014,0.087,-0.425,0.556,-0.117,-0.028,10.336,70,0,0,1,1,1,1,59.60151,5.4591311,3000,1005,20,80,#NAME?,1000,1,2000,2,3000,3,4000,4
112.5,1.9,-0.078,0.018,-0.003,0.727,-0.091,-0.049,10.274,70,0,0,1,1,1,1,59.60151,5.4591311,3000,1005,20,80,#NAME?,1000,1,2000,2,3000,3,4000,4
113,1.9,-0.162,-0.093,0.421,0.82,-0.054,-0.074,10.177,70,0,0,1,1,1,1,59.60151,5.4591311,3000,1005,20,80,#NAME?,1000,1,2000,2,3000,3,4000,4
113.5,1.9,-0.235,-0.241,0.802,0.83,0.005,-0.086,10.025,70,0,0,1,1,1,1,59.60151,5.4591311,3000,1005,20,80,#NAME?,1000,1,2000,2,3000,3,4000,4
114,1.9,-0.297,-0.409,1.098,0.742,0.073,-0.102,9.848,70,0,0,1,1,1,1,59.60151,5.4591311,3000,1005,20,80,#NAME?,1000,1,2000,2,3000,3,4000,4
114.5,1.9,-0.347,-0.577,1.277,0.577,0.137,-0.129,9.672,70,0,0,1,1,1,1,59.60151,5.4591311,3000,1005,20,80,#NAME?,1000,1,2000,2,3000,3,4000,4
115,1.9,-0.39,-0.725,1.318,0.345,0.192,-0.146,9.506,70,0,0,1,1,1,1,59.60151,5.4591311,3000,1005,20,80,#NAME?,1000,1,2000,2,3000,3,4000,4
115.5,1.9,-0.429,-0.84,1.217,0.084,0.223,-0.151,9.4,70,0,0,1,1,1,1,59.60151,5.4591311,3000,1005,20,80,#NAME?,1000,1,2000,2,3000,3,4000,4
116,1.9,-0.47,-0.911,0.99,-0.182,0.242,-0.137,9.33,70,0,0,1,1,1,1,59.60151,5.4591311,3000,1005,20,80,#NAME?,1000,1,2000,2,3000,3,4000,4
116.5,1.9,-0.513,-0.934,0.663,-0.412,0.226,-0.096,9.34,70,0,0,1,1,1,1,59.60151,5.4591311,3000,1005,20,80,#NAME?,1000,1,2000,2,3000,3,4000,4
117,2,-0.561,-0.91,0.276,-0.597,0.219,-0.066,9.369,70,0,0,1,1,1,1,59.60151,5.4591311,3000,1005,20,80,#NAME?,1000,1,2000,2,3000,3,4000,4
117.5,2,-0.61,-0.839,-0.129,-0.71,0.183,-0.039,9.472,70,0,0,1,1,1,1,59.60151,5.4591311,3000,1005,20,80,#NAME?,1000,1,2000,2,3000,3,4000,4
118,2,-0.655,-0.734,-0.509,-0.745,0.157,-0.036,9.58,70,0,0,1,1,1,1,59.60151,5.4591311,3000,1005,20,80,#NAME?,1000,1,2000,2,3000,3,4000,4
118.5,2,-0.686,-0.604,-0.826,-0.703,0.113,-0.019,9.727,70,0,0,1,1,1,1,59.60151,5.4591311,3000,1005,20,80,#NAME?,1000,1,2000,2,3000,3,4000,4
119,2,-0.702,-0.465,-1.049,-0.593,0.073,-0.032,9.86,70,0,0,1,1,1,1,59.60151,5.4591311,3000,1005,20,80,#NAME?,1000,1,2000,2,3000,3,4000,4
119.5,2,-0.697,-0.327,-1.16,-0.426,0.026,-0.111,9.999,70,0,0,1,1,1,1,59.60151,5.4591311,3000,1005,20,80,#NAME?,1000,1,2000,2,3000,3,4000,4
120,2,-0.671,-0.208,-1.152,-0.226,-0.003,-0.139,10.082,70,0,0,1,1,1,1,59.60151,5.4591311,3000,1005,20,80,#NAME?,1000,1,2000,2,3000,3,4000,4
120.5,2,-0.615,-0.113,-1.033,-0.019,-0.032,-0.19,10.149,70,0,0,1,1,1,1,59.60151,5.4591311,3000,1005,20,80,#NAME?,1000,1,2000,2,3000,3,4000,4
121,2,-0.539,-0.052,-0.82,0.178,-0.053,-0.178,10.173,70,0,0,1,1,1,1,59.60151,5.4591311,3000,1005,20,80,#NAME?,1000,1,2000,2,3000,3,4000,4
121.5,2,-0.444,-0.026,-0.542,0.342,-0.056,-0.157,10.159,70,0,0,1,1,1,1,59.60151,5.4591311,3000,1005,20,80,#NAME?,1000,1,2000,2,3000,3,4000,4
122,2,-0.335,-0.034,-0.228,0.467,-0.05,-0.147,10.123,70,0,0,1,1,1,1,59.60151,5.4591311,3000,1005,20,80,#NAME?,1000,1,2000,2,3000,3,4000,4
122.5,2,-0.212,-0.079,0.09,0.537,-0.033,-0.122,10.056,70,0,0,1,1,1,1,59.60151,5.4591311,3000,1005,20,80,#NAME?,1000,1,2000,2,3000,3,4000,4
123,2.1,-0.09,-0.151,0.384,0.561,-0.011,-0.079,9.988,70,0,0,1,1,1,1,59.60151,5.4591311,3000,1005,20,80,#NAME?,1000,1,2000,2,3000,3,4000,4
123.5,2.1,0.03,-0.243,0.628,0.525,0.032,-0.037,9.875,70,0,0,1,1,1,1,59.60151,5.4591311,3000,1005,20,80,#NAME?,1000,1,2000,2,3000,3,4000,4
124,2.1,0.145,-0.347,0.8,0.447,0.058,0.018,9.801,70,0,0,1,1,1,1,59.60151,5.4591311,3000,1005,20,80,#NAME?,1000,1,2000,2,3000,3,4000,4
124.5,2.1,0.25,-0.453,0.891,0.332,0.1,0.056,9.703,70,0,0,1,1,1,1,59.60151,5.4591311,3000,1005,20,80,#NAME?,1000,1,2000,2,3000,3,4000,4
125,2.1,0.343,-0.549,0.897,0.197,0.12,0.119,9.652,70,0,0,1,1,1,1,59.60151,5.4591311,3000,1005,20,80,#NAME?,1000,1,2000,2,3000,3,4000,4
125.5,2.1,0.42,-0.629,0.825,0.055,0.15,0.172,9.599,70,0,0,1,1,1,1,59.60151,5.4591311,3000,1005,20,80,#NAME?,1000,1,2000,2,3000,3,4000,4
126,2.1,0.478,-0.689,0.685,-0.08,0.165,0.193,9.589,70,0,0,1,1,1,1,59.60151,5.4591311,3000,1005,20,80,#NAME?,1000,1,2000,2,3000,3,4000,4
126.5,2.1,0.52,-0.723,0.497,-0.195,0.174,0.205,9.583,70,0,0,1,1,1,1,59.60151,5.4591311,3000,1005,20,80,#NAME?,1000,1,2000,2,3000,3,4000,4
127,2.1,0.538,-0.729,0.279,-0.291,0.171,0.19,9.602,70,0,0,1,1,1,1,59.60151,5.4591311,3000,1005,20,80,#NAME?,1000,1,2000,2,3000,3,4000,4
127.5,2.1,0.541,-0.71,0.052,-0.349,0.159,0.148,9.64,70,0,0,1,1,1,1,59.60151,5.4591311,3000,1005,20,80,#NAME?,1000,1,2000,2,3000,3,4000,4
128,2.1,0.53,-0.668,-0.164,-0.38,0.148,0.108,9.675,70,0,0,1,1,1,1,59.60151,5.4591311,3000,1005,20,80,#NAME?,1000,1,2000,2,3000,3,4000,4
128.5,2.1,0.497,-0.611,-0.353,-0.371,0.115,0.082,9.753,70,0,0,1,1,1,1,59.60151,5.4591311,3000,1005,20,80,#NAME?,1000,1,2000,2,3000,3,4000,4
129,2.2,0.444,-0.545,-0.497,-0.332,0.092,0.025,9.805,70,0,0,1,1,1,1,59.60151,5.4591311,3000,1005,20,80,#NAME?,1000,1,2000,2,3000,3,4000,4
129.5,2.2,0.372,-0.471,-0.589,-0.265,0.067,0.03,9.865,70,0,0,1,1,1,1,59.60151,5.4591311,3000,1005,20,80,#NAME?,1000,1,2000,2,3000,3,4000,4
130,2.2,0.28,-0.405,-0.625,-0.187,0.056,-0.004,9.886,70,0,0,1,1,1,1,59.60151,5.4591311,3000,1005,20,80,#NAME?,1000,1,2000,2,3000,3,4000,4
130.5,2.2,0.166,-0.345,-0.609,-0.103,0.031,-0.007,9.927,70,0,0,1,1,1,1,59.60151,5.4591311,3000,1005,20,80,#NAME?,1000,1,2000,2,3000,3,4000,4
131,2.2,0.035,-0.295,-0.548,-0.025,0.029,-0.013,9.918,70,0,0,1,1,1,1,59.60151,5.4591311,3000,1005,20,80,#NAME?,1000,1,2000,2,3000,3,4000,4
131.5,2.2,-0.109,-0.252,-0.454,0.043,0.023,0.001,9.925,70,0,0,1,1,1,1,59.60151,5.4591311,3000,1005,20,80,#NAME?,1000,1,2000,2,3000,3,4000,4
132,2.2,-0.258,-0.22,-0.337,0.105,0.01,0.005,9.93,70,0,0,1,1,1,1,59.60151,5.4591311,3000,1005,20,80,#NAME?,1000,1,2000,2,3000,3,4000,4
132.5,2.2,-0.405,-0.202,-0.203,0.163,0.002,-0.006,9.956,70,0,0,1,1,1,1,59.60151,5.4591311,3000,1005,20,80,#NAME?,1000,1,2000,2,3000,3,4000,4
133,2.2,-0.537,-0.199,-0.058,0.225,-0.006,-0.003,9.981,70,0,0,1,1,1,1,59.60151,5.4591311,3000,1005,20,80,#NAME?,1000,1,2000,2,3000,3,4000,4
133.5,2.2,-0.648,-0.216,0.095,0.279,-0.006,-0.068,9.997,70,0,0,1,1,1,1,59.60151,5.4591311,3000,1005,20,80,#NAME?,1000,1,2000,2,3000,3,4000,4
134,2.2,-0.726,-0.253,0.25,0.328,0.003,-0.139,9.991,70,0,0,1,1,1,1,59.60151,5.4591311,3000,1005,20,80,#NAME?,1000,1,2000,2,3000,3,4000,4
134.5,2.2,-0.772,-0.314,0.396,0.349,0.022,-0.171,9.952,70,0,0,1,1,1,1,59.60151,5.4591311,3000,1005,20,80,#NAME?,1000,1,2000,2,3000,3,4000,4
135,2.3,-0.785,-0.39,0.518,0.342,0.042,-0.223,9.897,70,0,0,1,1,1,1,59.60151,5.4591311,3000,1005,20,80,#NAME?,1000,1,2000,2,3000,3,4000,4
135.5,2.3,-0.77,-0.479,0.601,0.286,0.085,-0.245,9.791,70,0,0,1,1,1,1,59.60151,5.4591311,3000,1005,20,80,#NAME?,1000,1,2000,2,3000,3,4000,4
136,2.3,-0.736,-0.567,0.628,0.192,0.113,-0.25,9.7,70,0,0,1,1,1,1,59.60151,5.4591311,3000,1005,20,80,#NAME?,1000,1,2000,2,3000,3,4000,4
136.5,2.3,-0.693,-0.644,0.587,0.055,0.154,-0.261,9.586,70,0,0,1,1,1,1,59.60151,5.4591311,3000,1005,20,80,#NAME?,1000,1,2000,2,3000,3,4000,4
137,2.3,-0.646,-0.696,0.475,-0.1,0.18,-0.199,9.52,70,0,0,1,1,1,1,59.60151,5.4591311,3000,1005,20,80,#NAME?,1000,1,2000,2,3000,3,4000,4
137.5,2.3,-0.602,-0.721,0.297,-0.265,0.209,-0.116,9.446,70,0,0,1,1,1,1,59.60151,5.4591311,3000,1005,20,80,#NAME?,1000,1,2000,2,3000,3,4000,4
138,2.3,-0.568,-0.706,0.064,-0.416,0.208,-0.024,9.448,70,0,0,1,1,1,1,59.60151,5.4591311,3000,1005,20,80,#NAME?,1000,1,2000,2,3000,3,4000,4
138.5,2.3,-0.539,-0.652,-0.197,-0.53,0.205,0.017,9.471,70,0,0,1,1,1,1,59.60151,5.4591311,3000,1005,20,80,#NAME?,1000,1,2000,2,3000,3,4000,4
139,2.3,-0.516,-0.562,-0.46,-0.586,0.161,0.046,9.581,70,0,0,1,1,1,1,59.60151,5.4591311,3000,1005,20,80,#NAME?,1000,1,2000,2,3000,3,4000,4
139.5,2.3,-0.492,-0.444,-0.685,-0.563,0.113,0.025,9.716,70,0,0,1,1,1,1,59.60151,5.4591311,3000,1005,20,80,#NAME?,1000,1,2000,2,3000,3,4000,4
140,2.3,-0.467,-0.314,-0.839,-0.463,0.047,-0.05,9.889,70,0,0,1,1,1,1,59.60151,5.4591311,3000,1005,20,80,#NAME?,1000,1,2000,2,3000,3,4000,4
140.5,2.3,-0.433,-0.19,-0.894,-0.29,-0.011,-0.09,10.047,70,0,0,1,1,1,1,59.60151,5.4591311,3000,1005,20,80,#NAME?,1000,1,2000,2,3000,3,4000,4
141,2.4,-0.388,-0.087,-0.836,-0.07,-0.067,-0.111,10.192,70,0,0,1,1,1,1,59.60151,5.4591311,3000,1005,20,80,#NAME?,1000,1,2000,2,3000,3,4000,4
141.5,2.4,-0.328,-0.021,-0.664,0.174,-0.104,-0.153,10.289,70,0,0,1,1,1,1,59.60151,5.4591311,3000,1005,20,80,#NAME?,1000,1,2000,2,3000,3,4000,4
142,2.4,-0.252,-0.002,-0.395,0.408,-0.117,-0.173,10.327,70,0,0,1,1,1,1,59.60151,5.4591311,3000,1005,20,80,#NAME?,1000,1,2000,2,3000,3,4000,4
142.5,2.4,-0.163,-0.034,-0.057,0.605,-0.12,-0.171,10.313,70,0,0,1,1,1,1,59.60151,5.4591311,3000,1005,20,80,#NAME?,1000,1,2000,2,3000,3,4000,4
143,2.4,-0.06,-0.115,0.311,0.735,-0.087,-0.144,10.228,70,0,0,1,1,1,1,59.60151,5.4591311,3000,1005,20,80,#NAME?,1000,1,2000,2,3000,3,4000,4
143.5,2.4,0.048,-0.24,0.663,0.786,-0.04,-0.118,10.102,70,0,0,1,1,1,1,59.60151,5.4591311,3000,1005,20,80,#NAME?,1000,1,2000,2,3000,3,4000,4
144,2.4,0.154,-0.395,0.957,0.742,0.024,-0.073,9.927,70,0,0,1,1,1,1,59.60151,5.4591311,3000,1005,20,80,#NAME?,1000,1,2000,2,3000,3,4000,4
144.5,2.4,0.25,-0.561,1.154,0.613,0.081,-0.004,9.756,70,0,0,1,1,1,1,59.60151,5.4591311,3000,1005,20,80,#NAME?,1000,1,2000,2,3000,3,4000,4
145,2.4,0.33,-0.72,1.227,0.406,0.156,0.061,9.559,70,0,0,1,1,1,1,59.60151,5.4591311,3000,1005,20,80,#NAME?,1000,1,2000,2,3000,3,4000,4
145.5,2.4,0.391,-0.853,1.161,0.142,0.217,0.135,9.4,70,0,0,1,1,1,1,59.60151,5.4591311,3000,1005,20,80,#NAME?,1000,1,2000,2,3000,3,4000,4
146,2.4,0.433,-0.941,0.956,-0.15,0.267,0.237,9.268,70,0,0,1,1,1,1,59.60151,5.4591311,3000,1005,20,80,#NAME?,1000,1,2000,2,3000,3,4000,4
146.5,2.4,0.453,-0.973,0.63,-0.436,0.284,0.284,9.221,70,0,0,1,1,1,1,59.60151,5.4591311,3000,1005,20,80,#NAME?,1000,1,2000,2,3000,3,4000,4
147,2.5,0.452,-0.942,0.217,-0.682,0.289,0.324,9.222,70,0,0,1,1,1,1,59.60151,5.4591311,3000,1005,20,80,#NAME?,1000,1,2000,2,3000,3,4000,4
147.5,2.5,0.431,-0.849,-0.24,-0.859,0.267,0.294,9.301,70,0,0,1,1,1,1,59.60151,5.4591311,3000,1005,20,80,#NAME?,1000,1,2000,2,3000,3,4000,4
148,2.5,0.395,-0.704,-0.688,-0.937,0.206,0.189,9.455,70,0,0,1,1,1,1,59.60151,5.4591311,3000,1005,20,80,#NAME?,1000,1,2000,2,3000,3,4000,4
148.5,2.5,0.337,-0.521,-1.075,-0.916,0.143,0.103,9.63,70,0,0,1,1,1,1,59.60151,5.4591311,3000,1005,20,80,#NAME?,1000,1,2000,2,3000,3,4000,4
149,2.5,0.261,-0.32,-1.356,-0.786,0.056,0.008,9.852,70,0,0,1,1,1,1,59.60151,5.4591311,3000,1005,20,80,#NAME?,1000,1,2000,2,3000,3,4000,4
149.5,2.5,0.17,-0.127,-1.494,-0.568,-0.017,-0.079,10.045,70,0,0,1,1,1,1,59.60151,5.4591311,3000,1005,20,80,#NAME?,1000,1,2000,2,3000,3,4000,4
150,2.5,0.064,0.036,-1.472,-0.28,-0.103,-0.108,10.249,70,0,0,1,1,1,1,59.60151,5.4591311,3000,1005,20,80,#NAME?,1000,1,2000,2,3000,3,4000,4
150.5,2.5,-0.05,0.15,-1.286,0.045,-0.158,-0.119,10.379,70,0,0,1,1,1,1,59.60151,5.4591311,3000,1005,20,80,#NAME?,1000,1,2000,2,3000,3,4000,4
151,2.5,-0.163,0.201,-0.957,0.366,-0.182,-0.117,10.446,70,0,0,1,1,1,1,59.60151,5.4591311,3000,1005,20,80,#NAME?,1000,1,2000,2,3000,3,4000,4
151.5,2.5,-0.268,0.179,-0.52,0.638,-0.172,-0.132,10.418,70,0,0,1,1,1,1,59.60151,5.4591311,3000,1005,20,80,#NAME?,1000,1,2000,2,3000,3,4000,4
152,2.5,-0.356,0.096,-0.03,0.83,-0.137,-0.144,10.331,70,0,0,1,1,1,1,59.60151,5.4591311,3000,1005,20,80,#NAME?,1000,1,2000,2,3000,3,4000,4
152.5,2.5,-0.431,-0.044,0.457,0.922,-0.073,-0.109,10.174,70,0,0,1,1,1,1,59.60151,5.4591311,3000,1005,20,80,#NAME?,1000,1,2000,2,3000,3,4000,4
153,2.6,-0.493,-0.214,0.884,0.905,0.001,-0.041,9.997,70,0,0,1,1,1,1,59.60151,5.4591311,3000,1005,20,80,#NAME?,1000,1,2000,2,3000,3,4000,4
153.5,2.6,-0.546,-0.394,1.207,0.79,0.083,-0.002,9.797,70,0,0,1,1,1,1,59.60151,5.4591311,3000,1005,20,80,#NAME?,1000,1,2000,2,3000,3,4000,4
154,2.6,-0.593,-0.565,1.39,0.586,0.155,0.006,9.604,70,0,0,1,1,1,1,59.60151,5.4591311,3000,1005,20,80,#NAME?,1000,1,2000,2,3000,3,4000,4
154.5,2.6,-0.635,-0.708,1.419,0.331,0.205,0.009,9.459,70,0,0,1,1,1,1,59.60151,5.4591311,3000,1005,20,80,#NAME?,1000,1,2000,2,3000,3,4000,4
155,2.6,-0.674,-0.808,1.295,0.044,0.253,-0.061,9.349,70,0,0,1,1,1,1,59.60151,5.4591311,3000,1005,20,80,#NAME?,1000,1,2000,2,3000,3,4000,4
155.5,2.6,-0.711,-0.857,1.04,-0.226,0.27,-0.14,9.314,70,0,0,1,1,1,1,59.60151,5.4591311,3000,1005,20,80,#NAME?,1000,1,2000,2,3000,3,4000,4
156,2.6,-0.738,-0.852,0.688,-0.458,0.266,-0.239,9.324,70,0,0,1,1,1,1,59.60151,5.4591311,3000,1005,20,80,#NAME?,1000,1,2000,2,3000,3,4000,4
156.5,2.6,-0.764,-0.797,0.284,-0.617,0.219,-0.299,9.422,70,0,0,1,1,1,1,59.60151,5.4591311,3000,1005,20,80,#NAME?,1000,1,2000,2,3000,3,4000,4
157,2.6,-0.779,-0.704,-0.121,-0.694,0.174,-0.3,9.536,70,0,0,1,1,1,1,59.60151,5.4591311,3000,1005,20,80,#NAME?,1000,1,2000,2,3000,3,4000,4
157.5,2.6,-0.782,-0.587,-0.481,-0.679,0.1,-0.271,9.71,70,0,0,1,1,1,1,59.60151,5.4591311,3000,1005,20,80,#NAME?,1000,1,2000,2,3000,3,4000,4
158,2.6,-0.771,-0.469,-0.755,-0.584,0.051,-0.227,9.852,70,0,0,1,1,1,1,59.60151,5.4591311,3000,1005,20,80,#NAME?,1000,1,2000,2,3000,3,4000,4
158.5,2.6,-0.747,-0.363,-0.92,-0.427,-0.006,-0.182,9.994,70,0,0,1,1,1,1,59.60151,5.4591311,3000,1005,20,80,#NAME?,1000,1,2000,2,3000,3,4000,4
159,2.7,-0.706,-0.283,-0.967,-0.239,-0.034,-0.113,10.075,70,0,0,1,1,1,1,59.60151,5.4591311,3000,1005,20,80,#NAME?,1000,1,2000,2,3000,3,4000,4
159.5,2.7,-0.647,-0.231,-0.906,-0.055,-0.04,-0.069,10.105,70,0,0,1,1,1,1,59.60151,5.4591311,3000,1005,20,80,#NAME?,1000,1,2000,2,3000,3,4000,4
160,2.7,-0.578,-0.214,-0.759,0.105,-0.033,-0.025,10.091,70,0,0,1,1,1,1,59.60151,5.4591311,3000,1005,20,80,#NAME?,1000,1,2000,2,3000,3,4000,4
160.5,2.7,-0.503,-0.22,-0.559,0.221,-0.008,0.019,10.037,70,0,0,1,1,1,1,59.60151,5.4591311,3000,1005,20,80,#NAME?,1000,1,2000,2,3000,3,4000,4
161,2.7,-0.423,-0.246,-0.335,0.293,0.012,0.054,9.98,70,0,0,1,1,1,1,59.60151,5.4591311,3000,1005,20,80,#NAME?,1000,1,2000,2,3000,3,4000,4
161.5,2.7,-0.347,-0.278,-0.116,0.318,0.033,0.071,9.918,70,0,0,1,1,1,1,59.60151,5.4591311,3000,1005,20,80,#NAME?,1000,1,2000,2,3000,3,4000,4
162,2.7,-0.275,-0.312,0.078,0.313,0.056,0.097,9.869,70,0,0,1,1,1,1,59.60151,5.4591311,3000,1005,20,80,#NAME?,1000,1,2000,2,3000,3,4000,4
162.5,2.7,-0.21,-0.343,0.234,0.279,0.085,0.077,9.812,70,0,0,1,1,1,1,59.60151,5.4591311,3000,1005,20,80,#NAME?,1000,1,2000,2,3000,3,4000,4
163,2.7,-0.15,-0.365,0.344,0.228,0.088,-0.001,9.786,70,0,0,1,1,1,1,59.60151,5.4591311,3000,1005,20,80,#NAME?,1000,1,2000,2,3000,3,4000,4
163.5,2.7,-0.094,-0.38,0.407,0.165,0.103,-0.054,9.746,70,0,0,1,1,1,1,59.60151,5.4591311,3000,1005,20,80,#NAME?,1000,1,2000,2,3000,3,4000,4
164,2.7,-0.036,-0.385,0.425,0.097,0.104,-0.123,9.733,70,0,0,1,1,1,1,59.60151,5.4591311,3000,1005,20,80,#NAME?,1000,1,2000,2,3000,3,4000,4
164.5,2.7,0.02,-0.383,0.403,0.034,0.093,-0.156,9.728,70,0,0,1,1,1,1,59.60151,5.4591311,3000,1005,20,80,#NAME?,1000,1,2000,2,3000,3,4000,4
165,2.8,0.078,-0.377,0.351,-0.019,0.086,-0.171,9.747,70,0,0,1,1,1,1,59.60151,5.4591311,3000,1005,20,80,#NAME?,1000,1,2000,2,3000,3,4000,4
165.5,2.8,0.137,-0.374,0.282,-0.049,0.083,-0.156,9.773,70,0,0,1,1,1,1,59.60151,5.4591311,3000,1005,20,80,#NAME?,1000,1,2000,2,3000,3,4000,4
166,2.8,0.188,-0.38,0.21,-0.056,0.055,-0.107,9.82,70,0,0,1,1,1,1,59.60151,5.4591311,3000,1005,20,80,#NAME?,1000,1,2000,2,3000,3,4000,4
166.5,2.8,0.231,-0.401,0.148,-0.044,0.042,-0.018,9.854,70,0,0,1,1,1,1,59.60151,5.4591311,3000,1005,20,80,#NAME?,1000,1,2000,2,3000,3,4000,4
167,2.8,0.263,-0.435,0.097,-0.038,0.065,0.077,9.819,70,0,0,1,1,1,1,59.60151,5.4591311,3000,1005,20,80,#NAME?,1000,1,2000,2,3000,3,4000,4
167.5,2.8,0.282,-0.474,0.051,-0.041,0.071,0.145,9.808,70,0,0,1,1,1,1,59.60151,5.4591311,3000,1005,20,80,#NAME?,1000,1,2000,2,3000,3,4000,4
168,2.8,0.29,-0.516,0.008,-0.054,0.084,0.201,9.776,70,0,0,1,1,1,1,59.60151,5.4591311,3000,1005,20,80,#NAME?,1000,1,2000,2,3000,3,4000,4
168.5,2.8,0.28,-0.551,-0.037,-0.073,0.09,0.219,9.77,70,0,0,1,1,1,1,59.60151,5.4591311,3000,1005,20,80,#NAME?,1000,1,2000,2,3000,3,4000,4
169,2.8,0.248,-0.573,-0.085,-0.094,0.109,0.192,9.748,70,0,0,1,1,1,1,59.60151,5.4591311,3000,1005,20,80,#NAME?,1000,1,2000,2,3000,3,4000,4
169.5,2.8,0.19,-0.58,-0.134,-0.113,0.106,0.191,9.759,70,0,0,1,1,1,1,59.60151,5.4591311,3000,1005,20,80,#NAME?,1000,1,2000,2,3000,3,4000,4
170,2.8,0.104,-0.568,-0.18,-0.12,0.11,0.174,9.771,70,0,0,1,1,1,1,59.60151,5.4591311,3000,1005,20,80,#NAME?,1000,1,2000,2,3000,3,4000,4
170.5,2.8,-0.012,-0.539,-0.219,-0.116,0.099,0.097,9.8,70,0,0,1,1,1,1,59.60151,5.4591311,3000,1005,20,80,#NAME?,1000,1,2000,2,3000,3,4000,4
171,2.9,-0.153,-0.498,-0.241,-0.092,0.085,0.013,9.833,70,0,0,1,1,1,1,59.60151,5.4591311,3000,1005,20,80,#NAME?,1000,1,2000,2,3000,3,4000,4
171.5,2.9,-0.311,-0.449,-0.243,-0.059,0.072,-0.075,9.859,70,0,0,1,1,1,1,59.60151,5.4591311,3000,1005,20,80,#NAME?,1000,1,2000,2,3000,3,4000,4
172,2.9,-0.472,-0.398,-0.224,-0.017,0.058,-0.177,9.88,70,0,0,1,1,1,1,59.60151,5.4591311,3000,1005,20,80,#NAME?,1000,1,2000,2,3000,3,4000,4
172.5,2.9,-0.612,-0.352,-0.186,0.017,0.055,-0.251,9.866,70,0,0,1,1,1,1,59.60151,5.4591311,3000,1005,20,80,#NAME?,1000,1,2000,2,3000,3,4000,4
173,2.9,-0.721,-0.309,-0.136,0.044,0.047,-0.25,9.856,70,0,0,1,1,1,1,59.60151,5.4591311,3000,1005,20,80,#NAME?,1000,1,2000,2,3000,3,4000,4
173.5,2.9,-0.787,-0.28,-0.084,0.046,0.058,-0.222,9.811,70,0,0,1,1,1,1,59.60151,5.4591311,3000,1005,20,80,#NAME?,1000,1,2000,2,3000,3,4000,4
174,2.9,-0.807,-0.254,-0.041,0.037,0.06,-0.163,9.791,70,0,0,1,1,1,1,59.60151,5.4591311,3000,1005,20,80,#NAME?,1000,1,2000,2,3000,3,4000,4
174.5,2.9,-0.782,-0.234,-0.012,0.008,0.076,-0.103,9.741,70,0,0,1,1,1,1,59.60151,5.4591311,3000,1005,20,80,#NAME?,1000,1,2000,2,3000,3,4000,4
175,2.9,-0.722,-0.215,-0.002,-0.024,0.077,-0.039,9.74,70,0,0,1,1,1,1,59.60151,5.4591311,3000,1005,20,80,#NAME?,1000,1,2000,2,3000,3,4000,4
175.5,2.9,-0.639,-0.203,-0.009,-0.056,0.08,-0.009,9.731,70,0,0,1,1,1,1,59.60151,5.4591311,3000,1005,20,80,#NAME?,1000,1,2000,2,3000,3,4000,4
176,2.9,-0.544,-0.19,-0.026,-0.071,0.068,-0.019,9.784,70,0,0,1,1,1,1,59.60151,5.4591311,3000,1005,20,80,#NAME?,1000,1,2000,2,3000,3,4000,4
176.5,2.9,-0.448,-0.184,-0.038,-0.051,0.05,-0.086,9.844,70,0,0,1,1,1,1,59.60151,5.4591311,3000,1005,20,80,#NAME?,1000,1,2000,2,3000,3,4000,4
177,3,-0.365,-0.192,-0.03,0.008,0.009,-0.183,9.951,70,0,0,1,1,1,1,59.60151,5.4591311,3000,1005,20,80,#NAME?,1000,1,2000,2,3000,3,4000,4
177.5,3,-0.299,-0.221,0.014,0.103,-0.013,-0.258,10.032,70,0,0,1,1,1,1,59.60151,5.4591311,3000,1005,20,80,#NAME?,1000,1,2000,2,3000,3,4000,4
178,3,-0.25,-0.275,0.1,0.212,-0.03,-0.272,10.09,70,0,0,1,1,1,1,59.60151,5.4591311,3000,1005,20,80,#NAME?,1000,1,2000,2,3000,3,4000,4
178.5,3,-0.218,-0.351,0.224,0.318,-0.019,-0.235,10.108,70,0,0,1,1,1,1,59.60151,5.4591311,3000,1005,20,80,#NAME?,1000,1,2000,2,3000,3,4000,4
179,3,-0.201,-0.449,0.372,0.405,-0.007,-0.175,10.094,70,0,0,1,1,1,1,59.60151,5.4591311,3000,1005,20,80,#NAME?,1000,1,2000,2,3000,3,4000,4
179.5,3,-0.193,-0.565,0.526,0.455,0.022,-0.061,10.04,70,0,0,1,1,1,1,59.60151,5.4591311,3000,1005,20,80,#NAME?,1000,1,2000,2,3000,3,4000,4
180,3,-0.195,-0.69,0.66,0.444,0.078,0.016,9.923,70,0,0,1,1,1,1,59.60151,5.4591311,3000,1005,20,80,#NAME?,1000,1,2000,2,3000,3,4000,4
180.5,3,-0.201,-0.81,0.743,0.366,0.126,0.065,9.781,70,0,0,1,1,1,1,59.60151,5.4591311,3000,1005,20,80,#NAME?,1000,1,2000,2,3000,3,4000,4
181,3,-0.21,-0.908,0.75,0.216,0.192,0.123,9.607,70,0,0,1,1,1,1,59.60151,5.4591311,3000,1005,20,80,#NAME?,1000,1,2000,2,3000,3,4000,4
181.5,3,-0.218,-0.972,0.661,0.013,0.225,0.138,9.461,70,0,0,1,1,1,1,59.60151,5.4591311,3000,1005,20,80,#NAME?,1000,1,2000,2,3000,3,4000,4
182,3,-0.218,-0.982,0.47,-0.231,0.264,0.131,9.314,70,0,0,1,1,1,1,59.60151,5.4591311,3000,1005,20,80,#NAME?,1000,1,2000,2,3000,3,4000,4
182.5,3,-0.206,-0.934,0.181,-0.487,0.264,0.132,9.233,70,0,0,1,1,1,1,59.60151,5.4591311,3000,1005,20,80,#NAME?,1000,1,2000,2,3000,3,4000,4
183,3.1,-0.183,-0.823,-0.185,-0.72,0.258,0.14,9.21,70,0,0,1,1,1,1,59.60151,5.4591311,3000,1005,20,80,#NAME?,1000,1,2000,2,3000,3,4000,4
183.5,3.1,-0.148,-0.652,-0.591,-0.892,0.221,0.108,9.279,70,0,0,1,1,1,1,59.60151,5.4591311,3000,1005,20,80,#NAME?,1000,1,2000,2,3000,3,4000,4
184,3.1,-0.096,-0.434,-0.989,-0.968,0.159,0.079,9.429,70,0,0,1,1,1,1,59.60151,5.4591311,3000,1005,20,80,#NAME?,1000,1,2000,2,3000,3,4000,4
184.5,3.1,-0.033,-0.194,-1.324,-0.931,0.086,0.021,9.644,70,0,0,1,1,1,1,59.60151,5.4591311,3000,1005,20,80,#NAME?,1000,1,2000,2,3000,3,4000,4
185,3.1,0.036,0.045,-1.545,-0.768,-0.009,-0.05,9.904,70,0,0,1,1,1,1,59.60151,5.4591311,3000,1005,20,80,#NAME?,1000,1,2000,2,3000,3,4000,4
185.5,3.1,0.102,0.255,-1.608,-0.495,-0.099,-0.119,10.167,70,0,0,1,1,1,1,59.60151,5.4591311,3000,1005,20,80,#NAME?,1000,1,2000,2,3000,3,4000,4
186,3.1,0.156,0.406,-1.49,-0.137,-0.175,-0.154,10.407,70,0,0,1,1,1,1,59.60151,5.4591311,3000,1005,20,80,#NAME?,1000,1,2000,2,3000,3,4000,4
186.5,3.1,0.188,0.473,-1.19,0.257,-0.21,-0.142,10.553,70,0,0,1,1,1,1,59.60151,5.4591311,3000,1005,20,80,#NAME?,1000,1,2000,2,3000,3,4000,4
187,3.1,0.188,0.447,-0.731,0.642,-0.234,-0.109,10.63,70,0,0,1,1,1,1,59.60151,5.4591311,3000,1005,20,80,#NAME?,1000,1,2000,2,3000,3,4000,4
187.5,3.1,0.157,0.326,-0.163,0.954,-0.202,-0.057,10.579,70,0,0,1,1,1,1,59.60151,5.4591311,3000,1005,20,80,#NAME?,1000,1,2000,2,3000,3,4000,4
188,3.1,0.101,0.122,0.45,1.174,-0.168,-0.007,10.484,70,0,0,1,1,1,1,59.60151,5.4591311,3000,1005,20,80,#NAME?,1000,1,2000,2,3000,3,4000,4
188.5,3.1,0.016,-0.144,1.042,1.26,-0.077,0.028,10.26,70,0,0,1,1,1,1,59.60151,5.4591311,3000,1005,20,80,#NAME?,1000,1,2000,2,3000,3,4000,4
189,3.2,-0.084,-0.441,1.54,1.207,0.013,0.077,10.032,70,0,0,1,1,1,1,59.60151,5.4591311,3000,1005,20,80,#NAME?,1000,1,2000,2,3000,3,4000,4
189.5,3.2,-0.194,-0.741,1.888,1.015,0.143,0.064,9.723,70,0,0,1,1,1,1,59.60151,5.4591311,3000,1005,20,80,#NAME?,1000,1,2000,2,3000,3,4000,4
190,3.2,-0.304,-1.002,2.039,0.706,0.232,0.048,9.472,70,0,0,1,1,1,1,59.60151,5.4591311,3000,1005,20,80,#NAME?,1000,1,2000,2,3000,3,4000,4
190.5,3.2,-0.399,-1.203,1.975,0.317,0.332,0.041,9.216,70,0,0,1,1,1,1,59.60151,5.4591311,3000,1005,20,80,#NAME?,1000,1,2000,2,3000,3,4000,4
191,3.2,-0.47,-1.314,1.697,-0.119,0.388,0.022,9.047,70,0,0,1,1,1,1,59.60151,5.4591311,3000,1005,20,80,#NAME?,1000,1,2000,2,3000,3,4000,4
191.5,3.2,-0.518,-1.325,1.231,-0.545,0.424,0.004,8.946,70,0,0,1,1,1,1,59.60151,5.4591311,3000,1005,20,80,#NAME?,1000,1,2000,2,3000,3,4000,4
192,3.2,-0.538,-1.234,0.624,-0.922,0.399,-0.037,8.954,70,0,0,1,1,1,1,59.60151,5.4591311,3000,1005,20,80,#NAME?,1000,1,2000,2,3000,3,4000,4
192.5,3.2,-0.539,-1.051,-0.055,-1.183,0.325,-0.07,9.099,70,0,0,1,1,1,1,59.60151,5.4591311,3000,1005,20,80,#NAME?,1000,1,2000,2,3000,3,4000,4
193,3.2,-0.532,-0.799,-0.726,-1.306,0.226,-0.101,9.315,70,0,0,1,1,1,1,59.60151,5.4591311,3000,1005,20,80,#NAME?,1000,1,2000,2,3000,3,4000,4
193.5,3.2,-0.519,-0.506,-1.308,-1.259,0.096,-0.129,9.62,70,0,0,1,1,1,1,59.60151,5.4591311,3000,1005,20,80,#NAME?,1000,1,2000,2,3000,3,4000,4
194,3.2,-0.511,-0.212,-1.729,-1.059,-0.029,-0.138,9.927,70,0,0,1,1,1,1,59.60151,5.4591311,3000,1005,20,80,#NAME?,1000,1,2000,2,3000,3,4000,4
194.5,3.2,-0.503,0.045,-1.939,-0.73,-0.141,-0.155,10.229,70,0,0,1,1,1,1,59.60151,5.4591311,3000,1005,20,80,#NAME?,1000,1,2000,2,3000,3,4000,4
195,3.3,-0.499,0.239,-1.918,-0.325,-0.208,-0.161,10.433,70,0,0,1,1,1,1,59.60151,5.4591311,3000,1005,20,80,#NAME?,1000,1,2000,2,3000,3,4000,4
195.5,3.3,-0.488,0.347,-1.676,0.104,-0.246,-0.149,10.57,70,0,0,1,1,1,1,59.60151,5.4591311,3000,1005,20,80,#NAME?,1000,1,2000,2,3000,3,4000,4
196,3.3,-0.466,0.363,-1.251,0.494,-0.231,-0.119,10.574,70,0,0,1,1,1,1,59.60151,5.4591311,3000,1005,20,80,#NAME?,1000,1,2000,2,3000,3,4000,4
196.5,3.3,-0.431,0.287,-0.706,0.801,-0.194,-0.084,10.504,70,0,0,1,1,1,1,59.60151,5.4591311,3000,1005,20,80,#NAME?,1000,1,2000,2,3000,3,4000,4
197,3.3,-0.385,0.136,-0.113,0.983,-0.108,-0.056,10.321,70,0,0,1,1,1,1,59.60151,5.4591311,3000,1005,20,80,#NAME?,1000,1,2000,2,3000,3,4000,4
197.5,3.3,-0.328,-0.067,0.449,1.03,-0.011,-0.026,10.105,70,0,0,1,1,1,1,59.60151,5.4591311,3000,1005,20,80,#NAME?,1000,1,2000,2,3000,3,4000,4
198,3.3,-0.268,-0.29,0.915,0.945,0.081,-0.014,9.86,70,0,0,1,1,1,1,59.60151,5.4591311,3000,1005,20,80,#NAME?,1000,1,2000,2,3000,3,4000,4
198.5,3.3,-0.209,-0.506,1.234,0.749,0.164,-0.019,9.643,70,0,0,1,1,1,1,59.60151,5.4591311,3000,1005,20,80,#NAME?,1000,1,2000,2,3000,3,4000,4
199,3.3,-0.157,-0.69,1.38,0.479,0.238,0.001,9.449,70,0,0,1,1,1,1,59.60151,5.4591311,3000,1005,20,80,#NAME?,1000,1,2000,2,3000,3,4000,4
199.5,3.3,-0.111,-0.819,1.348,0.169,0.281,0.014,9.325,70,0,0,1,1,1,1,59.60151,5.4591311,3000,1005,20,80,#NAME?,1000,1,2000,2,3000,3,4000,4
200,3.3,-0.078,-0.886,1.159,-0.129,0.295,0.035,9.277,70,0,0,1,1,1,1,59.60151,5.4591311,3000,1005,20,80,#NAME?,1000,1,2000,2,3000,3,4000,4
200.5,3.3,-0.056,-0.882,0.849,-0.385,0.273,0.029,9.308,70,0,0,1,1,1,1,59.60151,5.4591311,3000,1005,20,80,#NAME?,1000,1,2000,2,3000,3,4000,4
201,3.4,-0.04,-0.822,0.471,-0.561,0.231,0.003,9.41,70,0,0,1,1,1,1,59.60151,5.4591311,3000,1005,20,80,#NAME?,1000,1,2000,2,3000,3,4000,4
201.5,3.4,-0.031,-0.712,0.078,-0.646,0.173,-0.013,9.552,70,0,0,1,1,1,1,59.60151,5.4591311,3000,1005,20,80,#NAME?,1000,1,2000,2,3000,3,4000,4
202,3.4,-0.023,-0.576,-0.274,-0.629,0.102,-0.013,9.735,70,0,0,1,1,1,1,59.60151,5.4591311,3000,1005,20,80,#NAME?,1000,1,2000,2,3000,3,4000,4
202.5,3.4,-0.017,-0.436,-0.544,-0.529,0.04,-0.013,9.894,70,0,0,1,1,1,1,59.60151,5.4591311,3000,1005,20,80,#NAME?,1000,1,2000,2,3000,3,4000,4
203,3.4,-0.014,-0.311,-0.705,-0.364,-0.023,0.01,10.04,70,0,0,1,1,1,1,59.60151,5.4591311,3000,1005,20,80,#NAME?,1000,1,2000,2,3000,3,4000,4
203.5,3.4,-0.018,-0.219,-0.748,-0.17,-0.055,0.034,10.116,70,0,0,1,1,1,1,59.60151,5.4591311,3000,1005,20,80,#NAME?,1000,1,2000,2,3000,3,4000,4
204,3.4,-0.025,-0.169,-0.683,0.024,-0.075,0.03,10.16,70,0,0,1,1,1,1,59.60151,5.4591311,3000,1005,20,80,#NAME?,1000,1,2000,2,3000,3,4000,4
204.5,3.4,-0.036,-0.163,-0.532,0.19,-0.065,0.007,10.134,70,0,0,1,1,1,1,59.60151,5.4591311,3000,1005,20,80,#NAME?,1000,1,2000,2,3000,3,4000,4
205,3.4,-0.047,-0.198,-0.33,0.308,-0.045,-0.018,10.082,70,0,0,1,1,1,1,59.60151,5.4591311,3000,1005,20,80,#NAME?,1000,1,2000,2,3000,3,4000,4
205.5,3.4,-0.055,-0.263,-0.11,0.364,0.002,-0.04,9.973,70,0,0,1,1,1,1,59.60151,5.4591311,3000,1005,20,80,#NAME?,1000,1,2000,2,3000,3,4000,4
206,3.4,-0.061,-0.347,0.089,0.351,0.058,-0.023,9.85,70,0,0,1,1,1,1,59.60151,5.4591311,3000,1005,20,80,#NAME?,1000,1,2000,2,3000,3,4000,4
206.5,3.4,-0.067,-0.431,0.236,0.272,0.12,-0.003,9.71,70,0,0,1,1,1,1,59.60151,5.4591311,3000,1005,20,80,#NAME?,1000,1,2000,2,3000,3,4000,4
207,3.5,-0.077,-0.502,0.309,0.139,0.174,0.025,9.591,70,0,0,1,1,1,1,59.60151,5.4591311,3000,1005,20,80,#NAME?,1000,1,2000,2,3000,3,4000,4
207.5,3.5,-0.095,-0.546,0.298,-0.018,0.209,0.064,9.509,70,0,0,1,1,1,1,59.60151,5.4591311,3000,1005,20,80,#NAME?,1000,1,2000,2,3000,3,4000,4
208,3.5,-0.124,-0.55,0.209,-0.178,0.22,0.08,9.481,70,0,0,1,1,1,1,59.60151,5.4591311,3000,1005,20,80,#NAME?,1000,1,2000,2,3000,3,4000,4
208.5,3.5,-0.168,-0.517,0.063,-0.302,0.203,0.08,9.522,70,0,0,1,1,1,1,59.60151,5.4591311,3000,1005,20,80,#NAME?,1000,1,2000,2,3000,3,4000,4
209,3.5,-0.219,-0.45,-0.107,-0.368,0.16,0.04,9.621,70,0,0,1,1,1,1,59.60151,5.4591311,3000,1005,20,80,#NAME?,1000,1,2000,2,3000,3,4000,4
209.5,3.5,-0.276,-0.363,-0.264,-0.354,0.096,-0.025,9.773,70,0,0,1,1,1,1,59.60151,5.4591311,3000,1005,20,80,#NAME?,1000,1,2000,2,3000,3,4000,4
210,3.5,-0.334,-0.272,-0.369,-0.266,0.029,-0.097,9.935,70,0,0,1,1,1,1,59.60151,5.4591311,3000,1005,20,80,#NAME?,1000,1,2000,2,3000,3,4000,4
210.5,3.5,-0.389,-0.197,-0.395,-0.106,-0.041,-0.144,10.098,70,0,0,1,1,1,1,59.60151,5.4591311,3000,1005,20,80,#NAME?,1000,1,2000,2,3000,3,4000,4
211,3.5,-0.43,-0.153,-0.327,0.088,-0.081,-0.149,10.198,70,0,0,1,1,1,1,59.60151,5.4591311,3000,1005,20,80,#NAME?,1000,1,2000,2,3000,3,4000,4
211.5,3.5,-0.456,-0.15,-0.172,0.29,-0.111,-0.165,10.265,70,0,0,1,1,1,1,59.60151,5.4591311,3000,1005,20,80,#NAME?,1000,1,2000,2,3000,3,4000,4
212,3.5,-0.461,-0.196,0.053,0.46,-0.09,-0.164,10.232,70,0,0,1,1,1,1,59.60151,5.4591311,3000,1005,20,80,#NAME?,1000,1,2000,2,3000,3,4000,4
212.5,3.5,-0.449,-0.282,0.309,0.568,-0.063,-0.163,10.158,70,0,0,1,1,1,1,59.60151,5.4591311,3000,1005,20,80,#NAME?,1000,1,2000,2,3000,3,4000,4
213,3.6,-0.418,-0.402,0.557,0.599,0.001,-0.166,10.015,70,0,0,1,1,1,1,59.60151,5.4591311,3000,1005,20,80,#NAME?,1000,1,2000,2,3000,3,4000,4
213.5,3.6,-0.374,-0.538,0.754,0.541,0.069,-0.122,9.854,70,0,0,1,1,1,1,59.60151,5.4591311,3000,1005,20,80,#NAME?,1000,1,2000,2,3000,3,4000,4
214,3.6,-0.32,-0.677,0.867,0.41,0.131,-0.058,9.683,70,0,0,1,1,1,1,59.60151,5.4591311,3000,1005,20,80,#NAME?,1000,1,2000,2,3000,3,4000,4
214.5,3.6,-0.259,-0.796,0.873,0.211,0.186,-0.014,9.523,70,0,0,1,1,1,1,59.60151,5.4591311,3000,1005,20,80,#NAME?,1000,1,2000,2,3000,3,4000,4
