Time(s),Time(m),"Roll (deg, +ve R)","Pitch (deg, +ve UP)",Heave (m),Heave Velocity (m/s),AX (m/s^2),AY (m/s^2),AZ (m/s^2),Vessel heading (degT),SOG (knots),COG (M deg),STATUS_MRU (1=OK),STATUS_GYRO (1=OK),STATUS_WIND (1=OK),STATUS_GPS (SOG_VOG) (1=OK),GPS Lat,GPS Lon,Visibility,Air Pressure,Air Temperature,Air Humidity,WX code,Cloud layer 1 altitude,Cloud layer 1 oct,Cloud layer 1 altitude,Cloud layer 1 oct,Cloud layer 1 altitude,Cloud layer 1 oct,Cloud layer 1 altitude,Cloud layer 1 oct
0,0,-0.0565,-0.0625,0.414,0.424,-0.02,-0.058,5.047,330.17,0,0,1,1,1,1,59.60151,5.4591311,3000,1005,20,80,+SHRA,1000,1,2000,2,3000,3,4000,4
0.5,0,-0.0265,-0.1355,0.5805,0.414,-0.0065,-0.094,5.007,330.07,0,0,1,1,1,1,59.60151,5.4591311,3000,1005,20,80,+SHRA,1000,1,2000,2,3000,3,4000,4
1,0,0.0155,-0.217,0.7035,0.376,0.017,-0.1115,4.955,330.07,0,0,1,1,1,1,59.60151,5.4591311,3000,1005,20,80,+SHRA,1000,1,2000,2,3000,3,4000,4
1.5,0,0.0675,-0.3045,0.775,0.3145,0.04,-0.112,4.9005,329.97,0,0,1,1,1,1,59.60151,5.4591311,3000,1005,20,80,+SHRA,1000,1,2000,2,3000,3,4000,4
2,0,0.126,-0.392,0.79,0.2245,0.0735,-0.092,4.828,329.97,0,0,1,1,1,1,59.60151,5.4591311,3000,1005,20,80,+SHRA,1000,1,2000,2,3000,3,4000,4
2.5,0,0.189,-0.4725,0.744,0.112,0.1035,-0.054,4.7575,329.97,0,0,1,1,1,1,59.60151,5.4591311,3000,1005,20,80,+SHRA,1000,1,2000,2,3000,3,4000,4
3,0.1,0.247,-0.5395,0.6355,-0.0235,0.1375,-0.012,4.6705,329.97,0,0,1,1,1,1,59.60151,5.4591311,3000,1005,20,80,+SHRA,1000,1,2000,2,3000,3,4000,4
3.5,0.1,0.297,-0.584,0.4655,-0.1735,0.158,0.028,4.6065,330.07,0,0,1,1,1,1,59.60151,5.4591311,3000,1005,20,80,+SHRA,1000,1,2000,2,3000,3,4000,4
4,0.1,0.3335,-0.598,0.242,-0.3255,0.1745,0.0735,4.5555,330.07,0,0,1,1,1,1,59.60151,5.4591311,3000,1005,20,80,+SHRA,1000,1,2000,2,3000,3,4000,4
4.5,0.1,0.352,-0.574,-0.0215,-0.463,0.1745,0.1155,4.5475,330.27,0,0,1,1,1,1,59.60151,5.4591311,3000,1005,20,80,+SHRA,1000,1,2000,2,3000,3,4000,4
5,0.1,0.349,-0.513,-0.3035,-0.5635,0.1575,0.169,4.582,330.27,0,0,1,1,1,1,59.60151,5.4591311,3000,1005,20,80,+SHRA,1000,1,2000,2,3000,3,4000,4
5.5,0.1,0.3235,-0.4175,-0.5755,-0.6115,0.117,0.2005,4.67,330.37,0,0,1,1,1,1,59.60151,5.4591311,3000,1005,20,80,+SHRA,1000,1,2000,2,3000,3,4000,4
6,0.1,0.2745,-0.2965,-0.8065,-0.589,0.064,0.218,4.795,330.37,0,0,1,1,1,1,59.60151,5.4591311,3000,1005,20,80,+SHRA,1000,1,2000,2,3000,3,4000,4
6.5,0.1,0.2075,-0.1625,-0.966,-0.498,0.005,0.192,4.9475,330.37,0,0,1,1,1,1,59.60151,5.4591311,3000,1005,20,80,+SHRA,1000,1,2000,2,3000,3,4000,4
7,0.1,0.1275,-0.03,-1.0285,-0.334,-0.0555,0.1385,5.1125,330.37,0,0,1,1,1,1,59.60151,5.4591311,3000,1005,20,80,+SHRA,1000,1,2000,2,3000,3,4000,4
7.5,0.1,0.0465,0.0835,-0.979,-0.126,-0.0945,0.067,5.236,330.37,0,0,1,1,1,1,59.60151,5.4591311,3000,1005,20,80,+SHRA,1000,1,2000,2,3000,3,4000,4
8,0.1,-0.024,0.167,-0.8185,0.1065,-0.129,-0.0015,5.3405,330.37,0,0,1,1,1,1,59.60151,5.4591311,3000,1005,20,80,+SHRA,1000,1,2000,2,3000,3,4000,4
8.5,0.1,-0.076,0.2045,-0.561,0.3285,-0.1275,-0.0685,5.356,330.27,0,0,1,1,1,1,59.60151,5.4591311,3000,1005,20,80,+SHRA,1000,1,2000,2,3000,3,4000,4
9,0.2,-0.0995,0.196,-0.238,0.511,-0.1225,-0.1075,5.347,330.27,0,0,1,1,1,1,59.60151,5.4591311,3000,1005,20,80,+SHRA,1000,1,2000,2,3000,3,4000,4
9.5,0.2,-0.0915,0.139,0.1155,0.6355,-0.085,-0.1355,5.257,330.17,0,0,1,1,1,1,59.60151,5.4591311,3000,1005,20,80,+SHRA,1000,1,2000,2,3000,3,4000,4
10,0.2,-0.0535,0.045,0.4545,0.6775,-0.041,-0.1485,5.1365,330.17,0,0,1,1,1,1,59.60151,5.4591311,3000,1005,20,80,+SHRA,1000,1,2000,2,3000,3,4000,4
10.5,0.2,0.008,-0.079,0.741,0.645,0.0035,-0.138,4.996,329.97,0,0,1,1,1,1,59.60151,5.4591311,3000,1005,20,80,+SHRA,1000,1,2000,2,3000,3,4000,4
11,0.2,0.0865,-0.2155,0.94,0.5285,0.0615,-0.112,4.8325,329.97,0,0,1,1,1,1,59.60151,5.4591311,3000,1005,20,80,+SHRA,1000,1,2000,2,3000,3,4000,4
11.5,0.2,0.17,-0.348,1.03,0.36,0.1055,-0.087,4.701,329.97,0,0,1,1,1,1,59.60151,5.4591311,3000,1005,20,80,+SHRA,1000,1,2000,2,3000,3,4000,4
12,0.2,0.2495,-0.463,1.002,0.1465,0.1495,-0.034,4.578,329.97,0,0,1,1,1,1,59.60151,5.4591311,3000,1005,20,80,+SHRA,1000,1,2000,2,3000,3,4000,4
12.5,0.2,0.313,-0.5455,0.862,-0.0685,0.1625,0.019,4.5325,329.97,0,0,1,1,1,1,59.60151,5.4591311,3000,1005,20,80,+SHRA,1000,1,2000,2,3000,3,4000,4
13,0.2,0.3525,-0.589,0.6315,-0.273,0.182,0.0675,4.4965,329.97,0,0,1,1,1,1,59.60151,5.4591311,3000,1005,20,80,+SHRA,1000,1,2000,2,3000,3,4000,4
13.5,0.2,0.3645,-0.589,0.339,-0.4315,0.167,0.1195,4.5505,330.17,0,0,1,1,1,1,59.60151,5.4591311,3000,1005,20,80,+SHRA,1000,1,2000,2,3000,3,4000,4
14,0.2,0.3465,-0.5515,0.023,-0.5345,0.1515,0.142,4.6075,330.17,0,0,1,1,1,1,59.60151,5.4591311,3000,1005,20,80,+SHRA,1000,1,2000,2,3000,3,4000,4
14.5,0.2,0.301,-0.48,-0.282,-0.5715,0.106,0.16,4.727,330.37,0,0,1,1,1,1,59.60151,5.4591311,3000,1005,20,80,+SHRA,1000,1,2000,2,3000,3,4000,4
15,0.3,0.23,-0.386,-0.54,-0.5435,0.073,0.1725,4.829,330.37,0,0,1,1,1,1,59.60151,5.4591311,3000,1005,20,80,+SHRA,1000,1,2000,2,3000,3,4000,4
15.5,0.3,0.146,-0.28,-0.7265,-0.4545,0.0225,0.1665,4.9655,330.57,0,0,1,1,1,1,59.60151,5.4591311,3000,1005,20,80,+SHRA,1000,1,2000,2,3000,3,4000,4
16,0.3,0.0575,-0.177,-0.8215,-0.316,-0.0125,0.1485,5.068,330.57,0,0,1,1,1,1,59.60151,5.4591311,3000,1005,20,80,+SHRA,1000,1,2000,2,3000,3,4000,4
16.5,0.3,-0.0235,-0.087,-0.82,-0.1515,-0.0435,0.1105,5.1565,330.67,0,0,1,1,1,1,59.60151,5.4591311,3000,1005,20,80,+SHRA,1000,1,2000,2,3000,3,4000,4
17,0.3,-0.092,-0.0175,-0.7265,0.024,-0.059,0.0625,5.202,330.67,0,0,1,1,1,1,59.60151,5.4591311,3000,1005,20,80,+SHRA,1000,1,2000,2,3000,3,4000,4
17.5,0.3,-0.1385,0.024,-0.5585,0.1785,-0.064,-0.015,5.205,330.47,0,0,1,1,1,1,59.60151,5.4591311,3000,1005,20,80,+SHRA,1000,1,2000,2,3000,3,4000,4
18,0.3,-0.1605,0.0355,-0.34,0.3075,-0.061,-0.0825,5.1885,330.47,0,0,1,1,1,1,59.60151,5.4591311,3000,1005,20,80,+SHRA,1000,1,2000,2,3000,3,4000,4
18.5,0.3,-0.1575,0.02,-0.099,0.386,-0.0395,-0.1295,5.1205,330.47,0,0,1,1,1,1,59.60151,5.4591311,3000,1005,20,80,+SHRA,1000,1,2000,2,3000,3,4000,4
19,0.3,-0.1295,-0.0185,0.135,0.4225,-0.0265,-0.1655,5.064,330.47,0,0,1,1,1,1,59.60151,5.4591311,3000,1005,20,80,+SHRA,1000,1,2000,2,3000,3,4000,4
19.5,0.3,-0.0815,-0.0755,0.34,0.41,0.0055,-0.159,4.974,330.27,0,0,1,1,1,1,59.60151,5.4591311,3000,1005,20,80,+SHRA,1000,1,2000,2,3000,3,4000,4
20,0.3,-0.0225,-0.1425,0.496,0.363,0.0205,-0.126,4.92,330.27,0,0,1,1,1,1,59.60151,5.4591311,3000,1005,20,80,+SHRA,1000,1,2000,2,3000,3,4000,4
20.5,0.3,0.0425,-0.2155,0.592,0.2795,0.0575,-0.088,4.8305,330.17,0,0,1,1,1,1,59.60151,5.4591311,3000,1005,20,80,+SHRA,1000,1,2000,2,3000,3,4000,4
21,0.4,0.1035,-0.285,0.6215,0.1735,0.0805,-0.043,4.776,330.17,0,0,1,1,1,1,59.60151,5.4591311,3000,1005,20,80,+SHRA,1000,1,2000,2,3000,3,4000,4
21.5,0.4,0.155,-0.3455,0.585,0.054,0.1055,-0.012,4.7135,330.17,0,0,1,1,1,1,59.60151,5.4591311,3000,1005,20,80,+SHRA,1000,1,2000,2,3000,3,4000,4
22,0.4,0.1865,-0.391,0.4875,-0.0675,0.108,0.0245,4.695,330.17,0,0,1,1,1,1,59.60151,5.4591311,3000,1005,20,80,+SHRA,1000,1,2000,2,3000,3,4000,4
22.5,0.4,0.194,-0.419,0.3445,-0.1735,0.107,0.063,4.69,330.27,0,0,1,1,1,1,59.60151,5.4591311,3000,1005,20,80,+SHRA,1000,1,2000,2,3000,3,4000,4
23,0.4,0.1775,-0.4265,0.17,-0.2635,0.1075,0.1005,4.6985,330.27,0,0,1,1,1,1,59.60151,5.4591311,3000,1005,20,80,+SHRA,1000,1,2000,2,3000,3,4000,4
23.5,0.4,0.14,-0.4145,-0.0165,-0.3225,0.1015,0.143,4.734,330.57,0,0,1,1,1,1,59.60151,5.4591311,3000,1005,20,80,+SHRA,1000,1,2000,2,3000,3,4000,4
24,0.4,0.0865,-0.381,-0.1965,-0.3495,0.089,0.1615,4.781,330.57,0,0,1,1,1,1,59.60151,5.4591311,3000,1005,20,80,+SHRA,1000,1,2000,2,3000,3,4000,4
24.5,0.4,0.0235,-0.3325,-0.351,-0.335,0.062,0.1585,4.86,330.67,0,0,1,1,1,1,59.60151,5.4591311,3000,1005,20,80,+SHRA,1000,1,2000,2,3000,3,4000,4
25,0.4,-0.043,-0.274,-0.463,-0.2885,0.0485,0.139,4.9175,330.67,0,0,1,1,1,1,59.60151,5.4591311,3000,1005,20,80,+SHRA,1000,1,2000,2,3000,3,4000,4
25.5,0.4,-0.1055,-0.211,-0.5245,-0.2125,0.026,0.0915,4.987,330.67,0,0,1,1,1,1,59.60151,5.4591311,3000,1005,20,80,+SHRA,1000,1,2000,2,3000,3,4000,4
26,0.4,-0.1565,-0.151,-0.528,-0.116,0.0045,0.019,5.0395,330.67,0,0,1,1,1,1,59.60151,5.4591311,3000,1005,20,80,+SHRA,1000,1,2000,2,3000,3,4000,4
26.5,0.4,-0.192,-0.099,-0.476,-0.0085,-0.0215,-0.0505,5.0935,330.67,0,0,1,1,1,1,59.60151,5.4591311,3000,1005,20,80,+SHRA,1000,1,2000,2,3000,3,4000,4
27,0.5,-0.2075,-0.063,-0.374,0.0985,-0.024,-0.103,5.106,330.67,0,0,1,1,1,1,59.60151,5.4591311,3000,1005,20,80,+SHRA,1000,1,2000,2,3000,3,4000,4
27.5,0.5,-0.2,-0.0445,-0.234,0.191,-0.0305,-0.1205,5.108,330.37,0,0,1,1,1,1,59.60151,5.4591311,3000,1005,20,80,+SHRA,1000,1,2000,2,3000,3,4000,4
28,0.5,-0.1685,-0.0465,-0.0725,0.259,-0.0245,-0.124,5.0785,330.37,0,0,1,1,1,1,59.60151,5.4591311,3000,1005,20,80,+SHRA,1000,1,2000,2,3000,3,4000,4
28.5,0.5,-0.117,-0.0685,0.0905,0.2945,-0.0105,-0.113,5.033,330.17,0,0,1,1,1,1,59.60151,5.4591311,3000,1005,20,80,+SHRA,1000,1,2000,2,3000,3,4000,4
29,0.5,-0.052,-0.1035,0.2385,0.2975,0.006,-0.0965,4.9795,330.17,0,0,1,1,1,1,59.60151,5.4591311,3000,1005,20,80,+SHRA,1000,1,2000,2,3000,3,4000,4
29.5,0.5,0.019,-0.1515,0.355,0.269,0.025,-0.085,4.925,330.07,0,0,1,1,1,1,59.60151,5.4591311,3000,1005,20,80,+SHRA,1000,1,2000,2,3000,3,4000,4
30,0.5,0.088,-0.206,0.431,0.2165,0.0455,-0.0775,4.8725,330.07,0,0,1,1,1,1,59.60151,5.4591311,3000,1005,20,80,+SHRA,1000,1,2000,2,3000,3,4000,4
30.5,0.5,0.1465,-0.261,0.461,0.1465,0.0655,-0.043,4.8295,329.97,0,0,1,1,1,1,59.60151,5.4591311,3000,1005,20,80,+SHRA,1000,1,2000,2,3000,3,4000,4
31,0.5,0.1905,-0.3115,0.4455,0.0705,0.0715,0.007,4.8045,329.97,0,0,1,1,1,1,59.60151,5.4591311,3000,1005,20,80,+SHRA,1000,1,2000,2,3000,3,4000,4
31.5,0.5,0.2115,-0.3525,0.389,-0.009,0.084,0.0485,4.778,330.17,0,0,1,1,1,1,59.60151,5.4591311,3000,1005,20,80,+SHRA,1000,1,2000,2,3000,3,4000,4
32,0.5,0.2085,-0.3835,0.2995,-0.084,0.0915,0.0895,4.7655,330.17,0,0,1,1,1,1,59.60151,5.4591311,3000,1005,20,80,+SHRA,1000,1,2000,2,3000,3,4000,4
32.5,0.5,0.182,-0.399,0.1845,-0.1505,0.0935,0.11,4.76,330.37,0,0,1,1,1,1,59.60151,5.4591311,3000,1005,20,80,+SHRA,1000,1,2000,2,3000,3,4000,4
33,0.6,0.136,-0.398,0.055,-0.2045,0.0925,0.13,4.772,330.37,0,0,1,1,1,1,59.60151,5.4591311,3000,1005,20,80,+SHRA,1000,1,2000,2,3000,3,4000,4
33.5,0.6,0.078,-0.3785,-0.077,-0.239,0.0875,0.142,4.794,330.47,0,0,1,1,1,1,59.60151,5.4591311,3000,1005,20,80,+SHRA,1000,1,2000,2,3000,3,4000,4
34,0.6,0.014,-0.344,-0.2,-0.2485,0.07,0.1375,4.8375,330.47,0,0,1,1,1,1,59.60151,5.4591311,3000,1005,20,80,+SHRA,1000,1,2000,2,3000,3,4000,4
34.5,0.6,-0.0475,-0.2975,-0.3005,-0.2325,0.0545,0.1045,4.882,330.47,0,0,1,1,1,1,59.60151,5.4591311,3000,1005,20,80,+SHRA,1000,1,2000,2,3000,3,4000,4
35,0.6,-0.101,-0.244,-0.3695,-0.1915,0.0325,0.059,4.9375,330.47,0,0,1,1,1,1,59.60151,5.4591311,3000,1005,20,80,+SHRA,1000,1,2000,2,3000,3,4000,4
35.5,0.6,-0.1415,-0.1915,-0.398,-0.1295,0.015,0.006,4.9825,330.37,0,0,1,1,1,1,59.60151,5.4591311,3000,1005,20,80,+SHRA,1000,1,2000,2,3000,3,4000,4
36,0.6,-0.165,-0.1435,-0.385,-0.0545,-0.0045,-0.047,5.025,330.37,0,0,1,1,1,1,59.60151,5.4591311,3000,1005,20,80,+SHRA,1000,1,2000,2,3000,3,4000,4
36.5,0.6,-0.1685,-0.108,-0.3315,0.027,-0.0185,-0.075,5.053,330.17,0,0,1,1,1,1,59.60151,5.4591311,3000,1005,20,80,+SHRA,1000,1,2000,2,3000,3,4000,4
37,0.6,-0.1585,-0.0865,-0.244,0.102,-0.0235,-0.095,5.061,330.17,0,0,1,1,1,1,59.60151,5.4591311,3000,1005,20,80,+SHRA,1000,1,2000,2,3000,3,4000,4
37.5,0.6,-0.136,-0.0815,-0.1325,0.166,-0.0185,-0.107,5.054,329.97,0,0,1,1,1,1,59.60151,5.4591311,3000,1005,20,80,+SHRA,1000,1,2000,2,3000,3,4000,4
38,0.6,-0.106,-0.093,-0.01,0.208,-0.005,-0.0945,5.025,329.97,0,0,1,1,1,1,59.60151,5.4591311,3000,1005,20,80,+SHRA,1000,1,2000,2,3000,3,4000,4
38.5,0.6,-0.077,-0.1205,0.1085,0.223,0.0115,-0.0795,4.984,329.77,0,0,1,1,1,1,59.60151,5.4591311,3000,1005,20,80,+SHRA,1000,1,2000,2,3000,3,4000,4
39,0.7,-0.0535,-0.158,0.208,0.206,0.0395,-0.076,4.9175,329.77,0,0,1,1,1,1,59.60151,5.4591311,3000,1005,20,80,+SHRA,1000,1,2000,2,3000,3,4000,4
39.5,0.7,-0.041,-0.2015,0.2745,0.1585,0.0575,-0.0595,4.8545,329.77,0,0,1,1,1,1,59.60151,5.4591311,3000,1005,20,80,+SHRA,1000,1,2000,2,3000,3,4000,4
40,0.7,-0.042,-0.243,0.299,0.0835,0.081,-0.0305,4.787,329.77,0,0,1,1,1,1,59.60151,5.4591311,3000,1005,20,80,+SHRA,1000,1,2000,2,3000,3,4000,4
40.5,0.7,-0.0545,-0.2755,0.276,-0.0065,0.1005,-0.005,4.7405,329.87,0,0,1,1,1,1,59.60151,5.4591311,3000,1005,20,80,+SHRA,1000,1,2000,2,3000,3,4000,4
41,0.7,-0.0745,-0.2955,0.2105,-0.096,0.103,0.0245,4.724,329.87,0,0,1,1,1,1,59.60151,5.4591311,3000,1005,20,80,+SHRA,1000,1,2000,2,3000,3,4000,4
41.5,0.7,-0.0965,-0.2985,0.1125,-0.1695,0.095,0.0375,4.7425,329.97,0,0,1,1,1,1,59.60151,5.4591311,3000,1005,20,80,+SHRA,1000,1,2000,2,3000,3,4000,4
42,0.7,-0.117,-0.2845,-0.0005,-0.214,0.0785,0.049,4.7865,329.97,0,0,1,1,1,1,59.60151,5.4591311,3000,1005,20,80,+SHRA,1000,1,2000,2,3000,3,4000,4
42.5,0.7,-0.128,-0.258,-0.1085,-0.218,0.05,0.033,4.8615,329.97,0,0,1,1,1,1,59.60151,5.4591311,3000,1005,20,80,+SHRA,1000,1,2000,2,3000,3,4000,4
43,0.7,-0.13,-0.226,-0.1915,-0.18,0.017,-0.002,4.951,329.97,0,0,1,1,1,1,59.60151,5.4591311,3000,1005,20,80,+SHRA,1000,1,2000,2,3000,3,4000,4
43.5,0.7,-0.123,-0.1935,-0.2325,-0.1035,-0.007,-0.0355,5.0255,329.97,0,0,1,1,1,1,59.60151,5.4591311,3000,1005,20,80,+SHRA,1000,1,2000,2,3000,3,4000,4
44,0.7,-0.105,-0.1685,-0.223,-0.0045,-0.0365,-0.0355,5.1065,329.97,0,0,1,1,1,1,59.60151,5.4591311,3000,1005,20,80,+SHRA,1000,1,2000,2,3000,3,4000,4
44.5,0.7,-0.082,-0.158,-0.161,0.109,-0.039,-0.0275,5.1405,329.77,0,0,1,1,1,1,59.60151,5.4591311,3000,1005,20,80,+SHRA,1000,1,2000,2,3000,3,4000,4
45,0.8,-0.0575,-0.1645,-0.0565,0.2065,-0.033,-0.027,5.1485,329.77,0,0,1,1,1,1,59.60151,5.4591311,3000,1005,20,80,+SHRA,1000,1,2000,2,3000,3,4000,4
45.5,0.8,-0.0315,-0.1915,0.079,0.2965,-0.0305,-0.0205,5.1475,329.67,0,0,1,1,1,1,59.60151,5.4591311,3000,1005,20,80,+SHRA,1000,1,2000,2,3000,3,4000,4
46,0.8,-0.005,-0.2375,0.224,0.336,0.0055,-0.0265,5.064,329.67,0,0,1,1,1,1,59.60151,5.4591311,3000,1005,20,80,+SHRA,1000,1,2000,2,3000,3,4000,4
46.5,0.8,0.022,-0.2965,0.3535,0.3325,0.032,-0.001,4.98,329.57,0,0,1,1,1,1,59.60151,5.4591311,3000,1005,20,80,+SHRA,1000,1,2000,2,3000,3,4000,4
47,0.8,0.054,-0.3595,0.441,0.2575,0.086,0.001,4.8205,329.57,0,0,1,1,1,1,59.60151,5.4591311,3000,1005,20,80,+SHRA,1000,1,2000,2,3000,3,4000,4
47.5,0.8,0.0875,-0.414,0.4615,0.1335,0.1095,0.001,4.719,329.57,0,0,1,1,1,1,59.60151,5.4591311,3000,1005,20,80,+SHRA,1000,1,2000,2,3000,3,4000,4
48,0.8,0.1255,-0.452,0.4045,-0.0325,0.155,-0.001,4.583,329.57,0,0,1,1,1,1,59.60151,5.4591311,3000,1005,20,80,+SHRA,1000,1,2000,2,3000,3,4000,4
48.5,0.8,0.165,-0.459,0.2685,-0.2075,0.155,-0.0015,4.5485,329.57,0,0,1,1,1,1,59.60151,5.4591311,3000,1005,20,80,+SHRA,1000,1,2000,2,3000,3,4000,4
49,0.8,0.205,-0.4335,0.069,-0.3695,0.165,0.015,4.5135,329.57,0,0,1,1,1,1,59.60151,5.4591311,3000,1005,20,80,+SHRA,1000,1,2000,2,3000,3,4000,4
49.5,0.8,0.2445,-0.372,-0.171,-0.494,0.136,0.022,4.574,329.57,0,0,1,1,1,1,59.60151,5.4591311,3000,1005,20,80,+SHRA,1000,1,2000,2,3000,3,4000,4
50,0.8,0.28,-0.2825,-0.416,-0.551,0.0975,0.06,4.664,329.57,0,0,1,1,1,1,59.60151,5.4591311,3000,1005,20,80,+SHRA,1000,1,2000,2,3000,3,4000,4
50.5,0.8,0.31,-0.1745,-0.6315,-0.54,0.047,0.094,4.809,329.57,0,0,1,1,1,1,59.60151,5.4591311,3000,1005,20,80,+SHRA,1000,1,2000,2,3000,3,4000,4
51,0.9,0.332,-0.0615,-0.78,-0.441,-0.003,0.126,4.971,329.57,0,0,1,1,1,1,59.60151,5.4591311,3000,1005,20,80,+SHRA,1000,1,2000,2,3000,3,4000,4
51.5,0.9,0.3455,0.04,-0.8355,-0.2825,-0.0525,0.1475,5.1255,329.47,0,0,1,1,1,1,59.60151,5.4591311,3000,1005,20,80,+SHRA,1000,1,2000,2,3000,3,4000,4
52,0.9,0.35,0.1145,-0.7815,-0.0665,-0.101,0.126,5.2685,329.47,0,0,1,1,1,1,59.60151,5.4591311,3000,1005,20,80,+SHRA,1000,1,2000,2,3000,3,4000,4
52.5,0.9,0.3425,0.1525,-0.6205,0.158,-0.114,0.1045,5.336,329.37,0,0,1,1,1,1,59.60151,5.4591311,3000,1005,20,80,+SHRA,1000,1,2000,2,3000,3,4000,4
53,0.9,0.3255,0.1465,-0.3695,0.3735,-0.1195,0.088,5.3675,329.37,0,0,1,1,1,1,59.60151,5.4591311,3000,1005,20,80,+SHRA,1000,1,2000,2,3000,3,4000,4
53.5,0.9,0.302,0.096,-0.06,0.536,-0.0915,0.0605,5.3105,329.27,0,0,1,1,1,1,59.60151,5.4591311,3000,1005,20,80,+SHRA,1000,1,2000,2,3000,3,4000,4
54,0.9,0.2715,0.0075,0.2685,0.6425,-0.0685,0.0205,5.247,329.27,0,0,1,1,1,1,59.60151,5.4591311,3000,1005,20,80,+SHRA,1000,1,2000,2,3000,3,4000,4
54.5,0.9,0.235,-0.1125,0.5775,0.668,-0.012,-0.01,5.1055,329.07,0,0,1,1,1,1,59.60151,5.4591311,3000,1005,20,80,+SHRA,1000,1,2000,2,3000,3,4000,4
55,0.9,0.1975,-0.2485,0.8285,0.622,0.021,-0.0405,4.9895,329.07,0,0,1,1,1,1,59.60151,5.4591311,3000,1005,20,80,+SHRA,1000,1,2000,2,3000,3,4000,4
55.5,0.9,0.1585,-0.3875,0.993,0.5045,0.079,-0.062,4.8235,329.07,0,0,1,1,1,1,59.60151,5.4591311,3000,1005,20,80,+SHRA,1000,1,2000,2,3000,3,4000,4
56,0.9,0.12,-0.513,1.05,0.33,0.12,-0.064,4.7015,329.07,0,0,1,1,1,1,59.60151,5.4591311,3000,1005,20,80,+SHRA,1000,1,2000,2,3000,3,4000,4
56.5,0.9,0.083,-0.61,0.9945,0.1205,0.163,-0.055,4.574,329.17,0,0,1,1,1,1,59.60151,5.4591311,3000,1005,20,80,+SHRA,1000,1,2000,2,3000,3,4000,4
57,1,0.048,-0.6685,0.8285,-0.107,0.1835,-0.0325,4.5025,329.17,0,0,1,1,1,1,59.60151,5.4591311,3000,1005,20,80,+SHRA,1000,1,2000,2,3000,3,4000,4
57.5,1,0.016,-0.6805,0.5705,-0.3225,0.1955,-0.006,4.46,329.27,0,0,1,1,1,1,59.60151,5.4591311,3000,1005,20,80,+SHRA,1000,1,2000,2,3000,3,4000,4
58,1,-0.0135,-0.6455,0.2455,-0.51,0.1915,0.047,4.4705,329.27,0,0,1,1,1,1,59.60151,5.4591311,3000,1005,20,80,+SHRA,1000,1,2000,2,3000,3,4000,4
58.5,1,-0.04,-0.565,-0.11,-0.6375,0.168,0.0935,4.536,329.37,0,0,1,1,1,1,59.60151,5.4591311,3000,1005,20,80,+SHRA,1000,1,2000,2,3000,3,4000,4
59,1,-0.0615,-0.4485,-0.458,-0.701,0.134,0.1345,4.6345,329.37,0,0,1,1,1,1,59.60151,5.4591311,3000,1005,20,80,+SHRA,1000,1,2000,2,3000,3,4000,4
59.5,1,-0.0805,-0.3095,-0.7595,-0.681,0.0785,0.1255,4.778,329.37,0,0,1,1,1,1,59.60151,5.4591311,3000,1005,20,80,+SHRA,1000,1,2000,2,3000,3,4000,4
60,1,-0.0995,-0.161,-0.982,-0.5955,0.03,0.0815,4.909,329.37,0,0,1,1,1,1,59.60151,5.4591311,3000,1005,20,80,+SHRA,1000,1,2000,2,3000,3,4000,4
60.5,1,-0.12,-0.0195,-1.102,-0.44,-0.0305,0.0425,5.0685,329.27,0,0,1,1,1,1,59.60151,5.4591311,3000,1005,20,80,+SHRA,1000,1,2000,2,3000,3,4000,4
61,1,-0.141,0.0985,-1.1045,-0.2405,-0.075,-0.01,5.182,329.27,0,0,1,1,1,1,59.60151,5.4591311,3000,1005,20,80,+SHRA,1000,1,2000,2,3000,3,4000,4
61.5,1,-0.1615,0.183,-0.99,-0.0115,-0.1245,-0.0935,5.298,329.07,0,0,1,1,1,1,59.60151,5.4591311,3000,1005,20,80,+SHRA,1000,1,2000,2,3000,3,4000,4
62,1,-0.177,0.221,-0.7705,0.212,-0.1255,-0.128,5.32,329.07,0,0,1,1,1,1,59.60151,5.4591311,3000,1005,20,80,+SHRA,1000,1,2000,2,3000,3,4000,4
62.5,1,-0.184,0.214,-0.4725,0.413,-0.143,-0.1495,5.3525,329.07,0,0,1,1,1,1,59.60151,5.4591311,3000,1005,20,80,+SHRA,1000,1,2000,2,3000,3,4000,4
63,1.1,-0.18,0.1595,-0.1265,0.5615,-0.1045,-0.16,5.2735,329.07,0,0,1,1,1,1,59.60151,5.4591311,3000,1005,20,80,+SHRA,1000,1,2000,2,3000,3,4000,4
63.5,1.1,-0.1615,0.0685,0.225,0.647,-0.0785,-0.1585,5.212,328.87,0,0,1,1,1,1,59.60151,5.4591311,3000,1005,20,80,+SHRA,1000,1,2000,2,3000,3,4000,4
64,1.1,-0.128,-0.0535,0.548,0.6635,-0.0175,-0.1425,5.0785,328.87,0,0,1,1,1,1,59.60151,5.4591311,3000,1005,20,80,+SHRA,1000,1,2000,2,3000,3,4000,4
64.5,1.1,-0.081,-0.189,0.806,0.6065,0.0325,-0.0995,4.9665,328.77,0,0,1,1,1,1,59.60151,5.4591311,3000,1005,20,80,+SHRA,1000,1,2000,2,3000,3,4000,4
65,1.1,-0.0215,-0.3265,0.9765,0.4935,0.089,-0.0435,4.827,328.77,0,0,1,1,1,1,59.60151,5.4591311,3000,1005,20,80,+SHRA,1000,1,2000,2,3000,3,4000,4
65.5,1.1,0.0435,-0.4505,1.0415,0.325,0.134,0.025,4.708,328.97,0,0,1,1,1,1,59.60151,5.4591311,3000,1005,20,80,+SHRA,1000,1,2000,2,3000,3,4000,4
66,1.1,0.114,-0.5475,0.998,0.1345,0.164,0.0775,4.617,328.97,0,0,1,1,1,1,59.60151,5.4591311,3000,1005,20,80,+SHRA,1000,1,2000,2,3000,3,4000,4
66.5,1.1,0.1805,-0.6095,0.8525,-0.0715,0.1835,0.115,4.5505,329.07,0,0,1,1,1,1,59.60151,5.4591311,3000,1005,20,80,+SHRA,1000,1,2000,2,3000,3,4000,4
67,1.1,0.241,-0.631,0.625,-0.2515,0.1735,0.127,4.5525,329.07,0,0,1,1,1,1,59.60151,5.4591311,3000,1005,20,80,+SHRA,1000,1,2000,2,3000,3,4000,4
67.5,1.1,0.2915,-0.6125,0.3425,-0.4045,0.166,0.1235,4.559,329.07,0,0,1,1,1,1,59.60151,5.4591311,3000,1005,20,80,+SHRA,1000,1,2000,2,3000,3,4000,4
68,1.1,0.325,-0.557,0.037,-0.5015,0.128,0.1215,4.6375,329.07,0,0,1,1,1,1,59.60151,5.4591311,3000,1005,20,80,+SHRA,1000,1,2000,2,3000,3,4000,4
68.5,1.1,0.342,-0.4735,-0.2595,-0.5505,0.1075,0.1095,4.69,329.07,0,0,1,1,1,1,59.60151,5.4591311,3000,1005,20,80,+SHRA,1000,1,2000,2,3000,3,4000,4
69,1.2,0.34,-0.371,-0.52,-0.5435,0.0625,0.095,4.7975,329.07,0,0,1,1,1,1,59.60151,5.4591311,3000,1005,20,80,+SHRA,1000,1,2000,2,3000,3,4000,4
69.5,1.2,0.325,-0.2595,-0.7205,-0.491,0.042,0.0805,4.865,328.97,0,0,1,1,1,1,59.60151,5.4591311,3000,1005,20,80,+SHRA,1000,1,2000,2,3000,3,4000,4
70,1.2,0.299,-0.149,-0.8495,-0.399,0.008,0.0775,4.9665,328.97,0,0,1,1,1,1,59.60151,5.4591311,3000,1005,20,80,+SHRA,1000,1,2000,2,3000,3,4000,4
70.5,1.2,0.2685,-0.0475,-0.8955,-0.2745,-0.013,0.068,5.0335,328.97,0,0,1,1,1,1,59.60151,5.4591311,3000,1005,20,80,+SHRA,1000,1,2000,2,3000,3,4000,4
71,1.2,0.241,0.0335,-0.8595,-0.129,-0.047,0.06,5.1235,328.97,0,0,1,1,1,1,59.60151,5.4591311,3000,1005,20,80,+SHRA,1000,1,2000,2,3000,3,4000,4
71.5,1.2,0.217,0.0895,-0.743,0.0325,-0.0635,0.0335,5.1775,328.77,0,0,1,1,1,1,59.60151,5.4591311,3000,1005,20,80,+SHRA,1000,1,2000,2,3000,3,4000,4
72,1.2,0.2035,0.115,-0.559,0.1875,-0.0775,0.017,5.216,328.77,0,0,1,1,1,1,59.60151,5.4591311,3000,1005,20,80,+SHRA,1000,1,2000,2,3000,3,4000,4
72.5,1.2,0.1965,0.1075,-0.3225,0.331,-0.0805,-0.0035,5.225,328.67,0,0,1,1,1,1,59.60151,5.4591311,3000,1005,20,80,+SHRA,1000,1,2000,2,3000,3,4000,4
73,1.2,0.195,0.0685,-0.0565,0.4385,-0.0645,-0.009,5.1945,328.67,0,0,1,1,1,1,59.60151,5.4591311,3000,1005,20,80,+SHRA,1000,1,2000,2,3000,3,4000,4
73.5,1.2,0.1935,0,0.215,0.51,-0.05,-0.0045,5.1565,328.57,0,0,1,1,1,1,59.60151,5.4591311,3000,1005,20,80,+SHRA,1000,1,2000,2,3000,3,4000,4
74,1.2,0.184,-0.09,0.4655,0.5285,-0.011,-0.0145,5.0685,328.57,0,0,1,1,1,1,59.60151,5.4591311,3000,1005,20,80,+SHRA,1000,1,2000,2,3000,3,4000,4
74.5,1.2,0.1645,-0.192,0.6715,0.5025,0.0165,-0.008,4.995,328.57,0,0,1,1,1,1,59.60151,5.4591311,3000,1005,20,80,+SHRA,1000,1,2000,2,3000,3,4000,4
75,1.3,0.131,-0.302,0.814,0.425,0.062,-0.0035,4.8815,328.57,0,0,1,1,1,1,59.60151,5.4591311,3000,1005,20,80,+SHRA,1000,1,2000,2,3000,3,4000,4
75.5,1.3,0.0825,-0.4065,0.8785,0.3075,0.091,0.0095,4.7965,328.57,0,0,1,1,1,1,59.60151,5.4591311,3000,1005,20,80,+SHRA,1000,1,2000,2,3000,3,4000,4
76,1.3,0.0245,-0.497,0.8585,0.1585,0.127,0.004,4.6945,328.57,0,0,1,1,1,1,59.60151,5.4591311,3000,1005,20,80,+SHRA,1000,1,2000,2,3000,3,4000,4
76.5,1.3,-0.039,-0.564,0.7535,-0.0115,0.149,-0.0025,4.6225,328.67,0,0,1,1,1,1,59.60151,5.4591311,3000,1005,20,80,+SHRA,1000,1,2000,2,3000,3,4000,4
77,1.3,-0.102,-0.6,0.5715,-0.187,0.169,0.002,4.559,328.67,0,0,1,1,1,1,59.60151,5.4591311,3000,1005,20,80,+SHRA,1000,1,2000,2,3000,3,4000,4
77.5,1.3,-0.1575,-0.599,0.3265,-0.353,0.1675,0.0085,4.5395,328.77,0,0,1,1,1,1,59.60151,5.4591311,3000,1005,20,80,+SHRA,1000,1,2000,2,3000,3,4000,4
78,1.3,-0.204,-0.559,0.041,-0.49,0.1605,0.032,4.548,328.77,0,0,1,1,1,1,59.60151,5.4591311,3000,1005,20,80,+SHRA,1000,1,2000,2,3000,3,4000,4
78.5,1.3,-0.234,-0.4815,-0.259,-0.583,0.135,0.0475,4.605,328.77,0,0,1,1,1,1,59.60151,5.4591311,3000,1005,20,80,+SHRA,1000,1,2000,2,3000,3,4000,4
79,1.3,-0.2515,-0.374,-0.541,-0.612,0.092,0.036,4.7095,328.77,0,0,1,1,1,1,59.60151,5.4591311,3000,1005,20,80,+SHRA,1000,1,2000,2,3000,3,4000,4
79.5,1.3,-0.2575,-0.2475,-0.772,-0.573,0.0475,0.019,4.839,328.77,0,0,1,1,1,1,59.60151,5.4591311,3000,1005,20,80,+SHRA,1000,1,2000,2,3000,3,4000,4
80,1.3,-0.2515,-0.115,-0.924,-0.4635,-0.0025,-0.005,4.985,328.77,0,0,1,1,1,1,59.60151,5.4591311,3000,1005,20,80,+SHRA,1000,1,2000,2,3000,3,4000,4
80.5,1.3,-0.2405,0.006,-0.977,-0.304,-0.0385,-0.0305,5.1035,328.57,0,0,1,1,1,1,59.60151,5.4591311,3000,1005,20,80,+SHRA,1000,1,2000,2,3000,3,4000,4
81,1.4,-0.226,0.1065,-0.925,-0.109,-0.0725,-0.0695,5.21,328.57,0,0,1,1,1,1,59.60151,5.4591311,3000,1005,20,80,+SHRA,1000,1,2000,2,3000,3,4000,4
81.5,1.4,-0.2095,0.172,-0.7735,0.091,-0.0885,-0.089,5.2635,328.37,0,0,1,1,1,1,59.60151,5.4591311,3000,1005,20,80,+SHRA,1000,1,2000,2,3000,3,4000,4
82,1.4,-0.1905,0.1985,-0.541,0.2805,-0.0965,-0.114,5.2925,328.37,0,0,1,1,1,1,59.60151,5.4591311,3000,1005,20,80,+SHRA,1000,1,2000,2,3000,3,4000,4
82.5,1.4,-0.167,0.182,-0.2525,0.437,-0.088,-0.1335,5.272,328.37,0,0,1,1,1,1,59.60151,5.4591311,3000,1005,20,80,+SHRA,1000,1,2000,2,3000,3,4000,4
83,1.4,-0.1405,0.126,0.061,0.55,-0.072,-0.141,5.2315,328.37,0,0,1,1,1,1,59.60151,5.4591311,3000,1005,20,80,+SHRA,1000,1,2000,2,3000,3,4000,4
83.5,1.4,-0.105,0.034,0.37,0.6105,-0.0495,-0.1305,5.1605,328.27,0,0,1,1,1,1,59.60151,5.4591311,3000,1005,20,80,+SHRA,1000,1,2000,2,3000,3,4000,4
84,1.4,-0.0605,-0.0845,0.644,0.6135,-0.021,-0.1095,5.074,328.27,0,0,1,1,1,1,59.60151,5.4591311,3000,1005,20,80,+SHRA,1000,1,2000,2,3000,3,4000,4
84.5,1.4,-0.0055,-0.219,0.858,0.561,0.0195,-0.0775,4.963,328.17,0,0,1,1,1,1,59.60151,5.4591311,3000,1005,20,80,+SHRA,1000,1,2000,2,3000,3,4000,4
85,1.4,0.058,-0.357,0.9915,0.4535,0.0605,-0.023,4.846,328.17,0,0,1,1,1,1,59.60151,5.4591311,3000,1005,20,80,+SHRA,1000,1,2000,2,3000,3,4000,4
85.5,1.4,0.1285,-0.4845,1.0305,0.3015,0.102,0.023,4.7315,328.27,0,0,1,1,1,1,59.60151,5.4591311,3000,1005,20,80,+SHRA,1000,1,2000,2,3000,3,4000,4
86,1.4,0.198,-0.5895,0.969,0.117,0.139,0.078,4.631,328.27,0,0,1,1,1,1,59.60151,5.4591311,3000,1005,20,80,+SHRA,1000,1,2000,2,3000,3,4000,4
86.5,1.4,0.2635,-0.6595,0.8125,-0.0815,0.1705,0.1245,4.554,328.37,0,0,1,1,1,1,59.60151,5.4591311,3000,1005,20,80,+SHRA,1000,1,2000,2,3000,3,4000,4
87,1.5,0.32,-0.687,0.574,-0.278,0.1885,0.151,4.5085,328.37,0,0,1,1,1,1,59.60151,5.4591311,3000,1005,20,80,+SHRA,1000,1,2000,2,3000,3,4000,4
87.5,1.5,0.3625,-0.669,0.2745,-0.449,0.187,0.175,4.5065,328.37,0,0,1,1,1,1,59.60151,5.4591311,3000,1005,20,80,+SHRA,1000,1,2000,2,3000,3,4000,4
88,1.5,0.39,-0.6055,-0.058,-0.583,0.1785,0.189,4.5345,328.37,0,0,1,1,1,1,59.60151,5.4591311,3000,1005,20,80,+SHRA,1000,1,2000,2,3000,3,4000,4
88.5,1.5,0.3995,-0.5035,-0.3915,-0.658,0.146,0.1685,4.615,328.37,0,0,1,1,1,1,59.60151,5.4591311,3000,1005,20,80,+SHRA,1000,1,2000,2,3000,3,4000,4
89,1.5,0.3915,-0.3715,-0.6915,-0.669,0.101,0.1505,4.724,328.37,0,0,1,1,1,1,59.60151,5.4591311,3000,1005,20,80,+SHRA,1000,1,2000,2,3000,3,4000,4
89.5,1.5,0.3645,-0.223,-0.9265,-0.605,0.0425,0.1055,4.8705,328.37,0,0,1,1,1,1,59.60151,5.4591311,3000,1005,20,80,+SHRA,1000,1,2000,2,3000,3,4000,4
90,1.5,0.321,-0.074,-1.0685,-0.4755,-0.0135,0.0685,5.0115,328.37,0,0,1,1,1,1,59.60151,5.4591311,3000,1005,20,80,+SHRA,1000,1,2000,2,3000,3,4000,4
90.5,1.5,0.2675,0.0595,-1.1015,-0.2925,-0.065,0.0275,5.149,328.17,0,0,1,1,1,1,59.60151,5.4591311,3000,1005,20,80,+SHRA,1000,1,2000,2,3000,3,4000,4
91,1.5,0.209,0.1625,-1.019,-0.079,-0.098,-0.008,5.241,328.17,0,0,1,1,1,1,59.60151,5.4591311,3000,1005,20,80,+SHRA,1000,1,2000,2,3000,3,4000,4
91.5,1.5,0.152,0.227,-0.833,0.1375,-0.1215,-0.018,5.306,328.17,0,0,1,1,1,1,59.60151,5.4591311,3000,1005,20,80,+SHRA,1000,1,2000,2,3000,3,4000,4
92,1.5,0.102,0.245,-0.563,0.338,-0.1205,-0.04,5.317,328.17,0,0,1,1,1,1,59.60151,5.4591311,3000,1005,20,80,+SHRA,1000,1,2000,2,3000,3,4000,4
92.5,1.5,0.0615,0.2175,-0.2395,0.4955,-0.1115,-0.0265,5.2895,327.97,0,0,1,1,1,1,59.60151,5.4591311,3000,1005,20,80,+SHRA,1000,1,2000,2,3000,3,4000,4
93,1.6,0.032,0.145,0.103,0.602,-0.0865,-0.024,5.226,327.97,0,0,1,1,1,1,59.60151,5.4591311,3000,1005,20,80,+SHRA,1000,1,2000,2,3000,3,4000,4
93.5,1.6,0.0115,0.038,0.429,0.6405,-0.0435,-0.03,5.1235,327.87,0,0,1,1,1,1,59.60151,5.4591311,3000,1005,20,80,+SHRA,1000,1,2000,2,3000,3,4000,4
94,1.6,-0.002,-0.0935,0.705,0.614,0.0045,-0.019,5.006,327.87,0,0,1,1,1,1,59.60151,5.4591311,3000,1005,20,80,+SHRA,1000,1,2000,2,3000,3,4000,4
94.5,1.6,-0.012,-0.2345,0.903,0.5205,0.0555,-0.021,4.8725,327.97,0,0,1,1,1,1,59.60151,5.4591311,3000,1005,20,80,+SHRA,1000,1,2000,2,3000,3,4000,4
95,1.6,-0.0245,-0.37,1.0035,0.3775,0.098,-0.026,4.7595,327.97,0,0,1,1,1,1,59.60151,5.4591311,3000,1005,20,80,+SHRA,1000,1,2000,2,3000,3,4000,4
95.5,1.6,-0.0435,-0.488,0.999,0.196,0.1435,-0.021,4.6475,327.97,0,0,1,1,1,1,59.60151,5.4591311,3000,1005,20,80,+SHRA,1000,1,2000,2,3000,3,4000,4
96,1.6,-0.072,-0.574,0.892,0.0025,0.1645,-0.0205,4.59,327.97,0,0,1,1,1,1,59.60151,5.4591311,3000,1005,20,80,+SHRA,1000,1,2000,2,3000,3,4000,4
96.5,1.6,-0.113,-0.6215,0.6985,-0.1825,0.175,-0.0225,4.5555,328.07,0,0,1,1,1,1,59.60151,5.4591311,3000,1005,20,80,+SHRA,1000,1,2000,2,3000,3,4000,4
97,1.6,-0.1635,-0.6255,0.442,-0.3385,0.164,-0.024,4.5795,328.07,0,0,1,1,1,1,59.60151,5.4591311,3000,1005,20,80,+SHRA,1000,1,2000,2,3000,3,4000,4
97.5,1.6,-0.219,-0.5905,0.1535,-0.451,0.1505,-0.009,4.6155,328.17,0,0,1,1,1,1,59.60151,5.4591311,3000,1005,20,80,+SHRA,1000,1,2000,2,3000,3,4000,4
98,1.6,-0.2775,-0.5185,-0.1375,-0.5135,0.1175,-0.006,4.692,328.17,0,0,1,1,1,1,59.60151,5.4591311,3000,1005,20,80,+SHRA,1000,1,2000,2,3000,3,4000,4
98.5,1.6,-0.331,-0.42,-0.401,-0.521,0.0855,-0.015,4.7755,328.27,0,0,1,1,1,1,59.60151,5.4591311,3000,1005,20,80,+SHRA,1000,1,2000,2,3000,3,4000,4
99,1.7,-0.376,-0.3055,-0.6125,-0.478,0.048,-0.019,4.875,328.27,0,0,1,1,1,1,59.60151,5.4591311,3000,1005,20,80,+SHRA,1000,1,2000,2,3000,3,4000,4
99.5,1.7,-0.406,-0.1865,-0.7535,-0.388,0.0155,-0.0275,4.9645,328.17,0,0,1,1,1,1,59.60151,5.4591311,3000,1005,20,80,+SHRA,1000,1,2000,2,3000,3,4000,4
100,1.7,-0.4195,-0.0765,-0.814,-0.269,-0.0185,-0.0425,5.044,328.17,0,0,1,1,1,1,59.60151,5.4591311,3000,1005,20,80,+SHRA,1000,1,2000,2,3000,3,4000,4
100.5,1.7,-0.4145,0.0145,-0.7935,-0.128,-0.042,-0.0645,5.107,328.07,0,0,1,1,1,1,59.60151,5.4591311,3000,1005,20,80,+SHRA,1000,1,2000,2,3000,3,4000,4
101,1.7,-0.3895,0.079,-0.6975,0.0145,-0.0605,-0.0835,5.145,328.07,0,0,1,1,1,1,59.60151,5.4591311,3000,1005,20,80,+SHRA,1000,1,2000,2,3000,3,4000,4
101.5,1.7,-0.347,0.111,-0.539,0.152,-0.0695,-0.099,5.168,327.87,0,0,1,1,1,1,59.60151,5.4591311,3000,1005,20,80,+SHRA,1000,1,2000,2,3000,3,4000,4
102,1.7,-0.286,0.109,-0.336,0.268,-0.066,-0.1135,5.158,327.87,0,0,1,1,1,1,59.60151,5.4591311,3000,1005,20,80,+SHRA,1000,1,2000,2,3000,3,4000,4
102.5,1.7,-0.2125,0.076,-0.109,0.3575,-0.0605,-0.1175,5.141,327.87,0,0,1,1,1,1,59.60151,5.4591311,3000,1005,20,80,+SHRA,1000,1,2000,2,3000,3,4000,4
103,1.7,-0.1305,0.0145,0.1205,0.41,-0.0365,-0.1075,5.0915,327.87,0,0,1,1,1,1,59.60151,5.4591311,3000,1005,20,80,+SHRA,1000,1,2000,2,3000,3,4000,4
103.5,1.7,-0.046,-0.067,0.331,0.4255,-0.0145,-0.079,5.0415,327.77,0,0,1,1,1,1,59.60151,5.4591311,3000,1005,20,80,+SHRA,1000,1,2000,2,3000,3,4000,4
104,1.7,0.0355,-0.161,0.5055,0.403,0.0185,-0.0515,4.9675,327.77,0,0,1,1,1,1,59.60151,5.4591311,3000,1005,20,80,+SHRA,1000,1,2000,2,3000,3,4000,4
104.5,1.7,0.108,-0.2595,0.6285,0.343,0.047,-0.024,4.8985,327.77,0,0,1,1,1,1,59.60151,5.4591311,3000,1005,20,80,+SHRA,1000,1,2000,2,3000,3,4000,4
105,1.8,0.167,-0.352,0.6885,0.2505,0.0835,0.0155,4.812,327.77,0,0,1,1,1,1,59.60151,5.4591311,3000,1005,20,80,+SHRA,1000,1,2000,2,3000,3,4000,4
105.5,1.8,0.211,-0.429,0.68,0.1305,0.1105,0.051,4.741,327.87,0,0,1,1,1,1,59.60151,5.4591311,3000,1005,20,80,+SHRA,1000,1,2000,2,3000,3,4000,4
106,1.8,0.2375,-0.4835,0.6035,-0.0025,0.1335,0.089,4.6815,327.87,0,0,1,1,1,1,59.60151,5.4591311,3000,1005,20,80,+SHRA,1000,1,2000,2,3000,3,4000,4
106.5,1.8,0.25,-0.5095,0.4655,-0.1385,0.1435,0.1095,4.6475,327.87,0,0,1,1,1,1,59.60151,5.4591311,3000,1005,20,80,+SHRA,1000,1,2000,2,3000,3,4000,4
107,1.8,0.253,-0.5045,0.2805,-0.258,0.141,0.1165,4.6435,327.87,0,0,1,1,1,1,59.60151,5.4591311,3000,1005,20,80,+SHRA,1000,1,2000,2,3000,3,4000,4
107.5,1.8,0.2495,-0.4715,0.0675,-0.3525,0.1275,0.107,4.665,327.97,0,0,1,1,1,1,59.60151,5.4591311,3000,1005,20,80,+SHRA,1000,1,2000,2,3000,3,4000,4
108,1.8,0.2445,-0.4135,-0.1505,-0.4065,0.102,0.0925,4.719,327.97,0,0,1,1,1,1,59.60151,5.4591311,3000,1005,20,80,+SHRA,1000,1,2000,2,3000,3,4000,4
108.5,1.8,0.236,-0.3375,-0.3515,-0.42,0.0745,0.078,4.785,327.97,0,0,1,1,1,1,59.60151,5.4591311,3000,1005,20,80,+SHRA,1000,1,2000,2,3000,3,4000,4
109,1.8,0.2245,-0.2505,-0.514,-0.388,0.041,0.076,4.872,327.97,0,0,1,1,1,1,59.60151,5.4591311,3000,1005,20,80,+SHRA,1000,1,2000,2,3000,3,4000,4
109.5,1.8,0.2065,-0.162,-0.6215,-0.3175,0.0165,0.0595,4.9475,327.97,0,0,1,1,1,1,59.60151,5.4591311,3000,1005,20,80,+SHRA,1000,1,2000,2,3000,3,4000,4
110,1.8,0.1805,-0.0805,-0.664,-0.2155,-0.013,0.0475,5.027,327.97,0,0,1,1,1,1,59.60151,5.4591311,3000,1005,20,80,+SHRA,1000,1,2000,2,3000,3,4000,4
110.5,1.8,0.145,-0.0145,-0.638,-0.0945,-0.032,0.043,5.0835,327.87,0,0,1,1,1,1,59.60151,5.4591311,3000,1005,20,80,+SHRA,1000,1,2000,2,3000,3,4000,4
111,1.9,0.1025,0.0315,-0.5475,0.037,-0.05,0.0255,5.1385,327.87,0,0,1,1,1,1,59.60151,5.4591311,3000,1005,20,80,+SHRA,1000,1,2000,2,3000,3,4000,4
111.5,1.9,0.0555,0.051,-0.401,0.1655,-0.058,0,5.1625,327.87,0,0,1,1,1,1,59.60151,5.4591311,3000,1005,20,80,+SHRA,1000,1,2000,2,3000,3,4000,4
112,1.9,0.007,0.0435,-0.2125,0.278,-0.0585,-0.014,5.168,327.87,0,0,1,1,1,1,59.60151,5.4591311,3000,1005,20,80,+SHRA,1000,1,2000,2,3000,3,4000,4
112.5,1.9,-0.039,0.009,-0.0015,0.3635,-0.0455,-0.0245,5.137,327.87,0,0,1,1,1,1,59.60151,5.4591311,3000,1005,20,80,+SHRA,1000,1,2000,2,3000,3,4000,4
113,1.9,-0.081,-0.0465,0.2105,0.41,-0.027,-0.037,5.0885,327.87,0,0,1,1,1,1,59.60151,5.4591311,3000,1005,20,80,+SHRA,1000,1,2000,2,3000,3,4000,4
113.5,1.9,-0.1175,-0.1205,0.401,0.415,0.0025,-0.043,5.0125,327.77,0,0,1,1,1,1,59.60151,5.4591311,3000,1005,20,80,+SHRA,1000,1,2000,2,3000,3,4000,4
114,1.9,-0.1485,-0.2045,0.549,0.371,0.0365,-0.051,4.924,327.77,0,0,1,1,1,1,59.60151,5.4591311,3000,1005,20,80,+SHRA,1000,1,2000,2,3000,3,4000,4
114.5,1.9,-0.1735,-0.2885,0.6385,0.2885,0.0685,-0.0645,4.836,327.77,0,0,1,1,1,1,59.60151,5.4591311,3000,1005,20,80,+SHRA,1000,1,2000,2,3000,3,4000,4
115,1.9,-0.195,-0.3625,0.659,0.1725,0.096,-0.073,4.753,327.77,0,0,1,1,1,1,59.60151,5.4591311,3000,1005,20,80,+SHRA,1000,1,2000,2,3000,3,4000,4
115.5,1.9,-0.2145,-0.42,0.6085,0.042,0.1115,-0.0755,4.7,327.77,0,0,1,1,1,1,59.60151,5.4591311,3000,1005,20,80,+SHRA,1000,1,2000,2,3000,3,4000,4
116,1.9,-0.235,-0.4555,0.495,-0.091,0.121,-0.0685,4.665,327.77,0,0,1,1,1,1,59.60151,5.4591311,3000,1005,20,80,+SHRA,1000,1,2000,2,3000,3,4000,4
116.5,1.9,-0.2565,-0.467,0.3315,-0.206,0.113,-0.048,4.67,327.77,0,0,1,1,1,1,59.60151,5.4591311,3000,1005,20,80,+SHRA,1000,1,2000,2,3000,3,4000,4
117,2,-0.2805,-0.455,0.138,-0.2985,0.1095,-0.033,4.6845,327.77,0,0,1,1,1,1,59.60151,5.4591311,3000,1005,20,80,+SHRA,1000,1,2000,2,3000,3,4000,4
117.5,2,-0.305,-0.4195,-0.0645,-0.355,0.0915,-0.0195,4.736,327.97,0,0,1,1,1,1,59.60151,5.4591311,3000,1005,20,80,+SHRA,1000,1,2000,2,3000,3,4000,4
118,2,-0.3275,-0.367,-0.2545,-0.3725,0.0785,-0.018,4.79,327.97,0,0,1,1,1,1,59.60151,5.4591311,3000,1005,20,80,+SHRA,1000,1,2000,2,3000,3,4000,4
118.5,2,-0.343,-0.302,-0.413,-0.3515,0.0565,-0.0095,4.8635,327.97,0,0,1,1,1,1,59.60151,5.4591311,3000,1005,20,80,+SHRA,1000,1,2000,2,3000,3,4000,4
119,2,-0.351,-0.2325,-0.5245,-0.2965,0.0365,-0.016,4.93,327.97,0,0,1,1,1,1,59.60151,5.4591311,3000,1005,20,80,+SHRA,1000,1,2000,2,3000,3,4000,4
119.5,2,-0.3485,-0.1635,-0.58,-0.213,0.013,-0.0555,4.9995,328.07,0,0,1,1,1,1,59.60151,5.4591311,3000,1005,20,80,+SHRA,1000,1,2000,2,3000,3,4000,4
120,2,-0.3355,-0.104,-0.576,-0.113,-0.0015,-0.0695,5.041,328.07,0,0,1,1,1,1,59.60151,5.4591311,3000,1005,20,80,+SHRA,1000,1,2000,2,3000,3,4000,4
120.5,2,-0.3075,-0.0565,-0.5165,-0.0095,-0.016,-0.095,5.0745,327.97,0,0,1,1,1,1,59.60151,5.4591311,3000,1005,20,80,+SHRA,1000,1,2000,2,3000,3,4000,4
121,2,-0.2695,-0.026,-0.41,0.089,-0.0265,-0.089,5.0865,327.97,0,0,1,1,1,1,59.60151,5.4591311,3000,1005,20,80,+SHRA,1000,1,2000,2,3000,3,4000,4
121.5,2,-0.222,-0.013,-0.271,0.171,-0.028,-0.0785,5.0795,327.87,0,0,1,1,1,1,59.60151,5.4591311,3000,1005,20,80,+SHRA,1000,1,2000,2,3000,3,4000,4
122,2,-0.1675,-0.017,-0.114,0.2335,-0.025,-0.0735,5.0615,327.87,0,0,1,1,1,1,59.60151,5.4591311,3000,1005,20,80,+SHRA,1000,1,2000,2,3000,3,4000,4
122.5,2,-0.106,-0.0395,0.045,0.2685,-0.0165,-0.061,5.028,327.87,0,0,1,1,1,1,59.60151,5.4591311,3000,1005,20,80,+SHRA,1000,1,2000,2,3000,3,4000,4
123,2.1,-0.045,-0.0755,0.192,0.2805,-0.0055,-0.0395,4.994,327.87,0,0,1,1,1,1,59.60151,5.4591311,3000,1005,20,80,+SHRA,1000,1,2000,2,3000,3,4000,4
123.5,2.1,0.015,-0.1215,0.314,0.2625,0.016,-0.0185,4.9375,327.77,0,0,1,1,1,1,59.60151,5.4591311,3000,1005,20,80,+SHRA,1000,1,2000,2,3000,3,4000,4
124,2.1,0.0725,-0.1735,0.4,0.2235,0.029,0.009,4.9005,327.77,0,0,1,1,1,1,59.60151,5.4591311,3000,1005,20,80,+SHRA,1000,1,2000,2,3000,3,4000,4
124.5,2.1,0.125,-0.2265,0.4455,0.166,0.05,0.028,4.8515,327.77,0,0,1,1,1,1,59.60151,5.4591311,3000,1005,20,80,+SHRA,1000,1,2000,2,3000,3,4000,4
125,2.1,0.1715,-0.2745,0.4485,0.0985,0.06,0.0595,4.826,327.77,0,0,1,1,1,1,59.60151,5.4591311,3000,1005,20,80,+SHRA,1000,1,2000,2,3000,3,4000,4
125.5,2.1,0.21,-0.3145,0.4125,0.0275,0.075,0.086,4.7995,327.87,0,0,1,1,1,1,59.60151,5.4591311,3000,1005,20,80,+SHRA,1000,1,2000,2,3000,3,4000,4
126,2.1,0.239,-0.3445,0.3425,-0.04,0.0825,0.0965,4.7945,327.87,0,0,1,1,1,1,59.60151,5.4591311,3000,1005,20,80,+SHRA,1000,1,2000,2,3000,3,4000,4
126.5,2.1,0.26,-0.3615,0.2485,-0.0975,0.087,0.1025,4.7915,327.87,0,0,1,1,1,1,59.60151,5.4591311,3000,1005,20,80,+SHRA,1000,1,2000,2,3000,3,4000,4
127,2.1,0.269,-0.3645,0.1395,-0.1455,0.0855,0.095,4.801,327.87,0,0,1,1,1,1,59.60151,5.4591311,3000,1005,20,80,+SHRA,1000,1,2000,2,3000,3,4000,4
127.5,2.1,0.2705,-0.355,0.026,-0.1745,0.0795,0.074,4.82,327.87,0,0,1,1,1,1,59.60151,5.4591311,3000,1005,20,80,+SHRA,1000,1,2000,2,3000,3,4000,4
128,2.1,0.265,-0.334,-0.082,-0.19,0.074,0.054,4.8375,327.87,0,0,1,1,1,1,59.60151,5.4591311,3000,1005,20,80,+SHRA,1000,1,2000,2,3000,3,4000,4
128.5,2.1,0.2485,-0.3055,-0.1765,-0.1855,0.0575,0.041,4.8765,327.87,0,0,1,1,1,1,59.60151,5.4591311,3000,1005,20,80,+SHRA,1000,1,2000,2,3000,3,4000,4
129,2.2,0.222,-0.2725,-0.2485,-0.166,0.046,0.0125,4.9025,327.87,0,0,1,1,1,1,59.60151,5.4591311,3000,1005,20,80,+SHRA,1000,1,2000,2,3000,3,4000,4
129.5,2.2,0.186,-0.2355,-0.2945,-0.1325,0.0335,0.015,4.9325,327.77,0,0,1,1,1,1,59.60151,5.4591311,3000,1005,20,80,+SHRA,1000,1,2000,2,3000,3,4000,4
130,2.2,0.14,-0.2025,-0.3125,-0.0935,0.028,-0.002,4.943,327.77,0,0,1,1,1,1,59.60151,5.4591311,3000,1005,20,80,+SHRA,1000,1,2000,2,3000,3,4000,4
130.5,2.2,0.083,-0.1725,-0.3045,-0.0515,0.0155,-0.0035,4.9635,327.77,0,0,1,1,1,1,59.60151,5.4591311,3000,1005,20,80,+SHRA,1000,1,2000,2,3000,3,4000,4
131,2.2,0.0175,-0.1475,-0.274,-0.0125,0.0145,-0.0065,4.959,327.77,0,0,1,1,1,1,59.60151,5.4591311,3000,1005,20,80,+SHRA,1000,1,2000,2,3000,3,4000,4
131.5,2.2,-0.0545,-0.126,-0.227,0.0215,0.0115,0.0005,4.9625,327.87,0,0,1,1,1,1,59.60151,5.4591311,3000,1005,20,80,+SHRA,1000,1,2000,2,3000,3,4000,4
132,2.2,-0.129,-0.11,-0.1685,0.0525,0.005,0.0025,4.965,327.87,0,0,1,1,1,1,59.60151,5.4591311,3000,1005,20,80,+SHRA,1000,1,2000,2,3000,3,4000,4
132.5,2.2,-0.2025,-0.101,-0.1015,0.0815,0.001,-0.003,4.978,327.97,0,0,1,1,1,1,59.60151,5.4591311,3000,1005,20,80,+SHRA,1000,1,2000,2,3000,3,4000,4
133,2.2,-0.2685,-0.0995,-0.029,0.1125,-0.003,-0.0015,4.9905,327.97,0,0,1,1,1,1,59.60151,5.4591311,3000,1005,20,80,+SHRA,1000,1,2000,2,3000,3,4000,4
133.5,2.2,-0.324,-0.108,0.0475,0.1395,-0.003,-0.034,4.9985,328.07,0,0,1,1,1,1,59.60151,5.4591311,3000,1005,20,80,+SHRA,1000,1,2000,2,3000,3,4000,4
134,2.2,-0.363,-0.1265,0.125,0.164,0.0015,-0.0695,4.9955,328.07,0,0,1,1,1,1,59.60151,5.4591311,3000,1005,20,80,+SHRA,1000,1,2000,2,3000,3,4000,4
134.5,2.2,-0.386,-0.157,0.198,0.1745,0.011,-0.0855,4.976,328.07,0,0,1,1,1,1,59.60151,5.4591311,3000,1005,20,80,+SHRA,1000,1,2000,2,3000,3,4000,4
135,2.3,-0.3925,-0.195,0.259,0.171,0.021,-0.1115,4.9485,328.07,0,0,1,1,1,1,59.60151,5.4591311,3000,1005,20,80,+SHRA,1000,1,2000,2,3000,3,4000,4
135.5,2.3,-0.385,-0.2395,0.3005,0.143,0.0425,-0.1225,4.8955,327.97,0,0,1,1,1,1,59.60151,5.4591311,3000,1005,20,80,+SHRA,1000,1,2000,2,3000,3,4000,4
136,2.3,-0.368,-0.2835,0.314,0.096,0.0565,-0.125,4.85,327.97,0,0,1,1,1,1,59.60151,5.4591311,3000,1005,20,80,+SHRA,1000,1,2000,2,3000,3,4000,4
136.5,2.3,-0.3465,-0.322,0.2935,0.0275,0.077,-0.1305,4.793,327.87,0,0,1,1,1,1,59.60151,5.4591311,3000,1005,20,80,+SHRA,1000,1,2000,2,3000,3,4000,4
137,2.3,-0.323,-0.348,0.2375,-0.05,0.09,-0.0995,4.76,327.87,0,0,1,1,1,1,59.60151,5.4591311,3000,1005,20,80,+SHRA,1000,1,2000,2,3000,3,4000,4
137.5,2.3,-0.301,-0.3605,0.1485,-0.1325,0.1045,-0.058,4.723,327.87,0,0,1,1,1,1,59.60151,5.4591311,3000,1005,20,80,+SHRA,1000,1,2000,2,3000,3,4000,4
138,2.3,-0.284,-0.353,0.032,-0.208,0.104,-0.012,4.724,327.87,0,0,1,1,1,1,59.60151,5.4591311,3000,1005,20,80,+SHRA,1000,1,2000,2,3000,3,4000,4
138.5,2.3,-0.2695,-0.326,-0.0985,-0.265,0.1025,0.0085,4.7355,327.97,0,0,1,1,1,1,59.60151,5.4591311,3000,1005,20,80,+SHRA,1000,1,2000,2,3000,3,4000,4
139,2.3,-0.258,-0.281,-0.23,-0.293,0.0805,0.023,4.7905,327.97,0,0,1,1,1,1,59.60151,5.4591311,3000,1005,20,80,+SHRA,1000,1,2000,2,3000,3,4000,4
139.5,2.3,-0.246,-0.222,-0.3425,-0.2815,0.0565,0.0125,4.858,328.07,0,0,1,1,1,1,59.60151,5.4591311,3000,1005,20,80,+SHRA,1000,1,2000,2,3000,3,4000,4
140,2.3,-0.2335,-0.157,-0.4195,-0.2315,0.0235,-0.025,4.9445,328.07,0,0,1,1,1,1,59.60151,5.4591311,3000,1005,20,80,+SHRA,1000,1,2000,2,3000,3,4000,4
140.5,2.3,-0.2165,-0.095,-0.447,-0.145,-0.0055,-0.045,5.0235,328.07,0,0,1,1,1,1,59.60151,5.4591311,3000,1005,20,80,+SHRA,1000,1,2000,2,3000,3,4000,4
141,2.4,-0.194,-0.0435,-0.418,-0.035,-0.0335,-0.0555,5.096,328.07,0,0,1,1,1,1,59.60151,5.4591311,3000,1005,20,80,+SHRA,1000,1,2000,2,3000,3,4000,4
141.5,2.4,-0.164,-0.0105,-0.332,0.087,-0.052,-0.0765,5.1445,328.07,0,0,1,1,1,1,59.60151,5.4591311,3000,1005,20,80,+SHRA,1000,1,2000,2,3000,3,4000,4
142,2.4,-0.126,-0.001,-0.1975,0.204,-0.0585,-0.0865,5.1635,328.07,0,0,1,1,1,1,59.60151,5.4591311,3000,1005,20,80,+SHRA,1000,1,2000,2,3000,3,4000,4
142.5,2.4,-0.0815,-0.017,-0.0285,0.3025,-0.06,-0.0855,5.1565,328.07,0,0,1,1,1,1,59.60151,5.4591311,3000,1005,20,80,+SHRA,1000,1,2000,2,3000,3,4000,4
143,2.4,-0.03,-0.0575,0.1555,0.3675,-0.0435,-0.072,5.114,328.07,0,0,1,1,1,1,59.60151,5.4591311,3000,1005,20,80,+SHRA,1000,1,2000,2,3000,3,4000,4
143.5,2.4,0.024,-0.12,0.3315,0.393,-0.02,-0.059,5.051,327.97,0,0,1,1,1,1,59.60151,5.4591311,3000,1005,20,80,+SHRA,1000,1,2000,2,3000,3,4000,4
144,2.4,0.077,-0.1975,0.4785,0.371,0.012,-0.0365,4.9635,327.97,0,0,1,1,1,1,59.60151,5.4591311,3000,1005,20,80,+SHRA,1000,1,2000,2,3000,3,4000,4
144.5,2.4,0.125,-0.2805,0.577,0.3065,0.0405,-0.002,4.878,328.07,0,0,1,1,1,1,59.60151,5.4591311,3000,1005,20,80,+SHRA,1000,1,2000,2,3000,3,4000,4
145,2.4,0.165,-0.36,0.6135,0.203,0.078,0.0305,4.7795,328.07,0,0,1,1,1,1,59.60151,5.4591311,3000,1005,20,80,+SHRA,1000,1,2000,2,3000,3,4000,4
145.5,2.4,0.1955,-0.4265,0.5805,0.071,0.1085,0.0675,4.7,328.17,0,0,1,1,1,1,59.60151,5.4591311,3000,1005,20,80,+SHRA,1000,1,2000,2,3000,3,4000,4
146,2.4,0.2165,-0.4705,0.478,-0.075,0.1335,0.1185,4.634,328.17,0,0,1,1,1,1,59.60151,5.4591311,3000,1005,20,80,+SHRA,1000,1,2000,2,3000,3,4000,4
146.5,2.4,0.2265,-0.4865,0.315,-0.218,0.142,0.142,4.6105,328.27,0,0,1,1,1,1,59.60151,5.4591311,3000,1005,20,80,+SHRA,1000,1,2000,2,3000,3,4000,4
147,2.5,0.226,-0.471,0.1085,-0.341,0.1445,0.162,4.611,328.27,0,0,1,1,1,1,59.60151,5.4591311,3000,1005,20,80,+SHRA,1000,1,2000,2,3000,3,4000,4
147.5,2.5,0.2155,-0.4245,-0.12,-0.4295,0.1335,0.147,4.6505,328.37,0,0,1,1,1,1,59.60151,5.4591311,3000,1005,20,80,+SHRA,1000,1,2000,2,3000,3,4000,4
148,2.5,0.1975,-0.352,-0.344,-0.4685,0.103,0.0945,4.7275,328.37,0,0,1,1,1,1,59.60151,5.4591311,3000,1005,20,80,+SHRA,1000,1,2000,2,3000,3,4000,4
148.5,2.5,0.1685,-0.2605,-0.5375,-0.458,0.0715,0.0515,4.815,328.37,0,0,1,1,1,1,59.60151,5.4591311,3000,1005,20,80,+SHRA,1000,1,2000,2,3000,3,4000,4
149,2.5,0.1305,-0.16,-0.678,-0.393,0.028,0.004,4.926,328.37,0,0,1,1,1,1,59.60151,5.4591311,3000,1005,20,80,+SHRA,1000,1,2000,2,3000,3,4000,4
149.5,2.5,0.085,-0.0635,-0.747,-0.284,-0.0085,-0.0395,5.0225,328.27,0,0,1,1,1,1,59.60151,5.4591311,3000,1005,20,80,+SHRA,1000,1,2000,2,3000,3,4000,4
150,2.5,0.032,0.018,-0.736,-0.14,-0.0515,-0.054,5.1245,328.27,0,0,1,1,1,1,59.60151,5.4591311,3000,1005,20,80,+SHRA,1000,1,2000,2,3000,3,4000,4
150.5,2.5,-0.025,0.075,-0.643,0.0225,-0.079,-0.0595,5.1895,328.27,0,0,1,1,1,1,59.60151,5.4591311,3000,1005,20,80,+SHRA,1000,1,2000,2,3000,3,4000,4
151,2.5,-0.0815,0.1005,-0.4785,0.183,-0.091,-0.0585,5.223,328.27,0,0,1,1,1,1,59.60151,5.4591311,3000,1005,20,80,+SHRA,1000,1,2000,2,3000,3,4000,4
151.5,2.5,-0.134,0.0895,-0.26,0.319,-0.086,-0.066,5.209,328.27,0,0,1,1,1,1,59.60151,5.4591311,3000,1005,20,80,+SHRA,1000,1,2000,2,3000,3,4000,4
152,2.5,-0.178,0.048,-0.015,0.415,-0.0685,-0.072,5.1655,328.27,0,0,1,1,1,1,59.60151,5.4591311,3000,1005,20,80,+SHRA,1000,1,2000,2,3000,3,4000,4
152.5,2.5,-0.2155,-0.022,0.2285,0.461,-0.0365,-0.0545,5.087,328.37,0,0,1,1,1,1,59.60151,5.4591311,3000,1005,20,80,+SHRA,1000,1,2000,2,3000,3,4000,4
153,2.6,-0.2465,-0.107,0.442,0.4525,0.0005,-0.0205,4.9985,328.37,0,0,1,1,1,1,59.60151,5.4591311,3000,1005,20,80,+SHRA,1000,1,2000,2,3000,3,4000,4
153.5,2.6,-0.273,-0.197,0.6035,0.395,0.0415,-0.001,4.8985,328.47,0,0,1,1,1,1,59.60151,5.4591311,3000,1005,20,80,+SHRA,1000,1,2000,2,3000,3,4000,4
154,2.6,-0.2965,-0.2825,0.695,0.293,0.0775,0.003,4.802,328.47,0,0,1,1,1,1,59.60151,5.4591311,3000,1005,20,80,+SHRA,1000,1,2000,2,3000,3,4000,4
154.5,2.6,-0.3175,-0.354,0.7095,0.1655,0.1025,0.0045,4.7295,328.47,0,0,1,1,1,1,59.60151,5.4591311,3000,1005,20,80,+SHRA,1000,1,2000,2,3000,3,4000,4
155,2.6,-0.337,-0.404,0.6475,0.022,0.1265,-0.0305,4.6745,328.47,0,0,1,1,1,1,59.60151,5.4591311,3000,1005,20,80,+SHRA,1000,1,2000,2,3000,3,4000,4
155.5,2.6,-0.3555,-0.4285,0.52,-0.113,0.135,-0.07,4.657,328.57,0,0,1,1,1,1,59.60151,5.4591311,3000,1005,20,80,+SHRA,1000,1,2000,2,3000,3,4000,4
156,2.6,-0.369,-0.426,0.344,-0.229,0.133,-0.1195,4.662,328.57,0,0,1,1,1,1,59.60151,5.4591311,3000,1005,20,80,+SHRA,1000,1,2000,2,3000,3,4000,4
156.5,2.6,-0.382,-0.3985,0.142,-0.3085,0.1095,-0.1495,4.711,328.57,0,0,1,1,1,1,59.60151,5.4591311,3000,1005,20,80,+SHRA,1000,1,2000,2,3000,3,4000,4
157,2.6,-0.3895,-0.352,-0.0605,-0.347,0.087,-0.15,4.768,328.57,0,0,1,1,1,1,59.60151,5.4591311,3000,1005,20,80,+SHRA,1000,1,2000,2,3000,3,4000,4
157.5,2.6,-0.391,-0.2935,-0.2405,-0.3395,0.05,-0.1355,4.855,328.57,0,0,1,1,1,1,59.60151,5.4591311,3000,1005,20,80,+SHRA,1000,1,2000,2,3000,3,4000,4
158,2.6,-0.3855,-0.2345,-0.3775,-0.292,0.0255,-0.1135,4.926,328.57,0,0,1,1,1,1,59.60151,5.4591311,3000,1005,20,80,+SHRA,1000,1,2000,2,3000,3,4000,4
158.5,2.6,-0.3735,-0.1815,-0.46,-0.2135,-0.003,-0.091,4.997,328.67,0,0,1,1,1,1,59.60151,5.4591311,3000,1005,20,80,+SHRA,1000,1,2000,2,3000,3,4000,4
159,2.7,-0.353,-0.1415,-0.4835,-0.1195,-0.017,-0.0565,5.0375,328.67,0,0,1,1,1,1,59.60151,5.4591311,3000,1005,20,80,+SHRA,1000,1,2000,2,3000,3,4000,4
159.5,2.7,-0.3235,-0.1155,-0.453,-0.0275,-0.02,-0.0345,5.0525,328.77,0,0,1,1,1,1,59.60151,5.4591311,3000,1005,20,80,+SHRA,1000,1,2000,2,3000,3,4000,4
160,2.7,-0.289,-0.107,-0.3795,0.0525,-0.0165,-0.0125,5.0455,328.77,0,0,1,1,1,1,59.60151,5.4591311,3000,1005,20,80,+SHRA,1000,1,2000,2,3000,3,4000,4
160.5,2.7,-0.2515,-0.11,-0.2795,0.1105,-0.004,0.0095,5.0185,328.87,0,0,1,1,1,1,59.60151,5.4591311,3000,1005,20,80,+SHRA,1000,1,2000,2,3000,3,4000,4
161,2.7,-0.2115,-0.123,-0.1675,0.1465,0.006,0.027,4.99,328.87,0,0,1,1,1,1,59.60151,5.4591311,3000,1005,20,80,+SHRA,1000,1,2000,2,3000,3,4000,4
161.5,2.7,-0.1735,-0.139,-0.058,0.159,0.0165,0.0355,4.959,328.97,0,0,1,1,1,1,59.60151,5.4591311,3000,1005,20,80,+SHRA,1000,1,2000,2,3000,3,4000,4
162,2.7,-0.1375,-0.156,0.039,0.1565,0.028,0.0485,4.9345,328.97,0,0,1,1,1,1,59.60151,5.4591311,3000,1005,20,80,+SHRA,1000,1,2000,2,3000,3,4000,4
162.5,2.7,-0.105,-0.1715,0.117,0.1395,0.0425,0.0385,4.906,328.97,0,0,1,1,1,1,59.60151,5.4591311,3000,1005,20,80,+SHRA,1000,1,2000,2,3000,3,4000,4
163,2.7,-0.075,-0.1825,0.172,0.114,0.044,-0.0005,4.893,328.97,0,0,1,1,1,1,59.60151,5.4591311,3000,1005,20,80,+SHRA,1000,1,2000,2,3000,3,4000,4
163.5,2.7,-0.047,-0.19,0.2035,0.0825,0.0515,-0.027,4.873,328.87,0,0,1,1,1,1,59.60151,5.4591311,3000,1005,20,80,+SHRA,1000,1,2000,2,3000,3,4000,4
164,2.7,-0.018,-0.1925,0.2125,0.0485,0.052,-0.0615,4.8665,328.87,0,0,1,1,1,1,59.60151,5.4591311,3000,1005,20,80,+SHRA,1000,1,2000,2,3000,3,4000,4
164.5,2.7,0.01,-0.1915,0.2015,0.017,0.0465,-0.078,4.864,328.87,0,0,1,1,1,1,59.60151,5.4591311,3000,1005,20,80,+SHRA,1000,1,2000,2,3000,3,4000,4
165,2.8,0.039,-0.1885,0.1755,-0.0095,0.043,-0.0855,4.8735,328.87,0,0,1,1,1,1,59.60151,5.4591311,3000,1005,20,80,+SHRA,1000,1,2000,2,3000,3,4000,4
165.5,2.8,0.0685,-0.187,0.141,-0.0245,0.0415,-0.078,4.8865,328.77,0,0,1,1,1,1,59.60151,5.4591311,3000,1005,20,80,+SHRA,1000,1,2000,2,3000,3,4000,4
166,2.8,0.094,-0.19,0.105,-0.028,0.0275,-0.0535,4.91,328.77,0,0,1,1,1,1,59.60151,5.4591311,3000,1005,20,80,+SHRA,1000,1,2000,2,3000,3,4000,4
166.5,2.8,0.1155,-0.2005,0.074,-0.022,0.021,-0.009,4.927,328.87,0,0,1,1,1,1,59.60151,5.4591311,3000,1005,20,80,+SHRA,1000,1,2000,2,3000,3,4000,4
167,2.8,0.1315,-0.2175,0.0485,-0.019,0.0325,0.0385,4.9095,328.87,0,0,1,1,1,1,59.60151,5.4591311,3000,1005,20,80,+SHRA,1000,1,2000,2,3000,3,4000,4
167.5,2.8,0.141,-0.237,0.0255,-0.0205,0.0355,0.0725,4.904,328.87,0,0,1,1,1,1,59.60151,5.4591311,3000,1005,20,80,+SHRA,1000,1,2000,2,3000,3,4000,4
168,2.8,0.145,-0.258,0.004,-0.027,0.042,0.1005,4.888,328.87,0,0,1,1,1,1,59.60151,5.4591311,3000,1005,20,80,+SHRA,1000,1,2000,2,3000,3,4000,4
168.5,2.8,0.14,-0.2755,-0.0185,-0.0365,0.045,0.1095,4.885,328.97,0,0,1,1,1,1,59.60151,5.4591311,3000,1005,20,80,+SHRA,1000,1,2000,2,3000,3,4000,4
169,2.8,0.124,-0.2865,-0.0425,-0.047,0.0545,0.096,4.874,328.97,0,0,1,1,1,1,59.60151,5.4591311,3000,1005,20,80,+SHRA,1000,1,2000,2,3000,3,4000,4
169.5,2.8,0.095,-0.29,-0.067,-0.0565,0.053,0.0955,4.8795,329.17,0,0,1,1,1,1,59.60151,5.4591311,3000,1005,20,80,+SHRA,1000,1,2000,2,3000,3,4000,4
170,2.8,0.052,-0.284,-0.09,-0.06,0.055,0.087,4.8855,329.17,0,0,1,1,1,1,59.60151,5.4591311,3000,1005,20,80,+SHRA,1000,1,2000,2,3000,3,4000,4
170.5,2.8,-0.006,-0.2695,-0.1095,-0.058,0.0495,0.0485,4.9,329.27,0,0,1,1,1,1,59.60151,5.4591311,3000,1005,20,80,+SHRA,1000,1,2000,2,3000,3,4000,4
171,2.9,-0.0765,-0.249,-0.1205,-0.046,0.0425,0.0065,4.9165,329.27,0,0,1,1,1,1,59.60151,5.4591311,3000,1005,20,80,+SHRA,1000,1,2000,2,3000,3,4000,4
171.5,2.9,-0.1555,-0.2245,-0.1215,-0.0295,0.036,-0.0375,4.9295,329.27,0,0,1,1,1,1,59.60151,5.4591311,3000,1005,20,80,+SHRA,1000,1,2000,2,3000,3,4000,4
172,2.9,-0.236,-0.199,-0.112,-0.0085,0.029,-0.0885,4.94,329.27,0,0,1,1,1,1,59.60151,5.4591311,3000,1005,20,80,+SHRA,1000,1,2000,2,3000,3,4000,4
172.5,2.9,-0.306,-0.176,-0.093,0.0085,0.0275,-0.1255,4.933,329.27,0,0,1,1,1,1,59.60151,5.4591311,3000,1005,20,80,+SHRA,1000,1,2000,2,3000,3,4000,4
173,2.9,-0.3605,-0.1545,-0.068,0.022,0.0235,-0.125,4.928,329.27,0,0,1,1,1,1,59.60151,5.4591311,3000,1005,20,80,+SHRA,1000,1,2000,2,3000,3,4000,4
173.5,2.9,-0.3935,-0.14,-0.042,0.023,0.029,-0.111,4.9055,329.27,0,0,1,1,1,1,59.60151,5.4591311,3000,1005,20,80,+SHRA,1000,1,2000,2,3000,3,4000,4
174,2.9,-0.4035,-0.127,-0.0205,0.0185,0.03,-0.0815,4.8955,329.27,0,0,1,1,1,1,59.60151,5.4591311,3000,1005,20,80,+SHRA,1000,1,2000,2,3000,3,4000,4
174.5,2.9,-0.391,-0.117,-0.006,0.004,0.038,-0.0515,4.8705,329.17,0,0,1,1,1,1,59.60151,5.4591311,3000,1005,20,80,+SHRA,1000,1,2000,2,3000,3,4000,4
175,2.9,-0.361,-0.1075,-0.001,-0.012,0.0385,-0.0195,4.87,329.17,0,0,1,1,1,1,59.60151,5.4591311,3000,1005,20,80,+SHRA,1000,1,2000,2,3000,3,4000,4
175.5,2.9,-0.3195,-0.1015,-0.0045,-0.028,0.04,-0.0045,4.8655,329.17,0,0,1,1,1,1,59.60151,5.4591311,3000,1005,20,80,+SHRA,1000,1,2000,2,3000,3,4000,4
176,2.9,-0.272,-0.095,-0.013,-0.0355,0.034,-0.0095,4.892,329.17,0,0,1,1,1,1,59.60151,5.4591311,3000,1005,20,80,+SHRA,1000,1,2000,2,3000,3,4000,4
176.5,2.9,-0.224,-0.092,-0.019,-0.0255,0.025,-0.043,4.922,329.17,0,0,1,1,1,1,59.60151,5.4591311,3000,1005,20,80,+SHRA,1000,1,2000,2,3000,3,4000,4
177,3,-0.1825,-0.096,-0.015,0.004,0.0045,-0.0915,4.9755,329.17,0,0,1,1,1,1,59.60151,5.4591311,3000,1005,20,80,+SHRA,1000,1,2000,2,3000,3,4000,4
177.5,3,-0.1495,-0.1105,0.007,0.0515,-0.0065,-0.129,5.016,329.17,0,0,1,1,1,1,59.60151,5.4591311,3000,1005,20,80,+SHRA,1000,1,2000,2,3000,3,4000,4
178,3,-0.125,-0.1375,0.05,0.106,-0.015,-0.136,5.045,329.17,0,0,1,1,1,1,59.60151,5.4591311,3000,1005,20,80,+SHRA,1000,1,2000,2,3000,3,4000,4
178.5,3,-0.109,-0.1755,0.112,0.159,-0.0095,-0.1175,5.054,329.27,0,0,1,1,1,1,59.60151,5.4591311,3000,1005,20,80,+SHRA,1000,1,2000,2,3000,3,4000,4
179,3,-0.1005,-0.2245,0.186,0.2025,-0.0035,-0.0875,5.047,329.27,0,0,1,1,1,1,59.60151,5.4591311,3000,1005,20,80,+SHRA,1000,1,2000,2,3000,3,4000,4
179.5,3,-0.0965,-0.2825,0.263,0.2275,0.011,-0.0305,5.02,329.37,0,0,1,1,1,1,59.60151,5.4591311,3000,1005,20,80,+SHRA,1000,1,2000,2,3000,3,4000,4
180,3,-0.0975,-0.345,0.33,0.222,0.039,0.008,4.9615,329.37,0,0,1,1,1,1,59.60151,5.4591311,3000,1005,20,80,+SHRA,1000,1,2000,2,3000,3,4000,4
180.5,3,-0.1005,-0.405,0.3715,0.183,0.063,0.0325,4.8905,329.47,0,0,1,1,1,1,59.60151,5.4591311,3000,1005,20,80,+SHRA,1000,1,2000,2,3000,3,4000,4
181,3,-0.105,-0.454,0.375,0.108,0.096,0.0615,4.8035,329.47,0,0,1,1,1,1,59.60151,5.4591311,3000,1005,20,80,+SHRA,1000,1,2000,2,3000,3,4000,4
181.5,3,-0.109,-0.486,0.3305,0.0065,0.1125,0.069,4.7305,329.67,0,0,1,1,1,1,59.60151,5.4591311,3000,1005,20,80,+SHRA,1000,1,2000,2,3000,3,4000,4
182,3,-0.109,-0.491,0.235,-0.1155,0.132,0.0655,4.657,329.67,0,0,1,1,1,1,59.60151,5.4591311,3000,1005,20,80,+SHRA,1000,1,2000,2,3000,3,4000,4
182.5,3,-0.103,-0.467,0.0905,-0.2435,0.132,0.066,4.6165,329.77,0,0,1,1,1,1,59.60151,5.4591311,3000,1005,20,80,+SHRA,1000,1,2000,2,3000,3,4000,4
183,3.1,-0.0915,-0.4115,-0.0925,-0.36,0.129,0.07,4.605,329.77,0,0,1,1,1,1,59.60151,5.4591311,3000,1005,20,80,+SHRA,1000,1,2000,2,3000,3,4000,4
183.5,3.1,-0.074,-0.326,-0.2955,-0.446,0.1105,0.054,4.6395,329.77,0,0,1,1,1,1,59.60151,5.4591311,3000,1005,20,80,+SHRA,1000,1,2000,2,3000,3,4000,4
184,3.1,-0.048,-0.217,-0.4945,-0.484,0.0795,0.0395,4.7145,329.77,0,0,1,1,1,1,59.60151,5.4591311,3000,1005,20,80,+SHRA,1000,1,2000,2,3000,3,4000,4
184.5,3.1,-0.0165,-0.097,-0.662,-0.4655,0.043,0.0105,4.822,329.67,0,0,1,1,1,1,59.60151,5.4591311,3000,1005,20,80,+SHRA,1000,1,2000,2,3000,3,4000,4
185,3.1,0.018,0.0225,-0.7725,-0.384,-0.0045,-0.025,4.952,329.67,0,0,1,1,1,1,59.60151,5.4591311,3000,1005,20,80,+SHRA,1000,1,2000,2,3000,3,4000,4
185.5,3.1,0.051,0.1275,-0.804,-0.2475,-0.0495,-0.0595,5.0835,329.47,0,0,1,1,1,1,59.60151,5.4591311,3000,1005,20,80,+SHRA,1000,1,2000,2,3000,3,4000,4
186,3.1,0.078,0.203,-0.745,-0.0685,-0.0875,-0.077,5.2035,329.47,0,0,1,1,1,1,59.60151,5.4591311,3000,1005,20,80,+SHRA,1000,1,2000,2,3000,3,4000,4
186.5,3.1,0.094,0.2365,-0.595,0.1285,-0.105,-0.071,5.2765,329.47,0,0,1,1,1,1,59.60151,5.4591311,3000,1005,20,80,+SHRA,1000,1,2000,2,3000,3,4000,4
187,3.1,0.094,0.2235,-0.3655,0.321,-0.117,-0.0545,5.315,329.47,0,0,1,1,1,1,59.60151,5.4591311,3000,1005,20,80,+SHRA,1000,1,2000,2,3000,3,4000,4
187.5,3.1,0.0785,0.163,-0.0815,0.477,-0.101,-0.0285,5.2895,329.47,0,0,1,1,1,1,59.60151,5.4591311,3000,1005,20,80,+SHRA,1000,1,2000,2,3000,3,4000,4
188,3.1,0.0505,0.061,0.225,0.587,-0.084,-0.0035,5.242,329.47,0,0,1,1,1,1,59.60151,5.4591311,3000,1005,20,80,+SHRA,1000,1,2000,2,3000,3,4000,4
188.5,3.1,0.008,-0.072,0.521,0.63,-0.0385,0.014,5.13,329.67,0,0,1,1,1,1,59.60151,5.4591311,3000,1005,20,80,+SHRA,1000,1,2000,2,3000,3,4000,4
189,3.2,-0.042,-0.2205,0.77,0.6035,0.0065,0.0385,5.016,329.67,0,0,1,1,1,1,59.60151,5.4591311,3000,1005,20,80,+SHRA,1000,1,2000,2,3000,3,4000,4
189.5,3.2,-0.097,-0.3705,0.944,0.5075,0.0715,0.032,4.8615,329.77,0,0,1,1,1,1,59.60151,5.4591311,3000,1005,20,80,+SHRA,1000,1,2000,2,3000,3,4000,4
190,3.2,-0.152,-0.501,1.0195,0.353,0.116,0.024,4.736,329.77,0,0,1,1,1,1,59.60151,5.4591311,3000,1005,20,80,+SHRA,1000,1,2000,2,3000,3,4000,4
190.5,3.2,-0.1995,-0.6015,0.9875,0.1585,0.166,0.0205,4.608,329.97,0,0,1,1,1,1,59.60151,5.4591311,3000,1005,20,80,+SHRA,1000,1,2000,2,3000,3,4000,4
191,3.2,-0.235,-0.657,0.8485,-0.0595,0.194,0.011,4.5235,329.97,0,0,1,1,1,1,59.60151,5.4591311,3000,1005,20,80,+SHRA,1000,1,2000,2,3000,3,4000,4
191.5,3.2,-0.259,-0.6625,0.6155,-0.2725,0.212,0.002,4.473,329.97,0,0,1,1,1,1,59.60151,5.4591311,3000,1005,20,80,+SHRA,1000,1,2000,2,3000,3,4000,4
192,3.2,-0.269,-0.617,0.312,-0.461,0.1995,-0.0185,4.477,329.97,0,0,1,1,1,1,59.60151,5.4591311,3000,1005,20,80,+SHRA,1000,1,2000,2,3000,3,4000,4
192.5,3.2,-0.2695,-0.5255,-0.0275,-0.5915,0.1625,-0.035,4.5495,329.97,0,0,1,1,1,1,59.60151,5.4591311,3000,1005,20,80,+SHRA,1000,1,2000,2,3000,3,4000,4
193,3.2,-0.266,-0.3995,-0.363,-0.653,0.113,-0.0505,4.6575,329.97,0,0,1,1,1,1,59.60151,5.4591311,3000,1005,20,80,+SHRA,1000,1,2000,2,3000,3,4000,4
193.5,3.2,-0.2595,-0.253,-0.654,-0.6295,0.048,-0.0645,4.81,329.97,0,0,1,1,1,1,59.60151,5.4591311,3000,1005,20,80,+SHRA,1000,1,2000,2,3000,3,4000,4
194,3.2,-0.2555,-0.106,-0.8645,-0.5295,-0.0145,-0.069,4.9635,329.97,0,0,1,1,1,1,59.60151,5.4591311,3000,1005,20,80,+SHRA,1000,1,2000,2,3000,3,4000,4
194.5,3.2,-0.2515,0.0225,-0.9695,-0.365,-0.0705,-0.0775,5.1145,329.87,0,0,1,1,1,1,59.60151,5.4591311,3000,1005,20,80,+SHRA,1000,1,2000,2,3000,3,4000,4
195,3.3,-0.2495,0.1195,-0.959,-0.1625,-0.104,-0.0805,5.2165,329.87,0,0,1,1,1,1,59.60151,5.4591311,3000,1005,20,80,+SHRA,1000,1,2000,2,3000,3,4000,4
195.5,3.3,-0.244,0.1735,-0.838,0.052,-0.123,-0.0745,5.285,329.87,0,0,1,1,1,1,59.60151,5.4591311,3000,1005,20,80,+SHRA,1000,1,2000,2,3000,3,4000,4
196,3.3,-0.233,0.1815,-0.6255,0.247,-0.1155,-0.0595,5.287,329.87,0,0,1,1,1,1,59.60151,5.4591311,3000,1005,20,80,+SHRA,1000,1,2000,2,3000,3,4000,4
196.5,3.3,-0.2155,0.1435,-0.353,0.4005,-0.097,-0.042,5.252,329.87,0,0,1,1,1,1,59.60151,5.4591311,3000,1005,20,80,+SHRA,1000,1,2000,2,3000,3,4000,4
197,3.3,-0.1925,0.068,-0.0565,0.4915,-0.054,-0.028,5.1605,329.87,0,0,1,1,1,1,59.60151,5.4591311,3000,1005,20,80,+SHRA,1000,1,2000,2,3000,3,4000,4
197.5,3.3,-0.164,-0.0335,0.2245,0.515,-0.0055,-0.013,5.0525,329.97,0,0,1,1,1,1,59.60151,5.4591311,3000,1005,20,80,+SHRA,1000,1,2000,2,3000,3,4000,4
198,3.3,-0.134,-0.145,0.4575,0.4725,0.0405,-0.007,4.93,329.97,0,0,1,1,1,1,59.60151,5.4591311,3000,1005,20,80,+SHRA,1000,1,2000,2,3000,3,4000,4
198.5,3.3,-0.1045,-0.253,0.617,0.3745,0.082,-0.0095,4.8215,329.97,0,0,1,1,1,1,59.60151,5.4591311,3000,1005,20,80,+SHRA,1000,1,2000,2,3000,3,4000,4
199,3.3,-0.0785,-0.345,0.69,0.2395,0.119,0.0005,4.7245,329.97,0,0,1,1,1,1,59.60151,5.4591311,3000,1005,20,80,+SHRA,1000,1,2000,2,3000,3,4000,4
199.5,3.3,-0.0555,-0.4095,0.674,0.0845,0.1405,0.007,4.6625,330.07,0,0,1,1,1,1,59.60151,5.4591311,3000,1005,20,80,+SHRA,1000,1,2000,2,3000,3,4000,4
200,3.3,-0.039,-0.443,0.5795,-0.0645,0.1475,0.0175,4.6385,330.07,0,0,1,1,1,1,59.60151,5.4591311,3000,1005,20,80,+SHRA,1000,1,2000,2,3000,3,4000,4
200.5,3.3,-0.028,-0.441,0.4245,-0.1925,0.1365,0.0145,4.654,329.97,0,0,1,1,1,1,59.60151,5.4591311,3000,1005,20,80,+SHRA,1000,1,2000,2,3000,3,4000,4
201,3.4,-0.02,-0.411,0.2355,-0.2805,0.1155,0.0015,4.705,329.97,0,0,1,1,1,1,59.60151,5.4591311,3000,1005,20,80,+SHRA,1000,1,2000,2,3000,3,4000,4
201.5,3.4,-0.0155,-0.356,0.039,-0.323,0.0865,-0.0065,4.776,330.07,0,0,1,1,1,1,59.60151,5.4591311,3000,1005,20,80,+SHRA,1000,1,2000,2,3000,3,4000,4
202,3.4,-0.0115,-0.288,-0.137,-0.3145,0.051,-0.0065,4.8675,330.07,0,0,1,1,1,1,59.60151,5.4591311,3000,1005,20,80,+SHRA,1000,1,2000,2,3000,3,4000,4
202.5,3.4,-0.0085,-0.218,-0.272,-0.2645,0.02,-0.0065,4.947,330.07,0,0,1,1,1,1,59.60151,5.4591311,3000,1005,20,80,+SHRA,1000,1,2000,2,3000,3,4000,4
203,3.4,-0.007,-0.1555,-0.3525,-0.182,-0.0115,0.005,5.02,330.07,0,0,1,1,1,1,59.60151,5.4591311,3000,1005,20,80,+SHRA,1000,1,2000,2,3000,3,4000,4
203.5,3.4,-0.009,-0.1095,-0.374,-0.085,-0.0275,0.017,5.058,330.07,0,0,1,1,1,1,59.60151,5.4591311,3000,1005,20,80,+SHRA,1000,1,2000,2,3000,3,4000,4
204,3.4,-0.0125,-0.0845,-0.3415,0.012,-0.0375,0.015,5.08,330.07,0,0,1,1,1,1,59.60151,5.4591311,3000,1005,20,80,+SHRA,1000,1,2000,2,3000,3,4000,4
204.5,3.4,-0.018,-0.0815,-0.266,0.095,-0.0325,0.0035,5.067,330.07,0,0,1,1,1,1,59.60151,5.4591311,3000,1005,20,80,+SHRA,1000,1,2000,2,3000,3,4000,4
205,3.4,-0.0235,-0.099,-0.165,0.154,-0.0225,-0.009,5.041,330.07,0,0,1,1,1,1,59.60151,5.4591311,3000,1005,20,80,+SHRA,1000,1,2000,2,3000,3,4000,4
