Time(s),Time(m),"Roll (deg, +ve R)","Pitch (deg, +ve UP)",Heave (m),Heave Velocity (m/s),AX (m/s^2),AY (m/s^2),AZ (m/s^2),Vessel heading (degT),SOG (knots),COG (M deg),STATUS_MRU (1=OK),STATUS_GYRO (1=OK),STATUS_WIND (1=OK),STATUS_GPS (SOG_VOG) (1=OK),GPS Lat,GPS Lon,Visibility,Air Pressure,Air Temperature,Air Humidity,WX code,Cloud layer 1 altitude,Cloud layer 1 oct,Cloud layer 1 altitude,Cloud layer 1 oct,Cloud layer 1 altitude,Cloud layer 1 oct,Cloud layer 1 altitude,Cloud layer 1 oct
0,0,-0.0565,-0.0625,0.414,0.424,-0.04,-0.116,10.094,270,0,0,1,1,1,1,59.60151,5.4591311,3000,1005,20,80,+SHRA,1000,1,2000,2,3000,3,4000,4
0.5,0,-0.0265,-0.1355,0.5805,0.414,-0.013,-0.188,10.014,270,0,0,1,1,1,1,59.60151,5.4591311,3000,1005,20,80,+SHRA,1000,1,2000,2,3000,3,4000,4
1,0,0.0155,-0.217,0.7035,0.376,0.034,-0.223,9.91,270,0,0,1,1,1,1,59.60151,5.4591311,3000,1005,20,80,+SHRA,1000,1,2000,2,3000,3,4000,4
1.5,0,0.0675,-0.3045,0.775,0.3145,0.08,-0.224,9.801,270,0,0,1,1,1,1,59.60151,5.4591311,3000,1005,20,80,+SHRA,1000,1,2000,2,3000,3,4000,4
2,0,0.126,-0.392,0.79,0.2245,0.147,-0.184,9.656,270,0,0,1,1,1,1,59.60151,5.4591311,3000,1005,20,80,+SHRA,1000,1,2000,2,3000,3,4000,4
2.5,0,0.189,-0.4725,0.744,0.112,0.207,-0.108,9.515,270,0,0,1,1,1,1,59.60151,5.4591311,3000,1005,20,80,+SHRA,1000,1,2000,2,3000,3,4000,4
3,0.1,0.247,-0.5395,0.6355,-0.0235,0.275,-0.024,9.341,270,0,0,1,1,1,1,59.60151,5.4591311,3000,1005,20,80,+SHRA,1000,1,2000,2,3000,3,4000,4
3.5,0.1,0.297,-0.584,0.4655,-0.1735,0.316,0.056,9.213,270,0,0,1,1,1,1,59.60151,5.4591311,3000,1005,20,80,+SHRA,1000,1,2000,2,3000,3,4000,4
4,0.1,0.3335,-0.598,0.242,-0.3255,0.349,0.147,9.111,270,0,0,1,1,1,1,59.60151,5.4591311,3000,1005,20,80,+SHRA,1000,1,2000,2,3000,3,4000,4
4.5,0.1,0.352,-0.574,-0.0215,-0.463,0.349,0.231,9.095,270,0,0,1,1,1,1,59.60151,5.4591311,3000,1005,20,80,+SHRA,1000,1,2000,2,3000,3,4000,4
5,0.1,0.349,-0.513,-0.3035,-0.5635,0.315,0.338,9.164,270,0,0,1,1,1,1,59.60151,5.4591311,3000,1005,20,80,+SHRA,1000,1,2000,2,3000,3,4000,4
5.5,0.1,0.3235,-0.4175,-0.5755,-0.6115,0.234,0.401,9.34,270,0,0,1,1,1,1,59.60151,5.4591311,3000,1005,20,80,+SHRA,1000,1,2000,2,3000,3,4000,4
6,0.1,0.2745,-0.2965,-0.8065,-0.589,0.128,0.436,9.59,270,0,0,1,1,1,1,59.60151,5.4591311,3000,1005,20,80,+SHRA,1000,1,2000,2,3000,3,4000,4
6.5,0.1,0.2075,-0.1625,-0.966,-0.498,0.01,0.384,9.895,270,0,0,1,1,1,1,59.60151,5.4591311,3000,1005,20,80,+SHRA,1000,1,2000,2,3000,3,4000,4
7,0.1,0.1275,-0.03,-1.0285,-0.334,-0.111,0.277,10.225,270,0,0,1,1,1,1,59.60151,5.4591311,3000,1005,20,80,+SHRA,1000,1,2000,2,3000,3,4000,4
7.5,0.1,0.0465,0.0835,-0.979,-0.126,-0.189,0.134,10.472,270,0,0,1,1,1,1,59.60151,5.4591311,3000,1005,20,80,+SHRA,1000,1,2000,2,3000,3,4000,4
8,0.1,-0.024,0.167,-0.8185,0.1065,-0.258,-0.003,10.681,270,0,0,1,1,1,1,59.60151,5.4591311,3000,1005,20,80,+SHRA,1000,1,2000,2,3000,3,4000,4
8.5,0.1,-0.076,0.2045,-0.561,0.3285,-0.255,-0.137,10.712,270,0,0,1,1,1,1,59.60151,5.4591311,3000,1005,20,80,+SHRA,1000,1,2000,2,3000,3,4000,4
9,0.2,-0.0995,0.196,-0.238,0.511,-0.245,-0.215,10.694,270,0,0,1,1,1,1,59.60151,5.4591311,3000,1005,20,80,+SHRA,1000,1,2000,2,3000,3,4000,4
9.5,0.2,-0.0915,0.139,0.1155,0.6355,-0.17,-0.271,10.514,270,0,0,1,1,1,1,59.60151,5.4591311,3000,1005,20,80,+SHRA,1000,1,2000,2,3000,3,4000,4
10,0.2,-0.0535,0.045,0.4545,0.6775,-0.082,-0.297,10.273,270,0,0,1,1,1,1,59.60151,5.4591311,3000,1005,20,80,+SHRA,1000,1,2000,2,3000,3,4000,4
10.5,0.2,0.008,-0.079,0.741,0.645,0.007,-0.276,9.992,270,0,0,1,1,1,1,59.60151,5.4591311,3000,1005,20,80,+SHRA,1000,1,2000,2,3000,3,4000,4
11,0.2,0.0865,-0.2155,0.94,0.5285,0.123,-0.224,9.665,270,0,0,1,1,1,1,59.60151,5.4591311,3000,1005,20,80,+SHRA,1000,1,2000,2,3000,3,4000,4
11.5,0.2,0.17,-0.348,1.03,0.36,0.211,-0.174,9.402,270,0,0,1,1,1,1,59.60151,5.4591311,3000,1005,20,80,+SHRA,1000,1,2000,2,3000,3,4000,4
12,0.2,0.2495,-0.463,1.002,0.1465,0.299,-0.068,9.156,270,0,0,1,1,1,1,59.60151,5.4591311,3000,1005,20,80,+SHRA,1000,1,2000,2,3000,3,4000,4
12.5,0.2,0.313,-0.5455,0.862,-0.0685,0.325,0.038,9.065,270,0,0,1,1,1,1,59.60151,5.4591311,3000,1005,20,80,+SHRA,1000,1,2000,2,3000,3,4000,4
13,0.2,0.3525,-0.589,0.6315,-0.273,0.364,0.135,8.993,270,0,0,1,1,1,1,59.60151,5.4591311,3000,1005,20,80,+SHRA,1000,1,2000,2,3000,3,4000,4
13.5,0.2,0.3645,-0.589,0.339,-0.4315,0.334,0.239,9.101,270,0,0,1,1,1,1,59.60151,5.4591311,3000,1005,20,80,+SHRA,1000,1,2000,2,3000,3,4000,4
14,0.2,0.3465,-0.5515,0.023,-0.5345,0.303,0.284,9.215,270,0,0,1,1,1,1,59.60151,5.4591311,3000,1005,20,80,+SHRA,1000,1,2000,2,3000,3,4000,4
14.5,0.2,0.301,-0.48,-0.282,-0.5715,0.212,0.32,9.454,270,0,0,1,1,1,1,59.60151,5.4591311,3000,1005,20,80,+SHRA,1000,1,2000,2,3000,3,4000,4
15,0.3,0.23,-0.386,-0.54,-0.5435,0.146,0.345,9.658,270,0,0,1,1,1,1,59.60151,5.4591311,3000,1005,20,80,+SHRA,1000,1,2000,2,3000,3,4000,4
15.5,0.3,0.146,-0.28,-0.7265,-0.4545,0.045,0.333,9.931,270,0,0,1,1,1,1,59.60151,5.4591311,3000,1005,20,80,+SHRA,1000,1,2000,2,3000,3,4000,4
16,0.3,0.0575,-0.177,-0.8215,-0.316,-0.025,0.297,10.136,270,0,0,1,1,1,1,59.60151,5.4591311,3000,1005,20,80,+SHRA,1000,1,2000,2,3000,3,4000,4
16.5,0.3,-0.0235,-0.087,-0.82,-0.1515,-0.087,0.221,10.313,270,0,0,1,1,1,1,59.60151,5.4591311,3000,1005,20,80,+SHRA,1000,1,2000,2,3000,3,4000,4
17,0.3,-0.092,-0.0175,-0.7265,0.024,-0.118,0.125,10.404,270,0,0,1,1,1,1,59.60151,5.4591311,3000,1005,20,80,+SHRA,1000,1,2000,2,3000,3,4000,4
17.5,0.3,-0.1385,0.024,-0.5585,0.1785,-0.128,-0.03,10.41,270,0,0,1,1,1,1,59.60151,5.4591311,3000,1005,20,80,+SHRA,1000,1,2000,2,3000,3,4000,4
18,0.3,-0.1605,0.0355,-0.34,0.3075,-0.122,-0.165,10.377,270,0,0,1,1,1,1,59.60151,5.4591311,3000,1005,20,80,+SHRA,1000,1,2000,2,3000,3,4000,4
18.5,0.3,-0.1575,0.02,-0.099,0.386,-0.079,-0.259,10.241,270,0,0,1,1,1,1,59.60151,5.4591311,3000,1005,20,80,+SHRA,1000,1,2000,2,3000,3,4000,4
19,0.3,-0.1295,-0.0185,0.135,0.4225,-0.053,-0.331,10.128,270,0,0,1,1,1,1,59.60151,5.4591311,3000,1005,20,80,+SHRA,1000,1,2000,2,3000,3,4000,4
19.5,0.3,-0.0815,-0.0755,0.34,0.41,0.011,-0.318,9.948,270,0,0,1,1,1,1,59.60151,5.4591311,3000,1005,20,80,+SHRA,1000,1,2000,2,3000,3,4000,4
20,0.3,-0.0225,-0.1425,0.496,0.363,0.041,-0.252,9.84,270,0,0,1,1,1,1,59.60151,5.4591311,3000,1005,20,80,+SHRA,1000,1,2000,2,3000,3,4000,4
20.5,0.3,0.0425,-0.2155,0.592,0.2795,0.115,-0.176,9.661,270,0,0,1,1,1,1,59.60151,5.4591311,3000,1005,20,80,+SHRA,1000,1,2000,2,3000,3,4000,4
21,0.4,0.1035,-0.285,0.6215,0.1735,0.161,-0.086,9.552,270,0,0,1,1,1,1,59.60151,5.4591311,3000,1005,20,80,+SHRA,1000,1,2000,2,3000,3,4000,4
21.5,0.4,0.155,-0.3455,0.585,0.054,0.211,-0.024,9.427,270,0,0,1,1,1,1,59.60151,5.4591311,3000,1005,20,80,+SHRA,1000,1,2000,2,3000,3,4000,4
22,0.4,0.1865,-0.391,0.4875,-0.0675,0.216,0.049,9.39,270,0,0,1,1,1,1,59.60151,5.4591311,3000,1005,20,80,+SHRA,1000,1,2000,2,3000,3,4000,4
22.5,0.4,0.194,-0.419,0.3445,-0.1735,0.214,0.126,9.38,270,0,0,1,1,1,1,59.60151,5.4591311,3000,1005,20,80,+SHRA,1000,1,2000,2,3000,3,4000,4
23,0.4,0.1775,-0.4265,0.17,-0.2635,0.215,0.201,9.397,270,0,0,1,1,1,1,59.60151,5.4591311,3000,1005,20,80,+SHRA,1000,1,2000,2,3000,3,4000,4
23.5,0.4,0.14,-0.4145,-0.0165,-0.3225,0.203,0.286,9.468,270,0,0,1,1,1,1,59.60151,5.4591311,3000,1005,20,80,+SHRA,1000,1,2000,2,3000,3,4000,4
24,0.4,0.0865,-0.381,-0.1965,-0.3495,0.178,0.323,9.562,270,0,0,1,1,1,1,59.60151,5.4591311,3000,1005,20,80,+SHRA,1000,1,2000,2,3000,3,4000,4
24.5,0.4,0.0235,-0.3325,-0.351,-0.335,0.124,0.317,9.72,270,0,0,1,1,1,1,59.60151,5.4591311,3000,1005,20,80,+SHRA,1000,1,2000,2,3000,3,4000,4
25,0.4,-0.043,-0.274,-0.463,-0.2885,0.097,0.278,9.835,270,0,0,1,1,1,1,59.60151,5.4591311,3000,1005,20,80,+SHRA,1000,1,2000,2,3000,3,4000,4
25.5,0.4,-0.1055,-0.211,-0.5245,-0.2125,0.052,0.183,9.974,270,0,0,1,1,1,1,59.60151,5.4591311,3000,1005,20,80,+SHRA,1000,1,2000,2,3000,3,4000,4
26,0.4,-0.1565,-0.151,-0.528,-0.116,0.009,0.038,10.079,270,0,0,1,1,1,1,59.60151,5.4591311,3000,1005,20,80,+SHRA,1000,1,2000,2,3000,3,4000,4
26.5,0.4,-0.192,-0.099,-0.476,-0.0085,-0.043,-0.101,10.187,270,0,0,1,1,1,1,59.60151,5.4591311,3000,1005,20,80,+SHRA,1000,1,2000,2,3000,3,4000,4
27,0.5,-0.2075,-0.063,-0.374,0.0985,-0.048,-0.206,10.212,270,0,0,1,1,1,1,59.60151,5.4591311,3000,1005,20,80,+SHRA,1000,1,2000,2,3000,3,4000,4
27.5,0.5,-0.2,-0.0445,-0.234,0.191,-0.061,-0.241,10.216,270,0,0,1,1,1,1,59.60151,5.4591311,3000,1005,20,80,+SHRA,1000,1,2000,2,3000,3,4000,4
28,0.5,-0.1685,-0.0465,-0.0725,0.259,-0.049,-0.248,10.157,270,0,0,1,1,1,1,59.60151,5.4591311,3000,1005,20,80,+SHRA,1000,1,2000,2,3000,3,4000,4
28.5,0.5,-0.117,-0.0685,0.0905,0.2945,-0.021,-0.226,10.066,270,0,0,1,1,1,1,59.60151,5.4591311,3000,1005,20,80,+SHRA,1000,1,2000,2,3000,3,4000,4
29,0.5,-0.052,-0.1035,0.2385,0.2975,0.012,-0.193,9.959,270,0,0,1,1,1,1,59.60151,5.4591311,3000,1005,20,80,+SHRA,1000,1,2000,2,3000,3,4000,4
29.5,0.5,0.019,-0.1515,0.355,0.269,0.05,-0.17,9.85,270,0,0,1,1,1,1,59.60151,5.4591311,3000,1005,20,80,+SHRA,1000,1,2000,2,3000,3,4000,4
30,0.5,0.088,-0.206,0.431,0.2165,0.091,-0.155,9.745,270,0,0,1,1,1,1,59.60151,5.4591311,3000,1005,20,80,+SHRA,1000,1,2000,2,3000,3,4000,4
30.5,0.5,0.1465,-0.261,0.461,0.1465,0.131,-0.086,9.659,270,0,0,1,1,1,1,59.60151,5.4591311,3000,1005,20,80,+SHRA,1000,1,2000,2,3000,3,4000,4
31,0.5,0.1905,-0.3115,0.4455,0.0705,0.143,0.014,9.609,270,0,0,1,1,1,1,59.60151,5.4591311,3000,1005,20,80,+SHRA,1000,1,2000,2,3000,3,4000,4
31.5,0.5,0.2115,-0.3525,0.389,-0.009,0.168,0.097,9.556,270,0,0,1,1,1,1,59.60151,5.4591311,3000,1005,20,80,+SHRA,1000,1,2000,2,3000,3,4000,4
32,0.5,0.2085,-0.3835,0.2995,-0.084,0.183,0.179,9.531,270,0,0,1,1,1,1,59.60151,5.4591311,3000,1005,20,80,+SHRA,1000,1,2000,2,3000,3,4000,4
32.5,0.5,0.182,-0.399,0.1845,-0.1505,0.187,0.22,9.52,270,0,0,1,1,1,1,59.60151,5.4591311,3000,1005,20,80,+SHRA,1000,1,2000,2,3000,3,4000,4
33,0.6,0.136,-0.398,0.055,-0.2045,0.185,0.26,9.544,270,0,0,1,1,1,1,59.60151,5.4591311,3000,1005,20,80,+SHRA,1000,1,2000,2,3000,3,4000,4
33.5,0.6,0.078,-0.3785,-0.077,-0.239,0.175,0.284,9.588,270,0,0,1,1,1,1,59.60151,5.4591311,3000,1005,20,80,+SHRA,1000,1,2000,2,3000,3,4000,4
34,0.6,0.014,-0.344,-0.2,-0.2485,0.14,0.275,9.675,270,0,0,1,1,1,1,59.60151,5.4591311,3000,1005,20,80,+SHRA,1000,1,2000,2,3000,3,4000,4
34.5,0.6,-0.0475,-0.2975,-0.3005,-0.2325,0.109,0.209,9.764,270,0,0,1,1,1,1,59.60151,5.4591311,3000,1005,20,80,+SHRA,1000,1,2000,2,3000,3,4000,4
35,0.6,-0.101,-0.244,-0.3695,-0.1915,0.065,0.118,9.875,270,0,0,1,1,1,1,59.60151,5.4591311,3000,1005,20,80,+SHRA,1000,1,2000,2,3000,3,4000,4
35.5,0.6,-0.1415,-0.1915,-0.398,-0.1295,0.03,0.012,9.965,270,0,0,1,1,1,1,59.60151,5.4591311,3000,1005,20,80,+SHRA,1000,1,2000,2,3000,3,4000,4
36,0.6,-0.165,-0.1435,-0.385,-0.0545,-0.009,-0.094,10.05,270,0,0,1,1,1,1,59.60151,5.4591311,3000,1005,20,80,+SHRA,1000,1,2000,2,3000,3,4000,4
36.5,0.6,-0.1685,-0.108,-0.3315,0.027,-0.037,-0.15,10.106,270,0,0,1,1,1,1,59.60151,5.4591311,3000,1005,20,80,+SHRA,1000,1,2000,2,3000,3,4000,4
37,0.6,-0.1585,-0.0865,-0.244,0.102,-0.047,-0.19,10.122,270,0,0,1,1,1,1,59.60151,5.4591311,3000,1005,20,80,+SHRA,1000,1,2000,2,3000,3,4000,4
37.5,0.6,-0.136,-0.0815,-0.1325,0.166,-0.037,-0.214,10.108,270,0,0,1,1,1,1,59.60151,5.4591311,3000,1005,20,80,+SHRA,1000,1,2000,2,3000,3,4000,4
38,0.6,-0.106,-0.093,-0.01,0.208,-0.01,-0.189,10.05,270,0,0,1,1,1,1,59.60151,5.4591311,3000,1005,20,80,+SHRA,1000,1,2000,2,3000,3,4000,4
38.5,0.6,-0.077,-0.1205,0.1085,0.223,0.023,-0.159,9.968,270,0,0,1,1,1,1,59.60151,5.4591311,3000,1005,20,80,+SHRA,1000,1,2000,2,3000,3,4000,4
39,0.7,-0.0535,-0.158,0.208,0.206,0.079,-0.152,9.835,270,0,0,1,1,1,1,59.60151,5.4591311,3000,1005,20,80,+SHRA,1000,1,2000,2,3000,3,4000,4
39.5,0.7,-0.041,-0.2015,0.2745,0.1585,0.115,-0.119,9.709,270,0,0,1,1,1,1,59.60151,5.4591311,3000,1005,20,80,+SHRA,1000,1,2000,2,3000,3,4000,4
40,0.7,-0.042,-0.243,0.299,0.0835,0.162,-0.061,9.574,270,0,0,1,1,1,1,59.60151,5.4591311,3000,1005,20,80,+SHRA,1000,1,2000,2,3000,3,4000,4
40.5,0.7,-0.0545,-0.2755,0.276,-0.0065,0.201,-0.01,9.481,270,0,0,1,1,1,1,59.60151,5.4591311,3000,1005,20,80,+SHRA,1000,1,2000,2,3000,3,4000,4
41,0.7,-0.0745,-0.2955,0.2105,-0.096,0.206,0.049,9.448,270,0,0,1,1,1,1,59.60151,5.4591311,3000,1005,20,80,+SHRA,1000,1,2000,2,3000,3,4000,4
41.5,0.7,-0.0965,-0.2985,0.1125,-0.1695,0.19,0.075,9.485,270,0,0,1,1,1,1,59.60151,5.4591311,3000,1005,20,80,+SHRA,1000,1,2000,2,3000,3,4000,4
42,0.7,-0.117,-0.2845,-0.0005,-0.214,0.157,0.098,9.573,270,0,0,1,1,1,1,59.60151,5.4591311,3000,1005,20,80,+SHRA,1000,1,2000,2,3000,3,4000,4
42.5,0.7,-0.128,-0.258,-0.1085,-0.218,0.1,0.066,9.723,270,0,0,1,1,1,1,59.60151,5.4591311,3000,1005,20,80,+SHRA,1000,1,2000,2,3000,3,4000,4
43,0.7,-0.13,-0.226,-0.1915,-0.18,0.034,-0.004,9.902,270,0,0,1,1,1,1,59.60151,5.4591311,3000,1005,20,80,+SHRA,1000,1,2000,2,3000,3,4000,4
43.5,0.7,-0.123,-0.1935,-0.2325,-0.1035,-0.014,-0.071,10.051,270,0,0,1,1,1,1,59.60151,5.4591311,3000,1005,20,80,+SHRA,1000,1,2000,2,3000,3,4000,4
44,0.7,-0.105,-0.1685,-0.223,-0.0045,-0.073,-0.071,10.213,270,0,0,1,1,1,1,59.60151,5.4591311,3000,1005,20,80,+SHRA,1000,1,2000,2,3000,3,4000,4
44.5,0.7,-0.082,-0.158,-0.161,0.109,-0.078,-0.055,10.281,270,0,0,1,1,1,1,59.60151,5.4591311,3000,1005,20,80,+SHRA,1000,1,2000,2,3000,3,4000,4
45,0.8,-0.0575,-0.1645,-0.0565,0.2065,-0.066,-0.054,10.297,270,0,0,1,1,1,1,59.60151,5.4591311,3000,1005,20,80,+SHRA,1000,1,2000,2,3000,3,4000,4
45.5,0.8,-0.0315,-0.1915,0.079,0.2965,-0.061,-0.041,10.295,270,0,0,1,1,1,1,59.60151,5.4591311,3000,1005,20,80,+SHRA,1000,1,2000,2,3000,3,4000,4
46,0.8,-0.005,-0.2375,0.224,0.336,0.011,-0.053,10.128,270,0,0,1,1,1,1,59.60151,5.4591311,3000,1005,20,80,+SHRA,1000,1,2000,2,3000,3,4000,4
46.5,0.8,0.022,-0.2965,0.3535,0.3325,0.064,-0.002,9.96,270,0,0,1,1,1,1,59.60151,5.4591311,3000,1005,20,80,+SHRA,1000,1,2000,2,3000,3,4000,4
47,0.8,0.054,-0.3595,0.441,0.2575,0.172,0.002,9.641,270,0,0,1,1,1,1,59.60151,5.4591311,3000,1005,20,80,+SHRA,1000,1,2000,2,3000,3,4000,4
47.5,0.8,0.0875,-0.414,0.4615,0.1335,0.219,0.002,9.438,270,0,0,1,1,1,1,59.60151,5.4591311,3000,1005,20,80,+SHRA,1000,1,2000,2,3000,3,4000,4
48,0.8,0.1255,-0.452,0.4045,-0.0325,0.31,-0.002,9.166,270,0,0,1,1,1,1,59.60151,5.4591311,3000,1005,20,80,+SHRA,1000,1,2000,2,3000,3,4000,4
48.5,0.8,0.165,-0.459,0.2685,-0.2075,0.31,-0.003,9.097,270,0,0,1,1,1,1,59.60151,5.4591311,3000,1005,20,80,+SHRA,1000,1,2000,2,3000,3,4000,4
49,0.8,0.205,-0.4335,0.069,-0.3695,0.33,0.03,9.027,270,0,0,1,1,1,1,59.60151,5.4591311,3000,1005,20,80,+SHRA,1000,1,2000,2,3000,3,4000,4
49.5,0.8,0.2445,-0.372,-0.171,-0.494,0.272,0.044,9.148,270,0,0,1,1,1,1,59.60151,5.4591311,3000,1005,20,80,+SHRA,1000,1,2000,2,3000,3,4000,4
50,0.8,0.28,-0.2825,-0.416,-0.551,0.195,0.12,9.328,270,0,0,1,1,1,1,59.60151,5.4591311,3000,1005,20,80,+SHRA,1000,1,2000,2,3000,3,4000,4
50.5,0.8,0.31,-0.1745,-0.6315,-0.54,0.094,0.188,9.618,270,0,0,1,1,1,1,59.60151,5.4591311,3000,1005,20,80,+SHRA,1000,1,2000,2,3000,3,4000,4
51,0.9,0.332,-0.0615,-0.78,-0.441,-0.006,0.252,9.942,270,0,0,1,1,1,1,59.60151,5.4591311,3000,1005,20,80,+SHRA,1000,1,2000,2,3000,3,4000,4
51.5,0.9,0.3455,0.04,-0.8355,-0.2825,-0.105,0.295,10.251,270,0,0,1,1,1,1,59.60151,5.4591311,3000,1005,20,80,+SHRA,1000,1,2000,2,3000,3,4000,4
52,0.9,0.35,0.1145,-0.7815,-0.0665,-0.202,0.252,10.537,270,0,0,1,1,1,1,59.60151,5.4591311,3000,1005,20,80,+SHRA,1000,1,2000,2,3000,3,4000,4
52.5,0.9,0.3425,0.1525,-0.6205,0.158,-0.228,0.209,10.672,270,0,0,1,1,1,1,59.60151,5.4591311,3000,1005,20,80,+SHRA,1000,1,2000,2,3000,3,4000,4
53,0.9,0.3255,0.1465,-0.3695,0.3735,-0.239,0.176,10.735,270,0,0,1,1,1,1,59.60151,5.4591311,3000,1005,20,80,+SHRA,1000,1,2000,2,3000,3,4000,4
53.5,0.9,0.302,0.096,-0.06,0.536,-0.183,0.121,10.621,270,0,0,1,1,1,1,59.60151,5.4591311,3000,1005,20,80,+SHRA,1000,1,2000,2,3000,3,4000,4
54,0.9,0.2715,0.0075,0.2685,0.6425,-0.137,0.041,10.494,270,0,0,1,1,1,1,59.60151,5.4591311,3000,1005,20,80,+SHRA,1000,1,2000,2,3000,3,4000,4
54.5,0.9,0.235,-0.1125,0.5775,0.668,-0.024,-0.02,10.211,270,0,0,1,1,1,1,59.60151,5.4591311,3000,1005,20,80,+SHRA,1000,1,2000,2,3000,3,4000,4
55,0.9,0.1975,-0.2485,0.8285,0.622,0.042,-0.081,9.979,270,0,0,1,1,1,1,59.60151,5.4591311,3000,1005,20,80,+SHRA,1000,1,2000,2,3000,3,4000,4
55.5,0.9,0.1585,-0.3875,0.993,0.5045,0.158,-0.124,9.647,270,0,0,1,1,1,1,59.60151,5.4591311,3000,1005,20,80,+SHRA,1000,1,2000,2,3000,3,4000,4
56,0.9,0.12,-0.513,1.05,0.33,0.24,-0.128,9.403,270,0,0,1,1,1,1,59.60151,5.4591311,3000,1005,20,80,+SHRA,1000,1,2000,2,3000,3,4000,4
56.5,0.9,0.083,-0.61,0.9945,0.1205,0.326,-0.11,9.148,270,0,0,1,1,1,1,59.60151,5.4591311,3000,1005,20,80,+SHRA,1000,1,2000,2,3000,3,4000,4
57,1,0.048,-0.6685,0.8285,-0.107,0.367,-0.065,9.005,270,0,0,1,1,1,1,59.60151,5.4591311,3000,1005,20,80,+SHRA,1000,1,2000,2,3000,3,4000,4
57.5,1,0.016,-0.6805,0.5705,-0.3225,0.391,-0.012,8.92,270,0,0,1,1,1,1,59.60151,5.4591311,3000,1005,20,80,+SHRA,1000,1,2000,2,3000,3,4000,4
58,1,-0.0135,-0.6455,0.2455,-0.51,0.383,0.094,8.941,270,0,0,1,1,1,1,59.60151,5.4591311,3000,1005,20,80,+SHRA,1000,1,2000,2,3000,3,4000,4
58.5,1,-0.04,-0.565,-0.11,-0.6375,0.336,0.187,9.072,270,0,0,1,1,1,1,59.60151,5.4591311,3000,1005,20,80,+SHRA,1000,1,2000,2,3000,3,4000,4
59,1,-0.0615,-0.4485,-0.458,-0.701,0.268,0.269,9.269,270,0,0,1,1,1,1,59.60151,5.4591311,3000,1005,20,80,+SHRA,1000,1,2000,2,3000,3,4000,4
59.5,1,-0.0805,-0.3095,-0.7595,-0.681,0.157,0.251,9.556,270,0,0,1,1,1,1,59.60151,5.4591311,3000,1005,20,80,+SHRA,1000,1,2000,2,3000,3,4000,4
60,1,-0.0995,-0.161,-0.982,-0.5955,0.06,0.163,9.818,270,0,0,1,1,1,1,59.60151,5.4591311,3000,1005,20,80,+SHRA,1000,1,2000,2,3000,3,4000,4
60.5,1,-0.12,-0.0195,-1.102,-0.44,-0.061,0.085,10.137,270,0,0,1,1,1,1,59.60151,5.4591311,3000,1005,20,80,+SHRA,1000,1,2000,2,3000,3,4000,4
61,1,-0.141,0.0985,-1.1045,-0.2405,-0.15,-0.02,10.364,270,0,0,1,1,1,1,59.60151,5.4591311,3000,1005,20,80,+SHRA,1000,1,2000,2,3000,3,4000,4
61.5,1,-0.1615,0.183,-0.99,-0.0115,-0.249,-0.187,10.596,270,0,0,1,1,1,1,59.60151,5.4591311,3000,1005,20,80,+SHRA,1000,1,2000,2,3000,3,4000,4
62,1,-0.177,0.221,-0.7705,0.212,-0.251,-0.256,10.64,270,0,0,1,1,1,1,59.60151,5.4591311,3000,1005,20,80,+SHRA,1000,1,2000,2,3000,3,4000,4
62.5,1,-0.184,0.214,-0.4725,0.413,-0.286,-0.299,10.705,270,0,0,1,1,1,1,59.60151,5.4591311,3000,1005,20,80,+SHRA,1000,1,2000,2,3000,3,4000,4
63,1.1,-0.18,0.1595,-0.1265,0.5615,-0.209,-0.32,10.547,270,0,0,1,1,1,1,59.60151,5.4591311,3000,1005,20,80,+SHRA,1000,1,2000,2,3000,3,4000,4
63.5,1.1,-0.1615,0.0685,0.225,0.647,-0.157,-0.317,10.424,270,0,0,1,1,1,1,59.60151,5.4591311,3000,1005,20,80,+SHRA,1000,1,2000,2,3000,3,4000,4
64,1.1,-0.128,-0.0535,0.548,0.6635,-0.035,-0.285,10.157,270,0,0,1,1,1,1,59.60151,5.4591311,3000,1005,20,80,+SHRA,1000,1,2000,2,3000,3,4000,4
64.5,1.1,-0.081,-0.189,0.806,0.6065,0.065,-0.199,9.933,270,0,0,1,1,1,1,59.60151,5.4591311,3000,1005,20,80,+SHRA,1000,1,2000,2,3000,3,4000,4
65,1.1,-0.0215,-0.3265,0.9765,0.4935,0.178,-0.087,9.654,270,0,0,1,1,1,1,59.60151,5.4591311,3000,1005,20,80,+SHRA,1000,1,2000,2,3000,3,4000,4
65.5,1.1,0.0435,-0.4505,1.0415,0.325,0.268,0.05,9.416,270,0,0,1,1,1,1,59.60151,5.4591311,3000,1005,20,80,+SHRA,1000,1,2000,2,3000,3,4000,4
66,1.1,0.114,-0.5475,0.998,0.1345,0.328,0.155,9.234,270,0,0,1,1,1,1,59.60151,5.4591311,3000,1005,20,80,+SHRA,1000,1,2000,2,3000,3,4000,4
66.5,1.1,0.1805,-0.6095,0.8525,-0.0715,0.367,0.23,9.101,270,0,0,1,1,1,1,59.60151,5.4591311,3000,1005,20,80,+SHRA,1000,1,2000,2,3000,3,4000,4
67,1.1,0.241,-0.631,0.625,-0.2515,0.347,0.254,9.105,270,0,0,1,1,1,1,59.60151,5.4591311,3000,1005,20,80,+SHRA,1000,1,2000,2,3000,3,4000,4
67.5,1.1,0.2915,-0.6125,0.3425,-0.4045,0.332,0.247,9.118,270,0,0,1,1,1,1,59.60151,5.4591311,3000,1005,20,80,+SHRA,1000,1,2000,2,3000,3,4000,4
68,1.1,0.325,-0.557,0.037,-0.5015,0.256,0.243,9.275,270,0,0,1,1,1,1,59.60151,5.4591311,3000,1005,20,80,+SHRA,1000,1,2000,2,3000,3,4000,4
68.5,1.1,0.342,-0.4735,-0.2595,-0.5505,0.215,0.219,9.38,270,0,0,1,1,1,1,59.60151,5.4591311,3000,1005,20,80,+SHRA,1000,1,2000,2,3000,3,4000,4
69,1.2,0.34,-0.371,-0.52,-0.5435,0.125,0.19,9.595,270,0,0,1,1,1,1,59.60151,5.4591311,3000,1005,20,80,+SHRA,1000,1,2000,2,3000,3,4000,4
69.5,1.2,0.325,-0.2595,-0.7205,-0.491,0.084,0.161,9.73,270,0,0,1,1,1,1,59.60151,5.4591311,3000,1005,20,80,+SHRA,1000,1,2000,2,3000,3,4000,4
70,1.2,0.299,-0.149,-0.8495,-0.399,0.016,0.155,9.933,270,0,0,1,1,1,1,59.60151,5.4591311,3000,1005,20,80,+SHRA,1000,1,2000,2,3000,3,4000,4
70.5,1.2,0.2685,-0.0475,-0.8955,-0.2745,-0.026,0.136,10.067,270,0,0,1,1,1,1,59.60151,5.4591311,3000,1005,20,80,+SHRA,1000,1,2000,2,3000,3,4000,4
71,1.2,0.241,0.0335,-0.8595,-0.129,-0.094,0.12,10.247,270,0,0,1,1,1,1,59.60151,5.4591311,3000,1005,20,80,+SHRA,1000,1,2000,2,3000,3,4000,4
71.5,1.2,0.217,0.0895,-0.743,0.0325,-0.127,0.067,10.355,270,0,0,1,1,1,1,59.60151,5.4591311,3000,1005,20,80,+SHRA,1000,1,2000,2,3000,3,4000,4
72,1.2,0.2035,0.115,-0.559,0.1875,-0.155,0.034,10.432,270,0,0,1,1,1,1,59.60151,5.4591311,3000,1005,20,80,+SHRA,1000,1,2000,2,3000,3,4000,4
72.5,1.2,0.1965,0.1075,-0.3225,0.331,-0.161,-0.007,10.45,270,0,0,1,1,1,1,59.60151,5.4591311,3000,1005,20,80,+SHRA,1000,1,2000,2,3000,3,4000,4
73,1.2,0.195,0.0685,-0.0565,0.4385,-0.129,-0.018,10.389,270,0,0,1,1,1,1,59.60151,5.4591311,3000,1005,20,80,+SHRA,1000,1,2000,2,3000,3,4000,4
73.5,1.2,0.1935,0,0.215,0.51,-0.1,-0.009,10.313,270,0,0,1,1,1,1,59.60151,5.4591311,3000,1005,20,80,+SHRA,1000,1,2000,2,3000,3,4000,4
74,1.2,0.184,-0.09,0.4655,0.5285,-0.022,-0.029,10.137,270,0,0,1,1,1,1,59.60151,5.4591311,3000,1005,20,80,+SHRA,1000,1,2000,2,3000,3,4000,4
74.5,1.2,0.1645,-0.192,0.6715,0.5025,0.033,-0.016,9.99,270,0,0,1,1,1,1,59.60151,5.4591311,3000,1005,20,80,+SHRA,1000,1,2000,2,3000,3,4000,4
75,1.3,0.131,-0.302,0.814,0.425,0.124,-0.007,9.763,270,0,0,1,1,1,1,59.60151,5.4591311,3000,1005,20,80,+SHRA,1000,1,2000,2,3000,3,4000,4
75.5,1.3,0.0825,-0.4065,0.8785,0.3075,0.182,0.019,9.593,270,0,0,1,1,1,1,59.60151,5.4591311,3000,1005,20,80,+SHRA,1000,1,2000,2,3000,3,4000,4
76,1.3,0.0245,-0.497,0.8585,0.1585,0.254,0.008,9.389,270,0,0,1,1,1,1,59.60151,5.4591311,3000,1005,20,80,+SHRA,1000,1,2000,2,3000,3,4000,4
76.5,1.3,-0.039,-0.564,0.7535,-0.0115,0.298,-0.005,9.245,270,0,0,1,1,1,1,59.60151,5.4591311,3000,1005,20,80,+SHRA,1000,1,2000,2,3000,3,4000,4
77,1.3,-0.102,-0.6,0.5715,-0.187,0.338,0.004,9.118,270,0,0,1,1,1,1,59.60151,5.4591311,3000,1005,20,80,+SHRA,1000,1,2000,2,3000,3,4000,4
77.5,1.3,-0.1575,-0.599,0.3265,-0.353,0.335,0.017,9.079,270,0,0,1,1,1,1,59.60151,5.4591311,3000,1005,20,80,+SHRA,1000,1,2000,2,3000,3,4000,4
78,1.3,-0.204,-0.559,0.041,-0.49,0.321,0.064,9.096,270,0,0,1,1,1,1,59.60151,5.4591311,3000,1005,20,80,+SHRA,1000,1,2000,2,3000,3,4000,4
78.5,1.3,-0.234,-0.4815,-0.259,-0.583,0.27,0.095,9.21,270,0,0,1,1,1,1,59.60151,5.4591311,3000,1005,20,80,+SHRA,1000,1,2000,2,3000,3,4000,4
79,1.3,-0.2515,-0.374,-0.541,-0.612,0.184,0.072,9.419,270,0,0,1,1,1,1,59.60151,5.4591311,3000,1005,20,80,+SHRA,1000,1,2000,2,3000,3,4000,4
79.5,1.3,-0.2575,-0.2475,-0.772,-0.573,0.095,0.038,9.678,270,0,0,1,1,1,1,59.60151,5.4591311,3000,1005,20,80,+SHRA,1000,1,2000,2,3000,3,4000,4
80,1.3,-0.2515,-0.115,-0.924,-0.4635,-0.005,-0.01,9.97,270,0,0,1,1,1,1,59.60151,5.4591311,3000,1005,20,80,+SHRA,1000,1,2000,2,3000,3,4000,4
80.5,1.3,-0.2405,0.006,-0.977,-0.304,-0.077,-0.061,10.207,270,0,0,1,1,1,1,59.60151,5.4591311,3000,1005,20,80,+SHRA,1000,1,2000,2,3000,3,4000,4
81,1.4,-0.226,0.1065,-0.925,-0.109,-0.145,-0.139,10.42,270,0,0,1,1,1,1,59.60151,5.4591311,3000,1005,20,80,+SHRA,1000,1,2000,2,3000,3,4000,4
81.5,1.4,-0.2095,0.172,-0.7735,0.091,-0.177,-0.178,10.527,270,0,0,1,1,1,1,59.60151,5.4591311,3000,1005,20,80,+SHRA,1000,1,2000,2,3000,3,4000,4
82,1.4,-0.1905,0.1985,-0.541,0.2805,-0.193,-0.228,10.585,270,0,0,1,1,1,1,59.60151,5.4591311,3000,1005,20,80,+SHRA,1000,1,2000,2,3000,3,4000,4
82.5,1.4,-0.167,0.182,-0.2525,0.437,-0.176,-0.267,10.544,270,0,0,1,1,1,1,59.60151,5.4591311,3000,1005,20,80,+SHRA,1000,1,2000,2,3000,3,4000,4
83,1.4,-0.1405,0.126,0.061,0.55,-0.144,-0.282,10.463,270,0,0,1,1,1,1,59.60151,5.4591311,3000,1005,20,80,+SHRA,1000,1,2000,2,3000,3,4000,4
83.5,1.4,-0.105,0.034,0.37,0.6105,-0.099,-0.261,10.321,270,0,0,1,1,1,1,59.60151,5.4591311,3000,1005,20,80,+SHRA,1000,1,2000,2,3000,3,4000,4
84,1.4,-0.0605,-0.0845,0.644,0.6135,-0.042,-0.219,10.148,270,0,0,1,1,1,1,59.60151,5.4591311,3000,1005,20,80,+SHRA,1000,1,2000,2,3000,3,4000,4
84.5,1.4,-0.0055,-0.219,0.858,0.561,0.039,-0.155,9.926,270,0,0,1,1,1,1,59.60151,5.4591311,3000,1005,20,80,+SHRA,1000,1,2000,2,3000,3,4000,4
85,1.4,0.058,-0.357,0.9915,0.4535,0.121,-0.046,9.692,270,0,0,1,1,1,1,59.60151,5.4591311,3000,1005,20,80,+SHRA,1000,1,2000,2,3000,3,4000,4
85.5,1.4,0.1285,-0.4845,1.0305,0.3015,0.204,0.046,9.463,270,0,0,1,1,1,1,59.60151,5.4591311,3000,1005,20,80,+SHRA,1000,1,2000,2,3000,3,4000,4
86,1.4,0.198,-0.5895,0.969,0.117,0.278,0.156,9.262,270,0,0,1,1,1,1,59.60151,5.4591311,3000,1005,20,80,+SHRA,1000,1,2000,2,3000,3,4000,4
86.5,1.4,0.2635,-0.6595,0.8125,-0.0815,0.341,0.249,9.108,270,0,0,1,1,1,1,59.60151,5.4591311,3000,1005,20,80,+SHRA,1000,1,2000,2,3000,3,4000,4
87,1.5,0.32,-0.687,0.574,-0.278,0.377,0.302,9.017,270,0,0,1,1,1,1,59.60151,5.4591311,3000,1005,20,80,+SHRA,1000,1,2000,2,3000,3,4000,4
87.5,1.5,0.3625,-0.669,0.2745,-0.449,0.374,0.35,9.013,270,0,0,1,1,1,1,59.60151,5.4591311,3000,1005,20,80,+SHRA,1000,1,2000,2,3000,3,4000,4
88,1.5,0.39,-0.6055,-0.058,-0.583,0.357,0.378,9.069,270,0,0,1,1,1,1,59.60151,5.4591311,3000,1005,20,80,+SHRA,1000,1,2000,2,3000,3,4000,4
88.5,1.5,0.3995,-0.5035,-0.3915,-0.658,0.292,0.337,9.23,270,0,0,1,1,1,1,59.60151,5.4591311,3000,1005,20,80,+SHRA,1000,1,2000,2,3000,3,4000,4
89,1.5,0.3915,-0.3715,-0.6915,-0.669,0.202,0.301,9.448,270,0,0,1,1,1,1,59.60151,5.4591311,3000,1005,20,80,+SHRA,1000,1,2000,2,3000,3,4000,4
89.5,1.5,0.3645,-0.223,-0.9265,-0.605,0.085,0.211,9.741,270,0,0,1,1,1,1,59.60151,5.4591311,3000,1005,20,80,+SHRA,1000,1,2000,2,3000,3,4000,4
90,1.5,0.321,-0.074,-1.0685,-0.4755,-0.027,0.137,10.023,270,0,0,1,1,1,1,59.60151,5.4591311,3000,1005,20,80,+SHRA,1000,1,2000,2,3000,3,4000,4
90.5,1.5,0.2675,0.0595,-1.1015,-0.2925,-0.13,0.055,10.298,270,0,0,1,1,1,1,59.60151,5.4591311,3000,1005,20,80,+SHRA,1000,1,2000,2,3000,3,4000,4
91,1.5,0.209,0.1625,-1.019,-0.079,-0.196,-0.016,10.482,270,0,0,1,1,1,1,59.60151,5.4591311,3000,1005,20,80,+SHRA,1000,1,2000,2,3000,3,4000,4
91.5,1.5,0.152,0.227,-0.833,0.1375,-0.243,-0.036,10.612,270,0,0,1,1,1,1,59.60151,5.4591311,3000,1005,20,80,+SHRA,1000,1,2000,2,3000,3,4000,4
92,1.5,0.102,0.245,-0.563,0.338,-0.241,-0.08,10.634,270,0,0,1,1,1,1,59.60151,5.4591311,3000,1005,20,80,+SHRA,1000,1,2000,2,3000,3,4000,4
92.5,1.5,0.0615,0.2175,-0.2395,0.4955,-0.223,-0.053,10.579,270,0,0,1,1,1,1,59.60151,5.4591311,3000,1005,20,80,+SHRA,1000,1,2000,2,3000,3,4000,4
93,1.6,0.032,0.145,0.103,0.602,-0.173,-0.048,10.452,270,0,0,1,1,1,1,59.60151,5.4591311,3000,1005,20,80,+SHRA,1000,1,2000,2,3000,3,4000,4
93.5,1.6,0.0115,0.038,0.429,0.6405,-0.087,-0.06,10.247,270,0,0,1,1,1,1,59.60151,5.4591311,3000,1005,20,80,+SHRA,1000,1,2000,2,3000,3,4000,4
94,1.6,-0.002,-0.0935,0.705,0.614,0.009,-0.038,10.012,270,0,0,1,1,1,1,59.60151,5.4591311,3000,1005,20,80,+SHRA,1000,1,2000,2,3000,3,4000,4
94.5,1.6,-0.012,-0.2345,0.903,0.5205,0.111,-0.042,9.745,270,0,0,1,1,1,1,59.60151,5.4591311,3000,1005,20,80,+SHRA,1000,1,2000,2,3000,3,4000,4
95,1.6,-0.0245,-0.37,1.0035,0.3775,0.196,-0.052,9.519,270,0,0,1,1,1,1,59.60151,5.4591311,3000,1005,20,80,+SHRA,1000,1,2000,2,3000,3,4000,4
95.5,1.6,-0.0435,-0.488,0.999,0.196,0.287,-0.042,9.295,270,0,0,1,1,1,1,59.60151,5.4591311,3000,1005,20,80,+SHRA,1000,1,2000,2,3000,3,4000,4
96,1.6,-0.072,-0.574,0.892,0.0025,0.329,-0.041,9.18,270,0,0,1,1,1,1,59.60151,5.4591311,3000,1005,20,80,+SHRA,1000,1,2000,2,3000,3,4000,4
96.5,1.6,-0.113,-0.6215,0.6985,-0.1825,0.35,-0.045,9.111,270,0,0,1,1,1,1,59.60151,5.4591311,3000,1005,20,80,+SHRA,1000,1,2000,2,3000,3,4000,4
97,1.6,-0.1635,-0.6255,0.442,-0.3385,0.328,-0.048,9.159,270,0,0,1,1,1,1,59.60151,5.4591311,3000,1005,20,80,+SHRA,1000,1,2000,2,3000,3,4000,4
97.5,1.6,-0.219,-0.5905,0.1535,-0.451,0.301,-0.018,9.231,270,0,0,1,1,1,1,59.60151,5.4591311,3000,1005,20,80,+SHRA,1000,1,2000,2,3000,3,4000,4
98,1.6,-0.2775,-0.5185,-0.1375,-0.5135,0.235,-0.012,9.384,270,0,0,1,1,1,1,59.60151,5.4591311,3000,1005,20,80,+SHRA,1000,1,2000,2,3000,3,4000,4
98.5,1.6,-0.331,-0.42,-0.401,-0.521,0.171,-0.03,9.551,270,0,0,1,1,1,1,59.60151,5.4591311,3000,1005,20,80,+SHRA,1000,1,2000,2,3000,3,4000,4
99,1.7,-0.376,-0.3055,-0.6125,-0.478,0.096,-0.038,9.75,270,0,0,1,1,1,1,59.60151,5.4591311,3000,1005,20,80,+SHRA,1000,1,2000,2,3000,3,4000,4
99.5,1.7,-0.406,-0.1865,-0.7535,-0.388,0.031,-0.055,9.929,270,0,0,1,1,1,1,59.60151,5.4591311,3000,1005,20,80,+SHRA,1000,1,2000,2,3000,3,4000,4
100,1.7,-0.4195,-0.0765,-0.814,-0.269,-0.037,-0.085,10.088,270,0,0,1,1,1,1,59.60151,5.4591311,3000,1005,20,80,+SHRA,1000,1,2000,2,3000,3,4000,4
100.5,1.7,-0.4145,0.0145,-0.7935,-0.128,-0.084,-0.129,10.214,270,0,0,1,1,1,1,59.60151,5.4591311,3000,1005,20,80,+SHRA,1000,1,2000,2,3000,3,4000,4
101,1.7,-0.3895,0.079,-0.6975,0.0145,-0.121,-0.167,10.29,270,0,0,1,1,1,1,59.60151,5.4591311,3000,1005,20,80,+SHRA,1000,1,2000,2,3000,3,4000,4
101.5,1.7,-0.347,0.111,-0.539,0.152,-0.139,-0.198,10.336,270,0,0,1,1,1,1,59.60151,5.4591311,3000,1005,20,80,+SHRA,1000,1,2000,2,3000,3,4000,4
102,1.7,-0.286,0.109,-0.336,0.268,-0.132,-0.227,10.316,270,0,0,1,1,1,1,59.60151,5.4591311,3000,1005,20,80,+SHRA,1000,1,2000,2,3000,3,4000,4
102.5,1.7,-0.2125,0.076,-0.109,0.3575,-0.121,-0.235,10.282,270,0,0,1,1,1,1,59.60151,5.4591311,3000,1005,20,80,+SHRA,1000,1,2000,2,3000,3,4000,4
103,1.7,-0.1305,0.0145,0.1205,0.41,-0.073,-0.215,10.183,270,0,0,1,1,1,1,59.60151,5.4591311,3000,1005,20,80,+SHRA,1000,1,2000,2,3000,3,4000,4
103.5,1.7,-0.046,-0.067,0.331,0.4255,-0.029,-0.158,10.083,270,0,0,1,1,1,1,59.60151,5.4591311,3000,1005,20,80,+SHRA,1000,1,2000,2,3000,3,4000,4
104,1.7,0.0355,-0.161,0.5055,0.403,0.037,-0.103,9.935,270,0,0,1,1,1,1,59.60151,5.4591311,3000,1005,20,80,+SHRA,1000,1,2000,2,3000,3,4000,4
104.5,1.7,0.108,-0.2595,0.6285,0.343,0.094,-0.048,9.797,270,0,0,1,1,1,1,59.60151,5.4591311,3000,1005,20,80,+SHRA,1000,1,2000,2,3000,3,4000,4
105,1.8,0.167,-0.352,0.6885,0.2505,0.167,0.031,9.624,270,0,0,1,1,1,1,59.60151,5.4591311,3000,1005,20,80,+SHRA,1000,1,2000,2,3000,3,4000,4
105.5,1.8,0.211,-0.429,0.68,0.1305,0.221,0.102,9.482,270,0,0,1,1,1,1,59.60151,5.4591311,3000,1005,20,80,+SHRA,1000,1,2000,2,3000,3,4000,4
106,1.8,0.2375,-0.4835,0.6035,-0.0025,0.267,0.178,9.363,270,0,0,1,1,1,1,59.60151,5.4591311,3000,1005,20,80,+SHRA,1000,1,2000,2,3000,3,4000,4
106.5,1.8,0.25,-0.5095,0.4655,-0.1385,0.287,0.219,9.295,270,0,0,1,1,1,1,59.60151,5.4591311,3000,1005,20,80,+SHRA,1000,1,2000,2,3000,3,4000,4
107,1.8,0.253,-0.5045,0.2805,-0.258,0.282,0.233,9.287,270,0,0,1,1,1,1,59.60151,5.4591311,3000,1005,20,80,+SHRA,1000,1,2000,2,3000,3,4000,4
107.5,1.8,0.2495,-0.4715,0.0675,-0.3525,0.255,0.214,9.33,270,0,0,1,1,1,1,59.60151,5.4591311,3000,1005,20,80,+SHRA,1000,1,2000,2,3000,3,4000,4
108,1.8,0.2445,-0.4135,-0.1505,-0.4065,0.204,0.185,9.438,270,0,0,1,1,1,1,59.60151,5.4591311,3000,1005,20,80,+SHRA,1000,1,2000,2,3000,3,4000,4
108.5,1.8,0.236,-0.3375,-0.3515,-0.42,0.149,0.156,9.57,270,0,0,1,1,1,1,59.60151,5.4591311,3000,1005,20,80,+SHRA,1000,1,2000,2,3000,3,4000,4
109,1.8,0.2245,-0.2505,-0.514,-0.388,0.082,0.152,9.744,270,0,0,1,1,1,1,59.60151,5.4591311,3000,1005,20,80,+SHRA,1000,1,2000,2,3000,3,4000,4
109.5,1.8,0.2065,-0.162,-0.6215,-0.3175,0.033,0.119,9.895,270,0,0,1,1,1,1,59.60151,5.4591311,3000,1005,20,80,+SHRA,1000,1,2000,2,3000,3,4000,4
110,1.8,0.1805,-0.0805,-0.664,-0.2155,-0.026,0.095,10.054,270,0,0,1,1,1,1,59.60151,5.4591311,3000,1005,20,80,+SHRA,1000,1,2000,2,3000,3,4000,4
110.5,1.8,0.145,-0.0145,-0.638,-0.0945,-0.064,0.086,10.167,270,0,0,1,1,1,1,59.60151,5.4591311,3000,1005,20,80,+SHRA,1000,1,2000,2,3000,3,4000,4
111,1.9,0.1025,0.0315,-0.5475,0.037,-0.1,0.051,10.277,270,0,0,1,1,1,1,59.60151,5.4591311,3000,1005,20,80,+SHRA,1000,1,2000,2,3000,3,4000,4
111.5,1.9,0.0555,0.051,-0.401,0.1655,-0.116,0,10.325,270,0,0,1,1,1,1,59.60151,5.4591311,3000,1005,20,80,+SHRA,1000,1,2000,2,3000,3,4000,4
112,1.9,0.007,0.0435,-0.2125,0.278,-0.117,-0.028,10.336,270,0,0,1,1,1,1,59.60151,5.4591311,3000,1005,20,80,+SHRA,1000,1,2000,2,3000,3,4000,4
112.5,1.9,-0.039,0.009,-0.0015,0.3635,-0.091,-0.049,10.274,270,0,0,1,1,1,1,59.60151,5.4591311,3000,1005,20,80,+SHRA,1000,1,2000,2,3000,3,4000,4
113,1.9,-0.081,-0.0465,0.2105,0.41,-0.054,-0.074,10.177,270,0,0,1,1,1,1,59.60151,5.4591311,3000,1005,20,80,+SHRA,1000,1,2000,2,3000,3,4000,4
113.5,1.9,-0.1175,-0.1205,0.401,0.415,0.005,-0.086,10.025,270,0,0,1,1,1,1,59.60151,5.4591311,3000,1005,20,80,+SHRA,1000,1,2000,2,3000,3,4000,4
114,1.9,-0.1485,-0.2045,0.549,0.371,0.073,-0.102,9.848,270,0,0,1,1,1,1,59.60151,5.4591311,3000,1005,20,80,+SHRA,1000,1,2000,2,3000,3,4000,4
114.5,1.9,-0.1735,-0.2885,0.6385,0.2885,0.137,-0.129,9.672,270,0,0,1,1,1,1,59.60151,5.4591311,3000,1005,20,80,+SHRA,1000,1,2000,2,3000,3,4000,4
115,1.9,-0.195,-0.3625,0.659,0.1725,0.192,-0.146,9.506,270,0,0,1,1,1,1,59.60151,5.4591311,3000,1005,20,80,+SHRA,1000,1,2000,2,3000,3,4000,4
115.5,1.9,-0.2145,-0.42,0.6085,0.042,0.223,-0.151,9.4,270,0,0,1,1,1,1,59.60151,5.4591311,3000,1005,20,80,+SHRA,1000,1,2000,2,3000,3,4000,4
116,1.9,-0.235,-0.4555,0.495,-0.091,0.242,-0.137,9.33,270,0,0,1,1,1,1,59.60151,5.4591311,3000,1005,20,80,+SHRA,1000,1,2000,2,3000,3,4000,4
116.5,1.9,-0.2565,-0.467,0.3315,-0.206,0.226,-0.096,9.34,270,0,0,1,1,1,1,59.60151,5.4591311,3000,1005,20,80,+SHRA,1000,1,2000,2,3000,3,4000,4
117,2,-0.2805,-0.455,0.138,-0.2985,0.219,-0.066,9.369,270,0,0,1,1,1,1,59.60151,5.4591311,3000,1005,20,80,+SHRA,1000,1,2000,2,3000,3,4000,4
117.5,2,-0.305,-0.4195,-0.0645,-0.355,0.183,-0.039,9.472,270,0,0,1,1,1,1,59.60151,5.4591311,3000,1005,20,80,+SHRA,1000,1,2000,2,3000,3,4000,4
118,2,-0.3275,-0.367,-0.2545,-0.3725,0.157,-0.036,9.58,270,0,0,1,1,1,1,59.60151,5.4591311,3000,1005,20,80,+SHRA,1000,1,2000,2,3000,3,4000,4
118.5,2,-0.343,-0.302,-0.413,-0.3515,0.113,-0.019,9.727,270,0,0,1,1,1,1,59.60151,5.4591311,3000,1005,20,80,+SHRA,1000,1,2000,2,3000,3,4000,4
119,2,-0.351,-0.2325,-0.5245,-0.2965,0.073,-0.032,9.86,270,0,0,1,1,1,1,59.60151,5.4591311,3000,1005,20,80,+SHRA,1000,1,2000,2,3000,3,4000,4
119.5,2,-0.3485,-0.1635,-0.58,-0.213,0.026,-0.111,9.999,270,0,0,1,1,1,1,59.60151,5.4591311,3000,1005,20,80,+SHRA,1000,1,2000,2,3000,3,4000,4
120,2,-0.3355,-0.104,-0.576,-0.113,-0.003,-0.139,10.082,270,0,0,1,1,1,1,59.60151,5.4591311,3000,1005,20,80,+SHRA,1000,1,2000,2,3000,3,4000,4
120.5,2,-0.3075,-0.0565,-0.5165,-0.0095,-0.032,-0.19,10.149,270,0,0,1,1,1,1,59.60151,5.4591311,3000,1005,20,80,+SHRA,1000,1,2000,2,3000,3,4000,4
121,2,-0.2695,-0.026,-0.41,0.089,-0.053,-0.178,10.173,270,0,0,1,1,1,1,59.60151,5.4591311,3000,1005,20,80,+SHRA,1000,1,2000,2,3000,3,4000,4
121.5,2,-0.222,-0.013,-0.271,0.171,-0.056,-0.157,10.159,270,0,0,1,1,1,1,59.60151,5.4591311,3000,1005,20,80,+SHRA,1000,1,2000,2,3000,3,4000,4
122,2,-0.1675,-0.017,-0.114,0.2335,-0.05,-0.147,10.123,270,0,0,1,1,1,1,59.60151,5.4591311,3000,1005,20,80,+SHRA,1000,1,2000,2,3000,3,4000,4
122.5,2,-0.106,-0.0395,0.045,0.2685,-0.033,-0.122,10.056,270,0,0,1,1,1,1,59.60151,5.4591311,3000,1005,20,80,+SHRA,1000,1,2000,2,3000,3,4000,4
123,2.1,-0.045,-0.0755,0.192,0.2805,-0.011,-0.079,9.988,270,0,0,1,1,1,1,59.60151,5.4591311,3000,1005,20,80,+SHRA,1000,1,2000,2,3000,3,4000,4
123.5,2.1,0.015,-0.1215,0.314,0.2625,0.032,-0.037,9.875,270,0,0,1,1,1,1,59.60151,5.4591311,3000,1005,20,80,+SHRA,1000,1,2000,2,3000,3,4000,4
124,2.1,0.0725,-0.1735,0.4,0.2235,0.058,0.018,9.801,270,0,0,1,1,1,1,59.60151,5.4591311,3000,1005,20,80,+SHRA,1000,1,2000,2,3000,3,4000,4
124.5,2.1,0.125,-0.2265,0.4455,0.166,0.1,0.056,9.703,270,0,0,1,1,1,1,59.60151,5.4591311,3000,1005,20,80,+SHRA,1000,1,2000,2,3000,3,4000,4
125,2.1,0.1715,-0.2745,0.4485,0.0985,0.12,0.119,9.652,270,0,0,1,1,1,1,59.60151,5.4591311,3000,1005,20,80,+SHRA,1000,1,2000,2,3000,3,4000,4
125.5,2.1,0.21,-0.3145,0.4125,0.0275,0.15,0.172,9.599,270,0,0,1,1,1,1,59.60151,5.4591311,3000,1005,20,80,+SHRA,1000,1,2000,2,3000,3,4000,4
126,2.1,0.239,-0.3445,0.3425,-0.04,0.165,0.193,9.589,270,0,0,1,1,1,1,59.60151,5.4591311,3000,1005,20,80,+SHRA,1000,1,2000,2,3000,3,4000,4
126.5,2.1,0.26,-0.3615,0.2485,-0.0975,0.174,0.205,9.583,270,0,0,1,1,1,1,59.60151,5.4591311,3000,1005,20,80,+SHRA,1000,1,2000,2,3000,3,4000,4
127,2.1,0.269,-0.3645,0.1395,-0.1455,0.171,0.19,9.602,270,0,0,1,1,1,1,59.60151,5.4591311,3000,1005,20,80,+SHRA,1000,1,2000,2,3000,3,4000,4
127.5,2.1,0.2705,-0.355,0.026,-0.1745,0.159,0.148,9.64,270,0,0,1,1,1,1,59.60151,5.4591311,3000,1005,20,80,+SHRA,1000,1,2000,2,3000,3,4000,4
128,2.1,0.265,-0.334,-0.082,-0.19,0.148,0.108,9.675,270,0,0,1,1,1,1,59.60151,5.4591311,3000,1005,20,80,+SHRA,1000,1,2000,2,3000,3,4000,4
128.5,2.1,0.2485,-0.3055,-0.1765,-0.1855,0.115,0.082,9.753,270,0,0,1,1,1,1,59.60151,5.4591311,3000,1005,20,80,+SHRA,1000,1,2000,2,3000,3,4000,4
129,2.2,0.222,-0.2725,-0.2485,-0.166,0.092,0.025,9.805,270,0,0,1,1,1,1,59.60151,5.4591311,3000,1005,20,80,+SHRA,1000,1,2000,2,3000,3,4000,4
129.5,2.2,0.186,-0.2355,-0.2945,-0.1325,0.067,0.03,9.865,270,0,0,1,1,1,1,59.60151,5.4591311,3000,1005,20,80,+SHRA,1000,1,2000,2,3000,3,4000,4
130,2.2,0.14,-0.2025,-0.3125,-0.0935,0.056,-0.004,9.886,270,0,0,1,1,1,1,59.60151,5.4591311,3000,1005,20,80,+SHRA,1000,1,2000,2,3000,3,4000,4
130.5,2.2,0.083,-0.1725,-0.3045,-0.0515,0.031,-0.007,9.927,270,0,0,1,1,1,1,59.60151,5.4591311,3000,1005,20,80,+SHRA,1000,1,2000,2,3000,3,4000,4
131,2.2,0.0175,-0.1475,-0.274,-0.0125,0.029,-0.013,9.918,270,0,0,1,1,1,1,59.60151,5.4591311,3000,1005,20,80,+SHRA,1000,1,2000,2,3000,3,4000,4
131.5,2.2,-0.0545,-0.126,-0.227,0.0215,0.023,0.001,9.925,270,0,0,1,1,1,1,59.60151,5.4591311,3000,1005,20,80,+SHRA,1000,1,2000,2,3000,3,4000,4
132,2.2,-0.129,-0.11,-0.1685,0.0525,0.01,0.005,9.93,270,0,0,1,1,1,1,59.60151,5.4591311,3000,1005,20,80,+SHRA,1000,1,2000,2,3000,3,4000,4
132.5,2.2,-0.2025,-0.101,-0.1015,0.0815,0.002,-0.006,9.956,270,0,0,1,1,1,1,59.60151,5.4591311,3000,1005,20,80,+SHRA,1000,1,2000,2,3000,3,4000,4
133,2.2,-0.2685,-0.0995,-0.029,0.1125,-0.006,-0.003,9.981,270,0,0,1,1,1,1,59.60151,5.4591311,3000,1005,20,80,+SHRA,1000,1,2000,2,3000,3,4000,4
133.5,2.2,-0.324,-0.108,0.0475,0.1395,-0.006,-0.068,9.997,270,0,0,1,1,1,1,59.60151,5.4591311,3000,1005,20,80,+SHRA,1000,1,2000,2,3000,3,4000,4
134,2.2,-0.363,-0.1265,0.125,0.164,0.003,-0.139,9.991,270,0,0,1,1,1,1,59.60151,5.4591311,3000,1005,20,80,+SHRA,1000,1,2000,2,3000,3,4000,4
134.5,2.2,-0.386,-0.157,0.198,0.1745,0.022,-0.171,9.952,270,0,0,1,1,1,1,59.60151,5.4591311,3000,1005,20,80,+SHRA,1000,1,2000,2,3000,3,4000,4
135,2.3,-0.3925,-0.195,0.259,0.171,0.042,-0.223,9.897,270,0,0,1,1,1,1,59.60151,5.4591311,3000,1005,20,80,+SHRA,1000,1,2000,2,3000,3,4000,4
135.5,2.3,-0.385,-0.2395,0.3005,0.143,0.085,-0.245,9.791,270,0,0,1,1,1,1,59.60151,5.4591311,3000,1005,20,80,+SHRA,1000,1,2000,2,3000,3,4000,4
136,2.3,-0.368,-0.2835,0.314,0.096,0.113,-0.25,9.7,270,0,0,1,1,1,1,59.60151,5.4591311,3000,1005,20,80,+SHRA,1000,1,2000,2,3000,3,4000,4
136.5,2.3,-0.3465,-0.322,0.2935,0.0275,0.154,-0.261,9.586,270,0,0,1,1,1,1,59.60151,5.4591311,3000,1005,20,80,+SHRA,1000,1,2000,2,3000,3,4000,4
137,2.3,-0.323,-0.348,0.2375,-0.05,0.18,-0.199,9.52,270,0,0,1,1,1,1,59.60151,5.4591311,3000,1005,20,80,+SHRA,1000,1,2000,2,3000,3,4000,4
137.5,2.3,-0.301,-0.3605,0.1485,-0.1325,0.209,-0.116,9.446,270,0,0,1,1,1,1,59.60151,5.4591311,3000,1005,20,80,+SHRA,1000,1,2000,2,3000,3,4000,4
138,2.3,-0.284,-0.353,0.032,-0.208,0.208,-0.024,9.448,270,0,0,1,1,1,1,59.60151,5.4591311,3000,1005,20,80,+SHRA,1000,1,2000,2,3000,3,4000,4
138.5,2.3,-0.2695,-0.326,-0.0985,-0.265,0.205,0.017,9.471,270,0,0,1,1,1,1,59.60151,5.4591311,3000,1005,20,80,+SHRA,1000,1,2000,2,3000,3,4000,4
139,2.3,-0.258,-0.281,-0.23,-0.293,0.161,0.046,9.581,270,0,0,1,1,1,1,59.60151,5.4591311,3000,1005,20,80,+SHRA,1000,1,2000,2,3000,3,4000,4
139.5,2.3,-0.246,-0.222,-0.3425,-0.2815,0.113,0.025,9.716,270,0,0,1,1,1,1,59.60151,5.4591311,3000,1005,20,80,+SHRA,1000,1,2000,2,3000,3,4000,4
140,2.3,-0.2335,-0.157,-0.4195,-0.2315,0.047,-0.05,9.889,270,0,0,1,1,1,1,59.60151,5.4591311,3000,1005,20,80,+SHRA,1000,1,2000,2,3000,3,4000,4
140.5,2.3,-0.2165,-0.095,-0.447,-0.145,-0.011,-0.09,10.047,270,0,0,1,1,1,1,59.60151,5.4591311,3000,1005,20,80,+SHRA,1000,1,2000,2,3000,3,4000,4
141,2.4,-0.194,-0.0435,-0.418,-0.035,-0.067,-0.111,10.192,270,0,0,1,1,1,1,59.60151,5.4591311,3000,1005,20,80,+SHRA,1000,1,2000,2,3000,3,4000,4
141.5,2.4,-0.164,-0.0105,-0.332,0.087,-0.104,-0.153,10.289,270,0,0,1,1,1,1,59.60151,5.4591311,3000,1005,20,80,+SHRA,1000,1,2000,2,3000,3,4000,4
142,2.4,-0.126,-0.001,-0.1975,0.204,-0.117,-0.173,10.327,270,0,0,1,1,1,1,59.60151,5.4591311,3000,1005,20,80,+SHRA,1000,1,2000,2,3000,3,4000,4
142.5,2.4,-0.0815,-0.017,-0.0285,0.3025,-0.12,-0.171,10.313,270,0,0,1,1,1,1,59.60151,5.4591311,3000,1005,20,80,+SHRA,1000,1,2000,2,3000,3,4000,4
143,2.4,-0.03,-0.0575,0.1555,0.3675,-0.087,-0.144,10.228,270,0,0,1,1,1,1,59.60151,5.4591311,3000,1005,20,80,+SHRA,1000,1,2000,2,3000,3,4000,4
143.5,2.4,0.024,-0.12,0.3315,0.393,-0.04,-0.118,10.102,270,0,0,1,1,1,1,59.60151,5.4591311,3000,1005,20,80,+SHRA,1000,1,2000,2,3000,3,4000,4
144,2.4,0.077,-0.1975,0.4785,0.371,0.024,-0.073,9.927,270,0,0,1,1,1,1,59.60151,5.4591311,3000,1005,20,80,+SHRA,1000,1,2000,2,3000,3,4000,4
144.5,2.4,0.125,-0.2805,0.577,0.3065,0.081,-0.004,9.756,270,0,0,1,1,1,1,59.60151,5.4591311,3000,1005,20,80,+SHRA,1000,1,2000,2,3000,3,4000,4
145,2.4,0.165,-0.36,0.6135,0.203,0.156,0.061,9.559,270,0,0,1,1,1,1,59.60151,5.4591311,3000,1005,20,80,+SHRA,1000,1,2000,2,3000,3,4000,4
145.5,2.4,0.1955,-0.4265,0.5805,0.071,0.217,0.135,9.4,270,0,0,1,1,1,1,59.60151,5.4591311,3000,1005,20,80,+SHRA,1000,1,2000,2,3000,3,4000,4
146,2.4,0.2165,-0.4705,0.478,-0.075,0.267,0.237,9.268,270,0,0,1,1,1,1,59.60151,5.4591311,3000,1005,20,80,+SHRA,1000,1,2000,2,3000,3,4000,4
146.5,2.4,0.2265,-0.4865,0.315,-0.218,0.284,0.284,9.221,270,0,0,1,1,1,1,59.60151,5.4591311,3000,1005,20,80,+SHRA,1000,1,2000,2,3000,3,4000,4
147,2.5,0.226,-0.471,0.1085,-0.341,0.289,0.324,9.222,270,0,0,1,1,1,1,59.60151,5.4591311,3000,1005,20,80,+SHRA,1000,1,2000,2,3000,3,4000,4
147.5,2.5,0.2155,-0.4245,-0.12,-0.4295,0.267,0.294,9.301,270,0,0,1,1,1,1,59.60151,5.4591311,3000,1005,20,80,+SHRA,1000,1,2000,2,3000,3,4000,4
148,2.5,0.1975,-0.352,-0.344,-0.4685,0.206,0.189,9.455,270,0,0,1,1,1,1,59.60151,5.4591311,3000,1005,20,80,+SHRA,1000,1,2000,2,3000,3,4000,4
148.5,2.5,0.1685,-0.2605,-0.5375,-0.458,0.143,0.103,9.63,270,0,0,1,1,1,1,59.60151,5.4591311,3000,1005,20,80,+SHRA,1000,1,2000,2,3000,3,4000,4
149,2.5,0.1305,-0.16,-0.678,-0.393,0.056,0.008,9.852,270,0,0,1,1,1,1,59.60151,5.4591311,3000,1005,20,80,+SHRA,1000,1,2000,2,3000,3,4000,4
149.5,2.5,0.085,-0.0635,-0.747,-0.284,-0.017,-0.079,10.045,270,0,0,1,1,1,1,59.60151,5.4591311,3000,1005,20,80,+SHRA,1000,1,2000,2,3000,3,4000,4
150,2.5,0.032,0.018,-0.736,-0.14,-0.103,-0.108,10.249,270,0,0,1,1,1,1,59.60151,5.4591311,3000,1005,20,80,+SHRA,1000,1,2000,2,3000,3,4000,4
150.5,2.5,-0.025,0.075,-0.643,0.0225,-0.158,-0.119,10.379,270,0,0,1,1,1,1,59.60151,5.4591311,3000,1005,20,80,+SHRA,1000,1,2000,2,3000,3,4000,4
151,2.5,-0.0815,0.1005,-0.4785,0.183,-0.182,-0.117,10.446,270,0,0,1,1,1,1,59.60151,5.4591311,3000,1005,20,80,+SHRA,1000,1,2000,2,3000,3,4000,4
151.5,2.5,-0.134,0.0895,-0.26,0.319,-0.172,-0.132,10.418,270,0,0,1,1,1,1,59.60151,5.4591311,3000,1005,20,80,+SHRA,1000,1,2000,2,3000,3,4000,4
152,2.5,-0.178,0.048,-0.015,0.415,-0.137,-0.144,10.331,270,0,0,1,1,1,1,59.60151,5.4591311,3000,1005,20,80,+SHRA,1000,1,2000,2,3000,3,4000,4
152.5,2.5,-0.2155,-0.022,0.2285,0.461,-0.073,-0.109,10.174,270,0,0,1,1,1,1,59.60151,5.4591311,3000,1005,20,80,+SHRA,1000,1,2000,2,3000,3,4000,4
153,2.6,-0.2465,-0.107,0.442,0.4525,0.001,-0.041,9.997,270,0,0,1,1,1,1,59.60151,5.4591311,3000,1005,20,80,+SHRA,1000,1,2000,2,3000,3,4000,4
153.5,2.6,-0.273,-0.197,0.6035,0.395,0.083,-0.002,9.797,270,0,0,1,1,1,1,59.60151,5.4591311,3000,1005,20,80,+SHRA,1000,1,2000,2,3000,3,4000,4
154,2.6,-0.2965,-0.2825,0.695,0.293,0.155,0.006,9.604,270,0,0,1,1,1,1,59.60151,5.4591311,3000,1005,20,80,+SHRA,1000,1,2000,2,3000,3,4000,4
154.5,2.6,-0.3175,-0.354,0.7095,0.1655,0.205,0.009,9.459,270,0,0,1,1,1,1,59.60151,5.4591311,3000,1005,20,80,+SHRA,1000,1,2000,2,3000,3,4000,4
155,2.6,-0.337,-0.404,0.6475,0.022,0.253,-0.061,9.349,270,0,0,1,1,1,1,59.60151,5.4591311,3000,1005,20,80,+SHRA,1000,1,2000,2,3000,3,4000,4
155.5,2.6,-0.3555,-0.4285,0.52,-0.113,0.27,-0.14,9.314,270,0,0,1,1,1,1,59.60151,5.4591311,3000,1005,20,80,+SHRA,1000,1,2000,2,3000,3,4000,4
156,2.6,-0.369,-0.426,0.344,-0.229,0.266,-0.239,9.324,270,0,0,1,1,1,1,59.60151,5.4591311,3000,1005,20,80,+SHRA,1000,1,2000,2,3000,3,4000,4
156.5,2.6,-0.382,-0.3985,0.142,-0.3085,0.219,-0.299,9.422,270,0,0,1,1,1,1,59.60151,5.4591311,3000,1005,20,80,+SHRA,1000,1,2000,2,3000,3,4000,4
157,2.6,-0.3895,-0.352,-0.0605,-0.347,0.174,-0.3,9.536,270,0,0,1,1,1,1,59.60151,5.4591311,3000,1005,20,80,+SHRA,1000,1,2000,2,3000,3,4000,4
157.5,2.6,-0.391,-0.2935,-0.2405,-0.3395,0.1,-0.271,9.71,270,0,0,1,1,1,1,59.60151,5.4591311,3000,1005,20,80,+SHRA,1000,1,2000,2,3000,3,4000,4
158,2.6,-0.3855,-0.2345,-0.3775,-0.292,0.051,-0.227,9.852,270,0,0,1,1,1,1,59.60151,5.4591311,3000,1005,20,80,+SHRA,1000,1,2000,2,3000,3,4000,4
158.5,2.6,-0.3735,-0.1815,-0.46,-0.2135,-0.006,-0.182,9.994,270,0,0,1,1,1,1,59.60151,5.4591311,3000,1005,20,80,+SHRA,1000,1,2000,2,3000,3,4000,4
159,2.7,-0.353,-0.1415,-0.4835,-0.1195,-0.034,-0.113,10.075,270,0,0,1,1,1,1,59.60151,5.4591311,3000,1005,20,80,+SHRA,1000,1,2000,2,3000,3,4000,4
159.5,2.7,-0.3235,-0.1155,-0.453,-0.0275,-0.04,-0.069,10.105,270,0,0,1,1,1,1,59.60151,5.4591311,3000,1005,20,80,+SHRA,1000,1,2000,2,3000,3,4000,4
160,2.7,-0.289,-0.107,-0.3795,0.0525,-0.033,-0.025,10.091,270,0,0,1,1,1,1,59.60151,5.4591311,3000,1005,20,80,+SHRA,1000,1,2000,2,3000,3,4000,4
160.5,2.7,-0.2515,-0.11,-0.2795,0.1105,-0.008,0.019,10.037,270,0,0,1,1,1,1,59.60151,5.4591311,3000,1005,20,80,+SHRA,1000,1,2000,2,3000,3,4000,4
161,2.7,-0.2115,-0.123,-0.1675,0.1465,0.012,0.054,9.98,270,0,0,1,1,1,1,59.60151,5.4591311,3000,1005,20,80,+SHRA,1000,1,2000,2,3000,3,4000,4
161.5,2.7,-0.1735,-0.139,-0.058,0.159,0.033,0.071,9.918,270,0,0,1,1,1,1,59.60151,5.4591311,3000,1005,20,80,+SHRA,1000,1,2000,2,3000,3,4000,4
162,2.7,-0.1375,-0.156,0.039,0.1565,0.056,0.097,9.869,270,0,0,1,1,1,1,59.60151,5.4591311,3000,1005,20,80,+SHRA,1000,1,2000,2,3000,3,4000,4
162.5,2.7,-0.105,-0.1715,0.117,0.1395,0.085,0.077,9.812,270,0,0,1,1,1,1,59.60151,5.4591311,3000,1005,20,80,+SHRA,1000,1,2000,2,3000,3,4000,4
163,2.7,-0.075,-0.1825,0.172,0.114,0.088,-0.001,9.786,270,0,0,1,1,1,1,59.60151,5.4591311,3000,1005,20,80,+SHRA,1000,1,2000,2,3000,3,4000,4
163.5,2.7,-0.047,-0.19,0.2035,0.0825,0.103,-0.054,9.746,270,0,0,1,1,1,1,59.60151,5.4591311,3000,1005,20,80,+SHRA,1000,1,2000,2,3000,3,4000,4
164,2.7,-0.018,-0.1925,0.2125,0.0485,0.104,-0.123,9.733,270,0,0,1,1,1,1,59.60151,5.4591311,3000,1005,20,80,+SHRA,1000,1,2000,2,3000,3,4000,4
164.5,2.7,0.01,-0.1915,0.2015,0.017,0.093,-0.156,9.728,270,0,0,1,1,1,1,59.60151,5.4591311,3000,1005,20,80,+SHRA,1000,1,2000,2,3000,3,4000,4
165,2.8,0.039,-0.1885,0.1755,-0.0095,0.086,-0.171,9.747,270,0,0,1,1,1,1,59.60151,5.4591311,3000,1005,20,80,+SHRA,1000,1,2000,2,3000,3,4000,4
165.5,2.8,0.0685,-0.187,0.141,-0.0245,0.083,-0.156,9.773,270,0,0,1,1,1,1,59.60151,5.4591311,3000,1005,20,80,+SHRA,1000,1,2000,2,3000,3,4000,4
166,2.8,0.094,-0.19,0.105,-0.028,0.055,-0.107,9.82,270,0,0,1,1,1,1,59.60151,5.4591311,3000,1005,20,80,+SHRA,1000,1,2000,2,3000,3,4000,4
166.5,2.8,0.1155,-0.2005,0.074,-0.022,0.042,-0.018,9.854,270,0,0,1,1,1,1,59.60151,5.4591311,3000,1005,20,80,+SHRA,1000,1,2000,2,3000,3,4000,4
167,2.8,0.1315,-0.2175,0.0485,-0.019,0.065,0.077,9.819,270,0,0,1,1,1,1,59.60151,5.4591311,3000,1005,20,80,+SHRA,1000,1,2000,2,3000,3,4000,4
167.5,2.8,0.141,-0.237,0.0255,-0.0205,0.071,0.145,9.808,270,0,0,1,1,1,1,59.60151,5.4591311,3000,1005,20,80,+SHRA,1000,1,2000,2,3000,3,4000,4
168,2.8,0.145,-0.258,0.004,-0.027,0.084,0.201,9.776,270,0,0,1,1,1,1,59.60151,5.4591311,3000,1005,20,80,+SHRA,1000,1,2000,2,3000,3,4000,4
168.5,2.8,0.14,-0.2755,-0.0185,-0.0365,0.09,0.219,9.77,270,0,0,1,1,1,1,59.60151,5.4591311,3000,1005,20,80,+SHRA,1000,1,2000,2,3000,3,4000,4
169,2.8,0.124,-0.2865,-0.0425,-0.047,0.109,0.192,9.748,270,0,0,1,1,1,1,59.60151,5.4591311,3000,1005,20,80,+SHRA,1000,1,2000,2,3000,3,4000,4
169.5,2.8,0.095,-0.29,-0.067,-0.0565,0.106,0.191,9.759,270,0,0,1,1,1,1,59.60151,5.4591311,3000,1005,20,80,+SHRA,1000,1,2000,2,3000,3,4000,4
170,2.8,0.052,-0.284,-0.09,-0.06,0.11,0.174,9.771,270,0,0,1,1,1,1,59.60151,5.4591311,3000,1005,20,80,+SHRA,1000,1,2000,2,3000,3,4000,4
170.5,2.8,-0.006,-0.2695,-0.1095,-0.058,0.099,0.097,9.8,270,0,0,1,1,1,1,59.60151,5.4591311,3000,1005,20,80,+SHRA,1000,1,2000,2,3000,3,4000,4
171,2.9,-0.0765,-0.249,-0.1205,-0.046,0.085,0.013,9.833,270,0,0,1,1,1,1,59.60151,5.4591311,3000,1005,20,80,+SHRA,1000,1,2000,2,3000,3,4000,4
171.5,2.9,-0.1555,-0.2245,-0.1215,-0.0295,0.072,-0.075,9.859,270,0,0,1,1,1,1,59.60151,5.4591311,3000,1005,20,80,+SHRA,1000,1,2000,2,3000,3,4000,4
172,2.9,-0.236,-0.199,-0.112,-0.0085,0.058,-0.177,9.88,270,0,0,1,1,1,1,59.60151,5.4591311,3000,1005,20,80,+SHRA,1000,1,2000,2,3000,3,4000,4
172.5,2.9,-0.306,-0.176,-0.093,0.0085,0.055,-0.251,9.866,270,0,0,1,1,1,1,59.60151,5.4591311,3000,1005,20,80,+SHRA,1000,1,2000,2,3000,3,4000,4
173,2.9,-0.3605,-0.1545,-0.068,0.022,0.047,-0.25,9.856,270,0,0,1,1,1,1,59.60151,5.4591311,3000,1005,20,80,+SHRA,1000,1,2000,2,3000,3,4000,4
173.5,2.9,-0.3935,-0.14,-0.042,0.023,0.058,-0.222,9.811,270,0,0,1,1,1,1,59.60151,5.4591311,3000,1005,20,80,+SHRA,1000,1,2000,2,3000,3,4000,4
174,2.9,-0.4035,-0.127,-0.0205,0.0185,0.06,-0.163,9.791,270,0,0,1,1,1,1,59.60151,5.4591311,3000,1005,20,80,+SHRA,1000,1,2000,2,3000,3,4000,4
174.5,2.9,-0.391,-0.117,-0.006,0.004,0.076,-0.103,9.741,270,0,0,1,1,1,1,59.60151,5.4591311,3000,1005,20,80,+SHRA,1000,1,2000,2,3000,3,4000,4
175,2.9,-0.361,-0.1075,-0.001,-0.012,0.077,-0.039,9.74,270,0,0,1,1,1,1,59.60151,5.4591311,3000,1005,20,80,+SHRA,1000,1,2000,2,3000,3,4000,4
175.5,2.9,-0.3195,-0.1015,-0.0045,-0.028,0.08,-0.009,9.731,270,0,0,1,1,1,1,59.60151,5.4591311,3000,1005,20,80,+SHRA,1000,1,2000,2,3000,3,4000,4
176,2.9,-0.272,-0.095,-0.013,-0.0355,0.068,-0.019,9.784,270,0,0,1,1,1,1,59.60151,5.4591311,3000,1005,20,80,+SHRA,1000,1,2000,2,3000,3,4000,4
176.5,2.9,-0.224,-0.092,-0.019,-0.0255,0.05,-0.086,9.844,270,0,0,1,1,1,1,59.60151,5.4591311,3000,1005,20,80,+SHRA,1000,1,2000,2,3000,3,4000,4
177,3,-0.1825,-0.096,-0.015,0.004,0.009,-0.183,9.951,270,0,0,1,1,1,1,59.60151,5.4591311,3000,1005,20,80,+SHRA,1000,1,2000,2,3000,3,4000,4
177.5,3,-0.1495,-0.1105,0.007,0.0515,-0.013,-0.258,10.032,270,0,0,1,1,1,1,59.60151,5.4591311,3000,1005,20,80,+SHRA,1000,1,2000,2,3000,3,4000,4
178,3,-0.125,-0.1375,0.05,0.106,-0.03,-0.272,10.09,270,0,0,1,1,1,1,59.60151,5.4591311,3000,1005,20,80,+SHRA,1000,1,2000,2,3000,3,4000,4
178.5,3,-0.109,-0.1755,0.112,0.159,-0.019,-0.235,10.108,270,0,0,1,1,1,1,59.60151,5.4591311,3000,1005,20,80,+SHRA,1000,1,2000,2,3000,3,4000,4
179,3,-0.1005,-0.2245,0.186,0.2025,-0.007,-0.175,10.094,270,0,0,1,1,1,1,59.60151,5.4591311,3000,1005,20,80,+SHRA,1000,1,2000,2,3000,3,4000,4
179.5,3,-0.0965,-0.2825,0.263,0.2275,0.022,-0.061,10.04,270,0,0,1,1,1,1,59.60151,5.4591311,3000,1005,20,80,+SHRA,1000,1,2000,2,3000,3,4000,4
180,3,-0.0975,-0.345,0.33,0.222,0.078,0.016,9.923,270,0,0,1,1,1,1,59.60151,5.4591311,3000,1005,20,80,+SHRA,1000,1,2000,2,3000,3,4000,4
180.5,3,-0.1005,-0.405,0.3715,0.183,0.126,0.065,9.781,270,0,0,1,1,1,1,59.60151,5.4591311,3000,1005,20,80,+SHRA,1000,1,2000,2,3000,3,4000,4
181,3,-0.105,-0.454,0.375,0.108,0.192,0.123,9.607,270,0,0,1,1,1,1,59.60151,5.4591311,3000,1005,20,80,+SHRA,1000,1,2000,2,3000,3,4000,4
181.5,3,-0.109,-0.486,0.3305,0.0065,0.225,0.138,9.461,270,0,0,1,1,1,1,59.60151,5.4591311,3000,1005,20,80,+SHRA,1000,1,2000,2,3000,3,4000,4
182,3,-0.109,-0.491,0.235,-0.1155,0.264,0.131,9.314,270,0,0,1,1,1,1,59.60151,5.4591311,3000,1005,20,80,+SHRA,1000,1,2000,2,3000,3,4000,4
182.5,3,-0.103,-0.467,0.0905,-0.2435,0.264,0.132,9.233,270,0,0,1,1,1,1,59.60151,5.4591311,3000,1005,20,80,+SHRA,1000,1,2000,2,3000,3,4000,4
183,3.1,-0.0915,-0.4115,-0.0925,-0.36,0.258,0.14,9.21,270,0,0,1,1,1,1,59.60151,5.4591311,3000,1005,20,80,+SHRA,1000,1,2000,2,3000,3,4000,4
183.5,3.1,-0.074,-0.326,-0.2955,-0.446,0.221,0.108,9.279,270,0,0,1,1,1,1,59.60151,5.4591311,3000,1005,20,80,+SHRA,1000,1,2000,2,3000,3,4000,4
184,3.1,-0.048,-0.217,-0.4945,-0.484,0.159,0.079,9.429,270,0,0,1,1,1,1,59.60151,5.4591311,3000,1005,20,80,+SHRA,1000,1,2000,2,3000,3,4000,4
184.5,3.1,-0.0165,-0.097,-0.662,-0.4655,0.086,0.021,9.644,270,0,0,1,1,1,1,59.60151,5.4591311,3000,1005,20,80,+SHRA,1000,1,2000,2,3000,3,4000,4
185,3.1,0.018,0.0225,-0.7725,-0.384,-0.009,-0.05,9.904,270,0,0,1,1,1,1,59.60151,5.4591311,3000,1005,20,80,+SHRA,1000,1,2000,2,3000,3,4000,4
185.5,3.1,0.051,0.1275,-0.804,-0.2475,-0.099,-0.119,10.167,270,0,0,1,1,1,1,59.60151,5.4591311,3000,1005,20,80,+SHRA,1000,1,2000,2,3000,3,4000,4
186,3.1,0.078,0.203,-0.745,-0.0685,-0.175,-0.154,10.407,270,0,0,1,1,1,1,59.60151,5.4591311,3000,1005,20,80,+SHRA,1000,1,2000,2,3000,3,4000,4
186.5,3.1,0.094,0.2365,-0.595,0.1285,-0.21,-0.142,10.553,270,0,0,1,1,1,1,59.60151,5.4591311,3000,1005,20,80,+SHRA,1000,1,2000,2,3000,3,4000,4
187,3.1,0.094,0.2235,-0.3655,0.321,-0.234,-0.109,10.63,270,0,0,1,1,1,1,59.60151,5.4591311,3000,1005,20,80,+SHRA,1000,1,2000,2,3000,3,4000,4
187.5,3.1,0.0785,0.163,-0.0815,0.477,-0.202,-0.057,10.579,270,0,0,1,1,1,1,59.60151,5.4591311,3000,1005,20,80,+SHRA,1000,1,2000,2,3000,3,4000,4
188,3.1,0.0505,0.061,0.225,0.587,-0.168,-0.007,10.484,270,0,0,1,1,1,1,59.60151,5.4591311,3000,1005,20,80,+SHRA,1000,1,2000,2,3000,3,4000,4
188.5,3.1,0.008,-0.072,0.521,0.63,-0.077,0.028,10.26,270,0,0,1,1,1,1,59.60151,5.4591311,3000,1005,20,80,+SHRA,1000,1,2000,2,3000,3,4000,4
189,3.2,-0.042,-0.2205,0.77,0.6035,0.013,0.077,10.032,270,0,0,1,1,1,1,59.60151,5.4591311,3000,1005,20,80,+SHRA,1000,1,2000,2,3000,3,4000,4
189.5,3.2,-0.097,-0.3705,0.944,0.5075,0.143,0.064,9.723,270,0,0,1,1,1,1,59.60151,5.4591311,3000,1005,20,80,+SHRA,1000,1,2000,2,3000,3,4000,4
190,3.2,-0.152,-0.501,1.0195,0.353,0.232,0.048,9.472,270,0,0,1,1,1,1,59.60151,5.4591311,3000,1005,20,80,+SHRA,1000,1,2000,2,3000,3,4000,4
190.5,3.2,-0.1995,-0.6015,0.9875,0.1585,0.332,0.041,9.216,270,0,0,1,1,1,1,59.60151,5.4591311,3000,1005,20,80,+SHRA,1000,1,2000,2,3000,3,4000,4
191,3.2,-0.235,-0.657,0.8485,-0.0595,0.388,0.022,9.047,270,0,0,1,1,1,1,59.60151,5.4591311,3000,1005,20,80,+SHRA,1000,1,2000,2,3000,3,4000,4
191.5,3.2,-0.259,-0.6625,0.6155,-0.2725,0.424,0.004,8.946,270,0,0,1,1,1,1,59.60151,5.4591311,3000,1005,20,80,+SHRA,1000,1,2000,2,3000,3,4000,4
192,3.2,-0.269,-0.617,0.312,-0.461,0.399,-0.037,8.954,270,0,0,1,1,1,1,59.60151,5.4591311,3000,1005,20,80,+SHRA,1000,1,2000,2,3000,3,4000,4
192.5,3.2,-0.2695,-0.5255,-0.0275,-0.5915,0.325,-0.07,9.099,270,0,0,1,1,1,1,59.60151,5.4591311,3000,1005,20,80,+SHRA,1000,1,2000,2,3000,3,4000,4
193,3.2,-0.266,-0.3995,-0.363,-0.653,0.226,-0.101,9.315,270,0,0,1,1,1,1,59.60151,5.4591311,3000,1005,20,80,+SHRA,1000,1,2000,2,3000,3,4000,4
193.5,3.2,-0.2595,-0.253,-0.654,-0.6295,0.096,-0.129,9.62,270,0,0,1,1,1,1,59.60151,5.4591311,3000,1005,20,80,+SHRA,1000,1,2000,2,3000,3,4000,4
194,3.2,-0.2555,-0.106,-0.8645,-0.5295,-0.029,-0.138,9.927,270,0,0,1,1,1,1,59.60151,5.4591311,3000,1005,20,80,+SHRA,1000,1,2000,2,3000,3,4000,4
194.5,3.2,-0.2515,0.0225,-0.9695,-0.365,-0.141,-0.155,10.229,270,0,0,1,1,1,1,59.60151,5.4591311,3000,1005,20,80,+SHRA,1000,1,2000,2,3000,3,4000,4
195,3.3,-0.2495,0.1195,-0.959,-0.1625,-0.208,-0.161,10.433,270,0,0,1,1,1,1,59.60151,5.4591311,3000,1005,20,80,+SHRA,1000,1,2000,2,3000,3,4000,4
195.5,3.3,-0.244,0.1735,-0.838,0.052,-0.246,-0.149,10.57,270,0,0,1,1,1,1,59.60151,5.4591311,3000,1005,20,80,+SHRA,1000,1,2000,2,3000,3,4000,4
196,3.3,-0.233,0.1815,-0.6255,0.247,-0.231,-0.119,10.574,270,0,0,1,1,1,1,59.60151,5.4591311,3000,1005,20,80,+SHRA,1000,1,2000,2,3000,3,4000,4
196.5,3.3,-0.2155,0.1435,-0.353,0.4005,-0.194,-0.084,10.504,270,0,0,1,1,1,1,59.60151,5.4591311,3000,1005,20,80,+SHRA,1000,1,2000,2,3000,3,4000,4
197,3.3,-0.1925,0.068,-0.0565,0.4915,-0.108,-0.056,10.321,270,0,0,1,1,1,1,59.60151,5.4591311,3000,1005,20,80,+SHRA,1000,1,2000,2,3000,3,4000,4
197.5,3.3,-0.164,-0.0335,0.2245,0.515,-0.011,-0.026,10.105,270,0,0,1,1,1,1,59.60151,5.4591311,3000,1005,20,80,+SHRA,1000,1,2000,2,3000,3,4000,4
198,3.3,-0.134,-0.145,0.4575,0.4725,0.081,-0.014,9.86,270,0,0,1,1,1,1,59.60151,5.4591311,3000,1005,20,80,+SHRA,1000,1,2000,2,3000,3,4000,4
198.5,3.3,-0.1045,-0.253,0.617,0.3745,0.164,-0.019,9.643,270,0,0,1,1,1,1,59.60151,5.4591311,3000,1005,20,80,+SHRA,1000,1,2000,2,3000,3,4000,4
199,3.3,-0.0785,-0.345,0.69,0.2395,0.238,0.001,9.449,270,0,0,1,1,1,1,59.60151,5.4591311,3000,1005,20,80,+SHRA,1000,1,2000,2,3000,3,4000,4
199.5,3.3,-0.0555,-0.4095,0.674,0.0845,0.281,0.014,9.325,270,0,0,1,1,1,1,59.60151,5.4591311,3000,1005,20,80,+SHRA,1000,1,2000,2,3000,3,4000,4
200,3.3,-0.039,-0.443,0.5795,-0.0645,0.295,0.035,9.277,270,0,0,1,1,1,1,59.60151,5.4591311,3000,1005,20,80,+SHRA,1000,1,2000,2,3000,3,4000,4
200.5,3.3,-0.028,-0.441,0.4245,-0.1925,0.273,0.029,9.308,270,0,0,1,1,1,1,59.60151,5.4591311,3000,1005,20,80,+SHRA,1000,1,2000,2,3000,3,4000,4
201,3.4,-0.02,-0.411,0.2355,-0.2805,0.231,0.003,9.41,270,0,0,1,1,1,1,59.60151,5.4591311,3000,1005,20,80,+SHRA,1000,1,2000,2,3000,3,4000,4
201.5,3.4,-0.0155,-0.356,0.039,-0.323,0.173,-0.013,9.552,270,0,0,1,1,1,1,59.60151,5.4591311,3000,1005,20,80,+SHRA,1000,1,2000,2,3000,3,4000,4
202,3.4,-0.0115,-0.288,-0.137,-0.3145,0.102,-0.013,9.735,270,0,0,1,1,1,1,59.60151,5.4591311,3000,1005,20,80,+SHRA,1000,1,2000,2,3000,3,4000,4
202.5,3.4,-0.0085,-0.218,-0.272,-0.2645,0.04,-0.013,9.894,270,0,0,1,1,1,1,59.60151,5.4591311,3000,1005,20,80,+SHRA,1000,1,2000,2,3000,3,4000,4
203,3.4,-0.007,-0.1555,-0.3525,-0.182,-0.023,0.01,10.04,270,0,0,1,1,1,1,59.60151,5.4591311,3000,1005,20,80,+SHRA,1000,1,2000,2,3000,3,4000,4
203.5,3.4,-0.009,-0.1095,-0.374,-0.085,-0.055,0.034,10.116,270,0,0,1,1,1,1,59.60151,5.4591311,3000,1005,20,80,+SHRA,1000,1,2000,2,3000,3,4000,4
204,3.4,-0.0125,-0.0845,-0.3415,0.012,-0.075,0.03,10.16,270,0,0,1,1,1,1,59.60151,5.4591311,3000,1005,20,80,+SHRA,1000,1,2000,2,3000,3,4000,4
204.5,3.4,-0.018,-0.0815,-0.266,0.095,-0.065,0.007,10.134,270,0,0,1,1,1,1,59.60151,5.4591311,3000,1005,20,80,+SHRA,1000,1,2000,2,3000,3,4000,4
205,3.4,-0.0235,-0.099,-0.165,0.154,-0.045,-0.018,10.082,270,0,0,1,1,1,1,59.60151,5.4591311,3000,1005,20,80,+SHRA,1000,1,2000,2,3000,3,4000,4
205.5,3.4,-0.0275,-0.1315,-0.055,0.182,0.002,-0.04,9.973,270,0,0,1,1,1,1,59.60151,5.4591311,3000,1005,20,80,+SHRA,1000,1,2000,2,3000,3,4000,4
206,3.4,-0.0305,-0.1735,0.0445,0.1755,0.058,-0.023,9.85,270,0,0,1,1,1,1,59.60151,5.4591311,3000,1005,20,80,+SHRA,1000,1,2000,2,3000,3,4000,4
206.5,3.4,-0.0335,-0.2155,0.118,0.136,0.12,-0.003,9.71,270,0,0,1,1,1,1,59.60151,5.4591311,3000,1005,20,80,+SHRA,1000,1,2000,2,3000,3,4000,4
207,3.5,-0.0385,-0.251,0.1545,0.0695,0.174,0.025,9.591,270,0,0,1,1,1,1,59.60151,5.4591311,3000,1005,20,80,+SHRA,1000,1,2000,2,3000,3,4000,4
207.5,3.5,-0.0475,-0.273,0.149,-0.009,0.209,0.064,9.509,270,0,0,1,1,1,1,59.60151,5.4591311,3000,1005,20,80,+SHRA,1000,1,2000,2,3000,3,4000,4
208,3.5,-0.062,-0.275,0.1045,-0.089,0.22,0.08,9.481,270,0,0,1,1,1,1,59.60151,5.4591311,3000,1005,20,80,+SHRA,1000,1,2000,2,3000,3,4000,4
208.5,3.5,-0.084,-0.2585,0.0315,-0.151,0.203,0.08,9.522,270,0,0,1,1,1,1,59.60151,5.4591311,3000,1005,20,80,+SHRA,1000,1,2000,2,3000,3,4000,4
209,3.5,-0.1095,-0.225,-0.0535,-0.184,0.16,0.04,9.621,270,0,0,1,1,1,1,59.60151,5.4591311,3000,1005,20,80,+SHRA,1000,1,2000,2,3000,3,4000,4
209.5,3.5,-0.138,-0.1815,-0.132,-0.177,0.096,-0.025,9.773,270,0,0,1,1,1,1,59.60151,5.4591311,3000,1005,20,80,+SHRA,1000,1,2000,2,3000,3,4000,4
210,3.5,-0.167,-0.136,-0.1845,-0.133,0.029,-0.097,9.935,270,0,0,1,1,1,1,59.60151,5.4591311,3000,1005,20,80,+SHRA,1000,1,2000,2,3000,3,4000,4
210.5,3.5,-0.1945,-0.0985,-0.1975,-0.053,-0.041,-0.144,10.098,270,0,0,1,1,1,1,59.60151,5.4591311,3000,1005,20,80,+SHRA,1000,1,2000,2,3000,3,4000,4
211,3.5,-0.215,-0.0765,-0.1635,0.044,-0.081,-0.149,10.198,270,0,0,1,1,1,1,59.60151,5.4591311,3000,1005,20,80,+SHRA,1000,1,2000,2,3000,3,4000,4
