Time(s),Time(m),"Roll (deg, +ve R)","Pitch (deg, +ve UP)",Heave (m),Heave Velocity (m/s),AX (m/s^2),AY (m/s^2),AZ (m/s^2),Vessel heading (degT),SOG (knots),COG (M deg),STATUS_MRU (1=OK),STATUS_GYRO (1=OK),STATUS_WIND (1=OK),STATUS_GPS (SOG_VOG) (1=OK),GPS Lat,GPS Lon,Visibility,Air Pressure,Air Temperature,Air Humidity,WX code,Cloud layer 1 altitude,Cloud layer 1 oct,Cloud layer 1 altitude,Cloud layer 1 oct,Cloud layer 1 altitude,Cloud layer 1 oct,Cloud layer 1 altitude,Cloud layer 1 oct
0,0,-0.113,-0.125,0.828,0.848,-0.04,-0.116,10.094,5,0,0,1,1,1,1,59.60151,5.4591311,3000,1005,20,80,#NAME?,1000,1,2000,2,3000,3,4000,4
0.5,0,-0.053,-0.271,1.161,0.828,-0.013,-0.188,10.014,5,0,0,1,1,1,1,59.60151,5.4591311,3000,1005,20,80,#NAME?,1000,1,2000,2,3000,3,4000,4
1,0,0.031,-0.434,1.407,0.752,0.034,-0.223,9.91,5,0,0,1,1,1,1,59.60151,5.4591311,3000,1005,20,80,#NAME?,1000,1,2000,2,3000,3,4000,4
1.5,0,0.135,-0.609,1.55,0.629,0.08,-0.224,9.801,5,0,0,1,1,1,1,59.60151,5.4591311,3000,1005,20,80,#NAME?,1000,1,2000,2,3000,3,4000,4
2,0,0.252,-0.784,1.58,0.449,0.147,-0.184,9.656,5,0,0,1,1,1,1,59.60151,5.4591311,3000,1005,20,80,#NAME?,1000,1,2000,2,3000,3,4000,4
2.5,0,0.378,-0.945,1.488,0.224,0.207,-0.108,9.515,5,0,0,1,1,1,1,59.60151,5.4591311,3000,1005,20,80,#NAME?,1000,1,2000,2,3000,3,4000,4
3,0.1,0.494,-1.079,1.271,-0.047,0.275,-0.024,9.341,5,0,0,1,1,1,1,59.60151,5.4591311,3000,1005,20,80,#NAME?,1000,1,2000,2,3000,3,4000,4
3.5,0.1,0.594,-1.168,0.931,-0.347,0.316,0.056,9.213,5,0,0,1,1,1,1,59.60151,5.4591311,3000,1005,20,80,#NAME?,1000,1,2000,2,3000,3,4000,4
4,0.1,0.667,-1.196,0.484,-0.651,0.349,0.147,9.111,5,0,0,1,1,1,1,59.60151,5.4591311,3000,1005,20,80,#NAME?,1000,1,2000,2,3000,3,4000,4
4.5,0.1,0.704,-1.148,-0.043,-0.926,0.349,0.231,9.095,5,0,0,1,1,1,1,59.60151,5.4591311,3000,1005,20,80,#NAME?,1000,1,2000,2,3000,3,4000,4
5,0.1,0.698,-1.026,-0.607,-1.127,0.315,0.338,9.164,5,0,0,1,1,1,1,59.60151,5.4591311,3000,1005,20,80,#NAME?,1000,1,2000,2,3000,3,4000,4
5.5,0.1,0.647,-0.835,-1.151,-1.223,0.234,0.401,9.34,5,0,0,1,1,1,1,59.60151,5.4591311,3000,1005,20,80,#NAME?,1000,1,2000,2,3000,3,4000,4
6,0.1,0.549,-0.593,-1.613,-1.178,0.128,0.436,9.59,5,0,0,1,1,1,1,59.60151,5.4591311,3000,1005,20,80,#NAME?,1000,1,2000,2,3000,3,4000,4
6.5,0.1,0.415,-0.325,-1.932,-0.996,0.01,0.384,9.895,5,0,0,1,1,1,1,59.60151,5.4591311,3000,1005,20,80,#NAME?,1000,1,2000,2,3000,3,4000,4
7,0.1,0.255,-0.06,-2.057,-0.668,-0.111,0.277,10.225,5,0,0,1,1,1,1,59.60151,5.4591311,3000,1005,20,80,#NAME?,1000,1,2000,2,3000,3,4000,4
7.5,0.1,0.093,0.167,-1.958,-0.252,-0.189,0.134,10.472,5,0,0,1,1,1,1,59.60151,5.4591311,3000,1005,20,80,#NAME?,1000,1,2000,2,3000,3,4000,4
8,0.1,-0.048,0.334,-1.637,0.213,-0.258,-0.003,10.681,5,0,0,1,1,1,1,59.60151,5.4591311,3000,1005,20,80,#NAME?,1000,1,2000,2,3000,3,4000,4
8.5,0.1,-0.152,0.409,-1.122,0.657,-0.255,-0.137,10.712,5,0,0,1,1,1,1,59.60151,5.4591311,3000,1005,20,80,#NAME?,1000,1,2000,2,3000,3,4000,4
9,0.2,-0.199,0.392,-0.476,1.022,-0.245,-0.215,10.694,5,0,0,1,1,1,1,59.60151,5.4591311,3000,1005,20,80,#NAME?,1000,1,2000,2,3000,3,4000,4
9.5,0.2,-0.183,0.278,0.231,1.271,-0.17,-0.271,10.514,5,0,0,1,1,1,1,59.60151,5.4591311,3000,1005,20,80,#NAME?,1000,1,2000,2,3000,3,4000,4
10,0.2,-0.107,0.09,0.909,1.355,-0.082,-0.297,10.273,5,0,0,0,1,1,1,59.60151,5.4591311,3000,1005,20,80,#NAME?,1000,1,2000,2,3000,3,4000,4
10.5,0.2,0.016,-0.158,1.482,1.29,0.007,-0.276,9.992,5,0,0,0,1,1,1,59.60151,5.4591311,3000,1005,20,80,#NAME?,1000,1,2000,2,3000,3,4000,4
11,0.2,0.173,-0.431,1.88,1.057,0.123,-0.224,9.665,5,0,0,0,1,1,1,59.60151,5.4591311,3000,1005,20,80,#NAME?,1000,1,2000,2,3000,3,4000,4
11.5,0.2,0.34,-0.696,2.06,0.72,0.211,-0.174,9.402,5,0,0,0,1,1,1,59.60151,5.4591311,3000,1005,20,80,#NAME?,1000,1,2000,2,3000,3,4000,4
12,0.2,0.499,-0.926,2.004,0.293,0.299,-0.068,9.156,5,0,0,0,1,1,1,59.60151,5.4591311,3000,1005,20,80,#NAME?,1000,1,2000,2,3000,3,4000,4
12.5,0.2,0.626,-1.091,1.724,-0.137,0.325,0.038,9.065,5,0,0,0,1,1,1,59.60151,5.4591311,3000,1005,20,80,#NAME?,1000,1,2000,2,3000,3,4000,4
13,0.2,0.705,-1.178,1.263,-0.546,0.364,0.135,8.993,5,0,0,0,1,1,1,59.60151,5.4591311,3000,1005,20,80,#NAME?,1000,1,2000,2,3000,3,4000,4
13.5,0.2,0.729,-1.178,0.678,-0.863,0.334,0.239,9.101,5,0,0,0,1,1,1,59.60151,5.4591311,3000,1005,20,80,#NAME?,1000,1,2000,2,3000,3,4000,4
14,0.2,0.693,-1.103,0.046,-1.069,0.303,0.284,9.215,5,0,0,0,1,1,1,59.60151,5.4591311,3000,1005,20,80,#NAME?,1000,1,2000,2,3000,3,4000,4
14.5,0.2,0.602,-0.96,-0.564,-1.143,0.212,0.32,9.454,5,0,0,0,1,1,1,59.60151,5.4591311,3000,1005,20,80,#NAME?,1000,1,2000,2,3000,3,4000,4
15,0.3,0.46,-0.772,-1.08,-1.087,0.146,0.345,9.658,5,0,0,0,1,1,1,59.60151,5.4591311,3000,1005,20,80,#NAME?,1000,1,2000,2,3000,3,4000,4
15.5,0.3,0.292,-0.56,-1.453,-0.909,0.045,0.333,9.931,5,0,0,0,1,1,1,59.60151,5.4591311,3000,1005,20,80,#NAME?,1000,1,2000,2,3000,3,4000,4
16,0.3,0.115,-0.354,-1.643,-0.632,-0.025,0.297,10.136,5,0,0,0,1,1,1,59.60151,5.4591311,3000,1005,20,80,#NAME?,1000,1,2000,2,3000,3,4000,4
16.5,0.3,-0.047,-0.174,-1.64,-0.303,-0.087,0.221,10.313,5,0,0,0,1,1,1,59.60151,5.4591311,3000,1005,20,80,#NAME?,1000,1,2000,2,3000,3,4000,4
17,0.3,-0.184,-0.035,-1.453,0.048,-0.118,0.125,10.404,5,0,0,0,1,1,1,59.60151,5.4591311,3000,1005,20,80,#NAME?,1000,1,2000,2,3000,3,4000,4
17.5,0.3,-0.277,0.048,-1.117,0.357,-0.128,-0.03,10.41,5,0,0,0,1,1,1,59.60151,5.4591311,3000,1005,20,80,#NAME?,1000,1,2000,2,3000,3,4000,4
18,0.3,-0.321,0.071,-0.68,0.615,-0.122,-0.165,10.377,5,0,0,0,1,1,1,59.60151,5.4591311,3000,1005,20,80,#NAME?,1000,1,2000,2,3000,3,4000,4
18.5,0.3,-0.315,0.04,-0.198,0.772,-0.079,-0.259,10.241,5,0,0,0,1,1,1,59.60151,5.4591311,3000,1005,20,80,#NAME?,1000,1,2000,2,3000,3,4000,4
19,0.3,-0.259,-0.037,0.27,0.845,-0.053,-0.331,10.128,5,0,0,0,1,1,1,59.60151,5.4591311,3000,1005,20,80,#NAME?,1000,1,2000,2,3000,3,4000,4
19.5,0.3,-0.163,-0.151,0.68,0.82,0.011,-0.318,9.948,5,0,0,0,1,1,1,59.60151,5.4591311,3000,1005,20,80,#NAME?,1000,1,2000,2,3000,3,4000,4
20,0.3,-0.045,-0.285,0.992,0.726,0.041,-0.252,9.84,5,0,0,0,1,1,1,59.60151,5.4591311,3000,1005,20,80,#NAME?,1000,1,2000,2,3000,3,4000,4
20.5,0.3,0.085,-0.431,1.184,0.559,0.115,-0.176,9.661,5,0,0,0,0,1,1,59.60151,5.4591311,3000,1005,20,80,#NAME?,1000,1,2000,2,3000,3,4000,4
21,0.4,0.207,-0.57,1.243,0.347,0.161,-0.086,9.552,5,0,0,0,0,1,1,59.60151,5.4591311,3000,1005,20,80,#NAME?,1000,1,2000,2,3000,3,4000,4
21.5,0.4,0.31,-0.691,1.17,0.108,0.211,-0.024,9.427,5,0,0,0,0,1,1,59.60151,5.4591311,3000,1005,20,80,#NAME?,1000,1,2000,2,3000,3,4000,4
22,0.4,0.373,-0.782,0.975,-0.135,0.216,0.049,9.39,5,0,0,0,0,1,1,59.60151,5.4591311,3000,1005,20,80,#NAME?,1000,1,2000,2,3000,3,4000,4
22.5,0.4,0.388,-0.838,0.689,-0.347,0.214,0.126,9.38,5,0,0,0,0,1,1,59.60151,5.4591311,3000,1005,20,80,#NAME?,1000,1,2000,2,3000,3,4000,4
23,0.4,0.355,-0.853,0.34,-0.527,0.215,0.201,9.397,5,0,0,0,0,1,1,59.60151,5.4591311,3000,1005,20,80,#NAME?,1000,1,2000,2,3000,3,4000,4
23.5,0.4,0.28,-0.829,-0.033,-0.645,0.203,0.286,9.468,5,0,0,0,0,1,1,59.60151,5.4591311,3000,1005,20,80,#NAME?,1000,1,2000,2,3000,3,4000,4
24,0.4,0.173,-0.762,-0.393,-0.699,0.178,0.323,9.562,5,0,0,0,0,1,1,59.60151,5.4591311,3000,1005,20,80,#NAME?,1000,1,2000,2,3000,3,4000,4
24.5,0.4,0.047,-0.665,-0.702,-0.67,0.124,0.317,9.72,5,0,0,0,0,1,1,59.60151,5.4591311,3000,1005,20,80,#NAME?,1000,1,2000,2,3000,3,4000,4
25,0.4,-0.086,-0.548,-0.926,-0.577,0.097,0.278,9.835,5,0,0,0,0,1,1,59.60151,5.4591311,3000,1005,20,80,#NAME?,1000,1,2000,2,3000,3,4000,4
25.5,0.4,-0.211,-0.422,-1.049,-0.425,0.052,0.183,9.974,5,0,0,0,0,1,1,59.60151,5.4591311,3000,1005,20,80,#NAME?,1000,1,2000,2,3000,3,4000,4
26,0.4,-0.313,-0.302,-1.056,-0.232,0.009,0.038,10.079,5,0,0,0,0,1,1,59.60151,5.4591311,3000,1005,20,80,#NAME?,1000,1,2000,2,3000,3,4000,4
26.5,0.4,-0.384,-0.198,-0.952,-0.017,-0.043,-0.101,10.187,5,0,0,0,0,1,1,59.60151,5.4591311,3000,1005,20,80,#NAME?,1000,1,2000,2,3000,3,4000,4
27,0.5,-0.415,-0.126,-0.748,0.197,-0.048,-0.206,10.212,5,0,0,0,0,1,1,59.60151,5.4591311,3000,1005,20,80,#NAME?,1000,1,2000,2,3000,3,4000,4
27.5,0.5,-0.4,-0.089,-0.468,0.382,-0.061,-0.241,10.216,5,0,0,0,0,1,1,59.60151,5.4591311,3000,1005,20,80,#NAME?,1000,1,2000,2,3000,3,4000,4
28,0.5,-0.337,-0.093,-0.145,0.518,-0.049,-0.248,10.157,5,0,0,0,0,1,1,59.60151,5.4591311,3000,1005,20,80,#NAME?,1000,1,2000,2,3000,3,4000,4
28.5,0.5,-0.234,-0.137,0.181,0.589,-0.021,-0.226,10.066,5,0,0,0,0,1,1,59.60151,5.4591311,3000,1005,20,80,#NAME?,1000,1,2000,2,3000,3,4000,4
29,0.5,-0.104,-0.207,0.477,0.595,0.012,-0.193,9.959,5,0,0,0,0,1,1,59.60151,5.4591311,3000,1005,20,80,#NAME?,1000,1,2000,2,3000,3,4000,4
29.5,0.5,0.038,-0.303,0.71,0.538,0.05,-0.17,9.85,5,0,0,0,0,1,1,59.60151,5.4591311,3000,1005,20,80,#NAME?,1000,1,2000,2,3000,3,4000,4
30,0.5,0.176,-0.412,0.862,0.433,0.091,-0.155,9.745,5,0,0,0,0,1,1,59.60151,5.4591311,3000,1005,20,80,#NAME?,1000,1,2000,2,3000,3,4000,4
30.5,0.5,0.293,-0.522,0.922,0.293,0.131,-0.086,9.659,5,0,0,0,0,0,1,59.60151,5.4591311,3000,1005,20,80,#NAME?,1000,1,2000,2,3000,3,4000,4
31,0.5,0.381,-0.623,0.891,0.141,0.143,0.014,9.609,5,0,0,0,0,0,1,59.60151,5.4591311,3000,1005,20,80,#NAME?,1000,1,2000,2,3000,3,4000,4
31.5,0.5,0.423,-0.705,0.778,-0.018,0.168,0.097,9.556,5,0,0,0,0,0,1,59.60151,5.4591311,3000,1005,20,80,#NAME?,1000,1,2000,2,3000,3,4000,4
32,0.5,0.417,-0.767,0.599,-0.168,0.183,0.179,9.531,5,0,0,0,0,0,1,59.60151,5.4591311,3000,1005,20,80,#NAME?,1000,1,2000,2,3000,3,4000,4
32.5,0.5,0.364,-0.798,0.369,-0.301,0.187,0.22,9.52,5,0,0,0,0,0,1,59.60151,5.4591311,3000,1005,20,80,#NAME?,1000,1,2000,2,3000,3,4000,4
33,0.6,0.272,-0.796,0.11,-0.409,0.185,0.26,9.544,5,0,0,0,0,0,1,59.60151,5.4591311,3000,1005,20,80,#NAME?,1000,1,2000,2,3000,3,4000,4
33.5,0.6,0.156,-0.757,-0.154,-0.478,0.175,0.284,9.588,5,0,0,0,0,0,1,59.60151,5.4591311,3000,1005,20,80,#NAME?,1000,1,2000,2,3000,3,4000,4
34,0.6,0.028,-0.688,-0.4,-0.497,0.14,0.275,9.675,5,0,0,0,0,0,1,59.60151,5.4591311,3000,1005,20,80,#NAME?,1000,1,2000,2,3000,3,4000,4
34.5,0.6,-0.095,-0.595,-0.601,-0.465,0.109,0.209,9.764,5,0,0,0,0,0,1,59.60151,5.4591311,3000,1005,20,80,#NAME?,1000,1,2000,2,3000,3,4000,4
35,0.6,-0.202,-0.488,-0.739,-0.383,0.065,0.118,9.875,5,0,0,0,0,0,1,59.60151,5.4591311,3000,1005,20,80,#NAME?,1000,1,2000,2,3000,3,4000,4
35.5,0.6,-0.283,-0.383,-0.796,-0.259,0.03,0.012,9.965,5,0,0,0,0,0,1,59.60151,5.4591311,3000,1005,20,80,#NAME?,1000,1,2000,2,3000,3,4000,4
36,0.6,-0.33,-0.287,-0.77,-0.109,-0.009,-0.094,10.05,5,0,0,0,0,0,1,59.60151,5.4591311,3000,1005,20,80,#NAME?,1000,1,2000,2,3000,3,4000,4
36.5,0.6,-0.337,-0.216,-0.663,0.054,-0.037,-0.15,10.106,5,0,0,0,0,0,1,59.60151,5.4591311,3000,1005,20,80,#NAME?,1000,1,2000,2,3000,3,4000,4
37,0.6,-0.317,-0.173,-0.488,0.204,-0.047,-0.19,10.122,5,0,0,0,0,0,1,59.60151,5.4591311,3000,1005,20,80,#NAME?,1000,1,2000,2,3000,3,4000,4
37.5,0.6,-0.272,-0.163,-0.265,0.332,-0.037,-0.214,10.108,5,0,0,0,0,0,1,59.60151,5.4591311,3000,1005,20,80,#NAME?,1000,1,2000,2,3000,3,4000,4
38,0.6,-0.212,-0.186,-0.02,0.416,-0.01,-0.189,10.05,5,0,0,0,0,0,1,59.60151,5.4591311,3000,1005,20,80,#NAME?,1000,1,2000,2,3000,3,4000,4
38.5,0.6,-0.154,-0.241,0.217,0.446,0.023,-0.159,9.968,5,0,0,0,0,0,1,59.60151,5.4591311,3000,1005,20,80,#NAME?,1000,1,2000,2,3000,3,4000,4
39,0.7,-0.107,-0.316,0.416,0.412,0.079,-0.152,9.835,5,0,0,0,0,0,1,59.60151,5.4591311,3000,1005,20,80,#NAME?,1000,1,2000,2,3000,3,4000,4
39.5,0.7,-0.082,-0.403,0.549,0.317,0.115,-0.119,9.709,5,0,0,0,0,0,1,59.60151,5.4591311,3000,1005,20,80,#NAME?,1000,1,2000,2,3000,3,4000,4
40,0.7,-0.084,-0.486,0.598,0.167,0.162,-0.061,9.574,5,0,0,0,0,0,1,59.60151,5.4591311,3000,1005,20,80,#NAME?,1000,1,2000,2,3000,3,4000,4
40.5,0.7,-0.109,-0.551,0.552,-0.013,0.201,-0.01,9.481,5,0,0,0,0,0,0,59.60151,5.4591311,3000,1005,20,80,#NAME?,1000,1,2000,2,3000,3,4000,4
41,0.7,-0.149,-0.591,0.421,-0.192,0.206,0.049,9.448,5,0,0,0,0,0,0,59.60151,5.4591311,3000,1005,20,80,#NAME?,1000,1,2000,2,3000,3,4000,4
41.5,0.7,-0.193,-0.597,0.225,-0.339,0.19,0.075,9.485,5,0,0,0,0,0,0,59.60151,5.4591311,3000,1005,20,80,#NAME?,1000,1,2000,2,3000,3,4000,4
42,0.7,-0.234,-0.569,-0.001,-0.428,0.157,0.098,9.573,5,0,0,0,0,0,0,59.60151,5.4591311,3000,1005,20,80,#NAME?,1000,1,2000,2,3000,3,4000,4
42.5,0.7,-0.256,-0.516,-0.217,-0.436,0.1,0.066,9.723,5,0,0,0,0,0,0,59.60151,5.4591311,3000,1005,20,80,#NAME?,1000,1,2000,2,3000,3,4000,4
43,0.7,-0.26,-0.452,-0.383,-0.36,0.034,-0.004,9.902,5,0,0,0,0,0,0,59.60151,5.4591311,3000,1005,20,80,#NAME?,1000,1,2000,2,3000,3,4000,4
43.5,0.7,-0.246,-0.387,-0.465,-0.207,-0.014,-0.071,10.051,5,0,0,0,0,0,0,59.60151,5.4591311,3000,1005,20,80,#NAME?,1000,1,2000,2,3000,3,4000,4
44,0.7,-0.21,-0.337,-0.446,-0.009,-0.073,-0.071,10.213,5,0,0,0,0,0,0,59.60151,5.4591311,3000,1005,20,80,#NAME?,1000,1,2000,2,3000,3,4000,4
44.5,0.7,-0.164,-0.316,-0.322,0.218,-0.078,-0.055,10.281,5,0,0,0,0,0,0,59.60151,5.4591311,3000,1005,20,80,#NAME?,1000,1,2000,2,3000,3,4000,4
45,0.8,-0.115,-0.329,-0.113,0.413,-0.066,-0.054,10.297,5,0,0,0,0,0,0,59.60151,5.4591311,3000,1005,20,80,#NAME?,1000,1,2000,2,3000,3,4000,4
45.5,0.8,-0.063,-0.383,0.158,0.593,-0.061,-0.041,10.295,5,0,0,0,0,0,0,59.60151,5.4591311,3000,1005,20,80,#NAME?,1000,1,2000,2,3000,3,4000,4
46,0.8,-0.01,-0.475,0.448,0.672,0.011,-0.053,10.128,5,0,0,0,0,0,0,59.60151,5.4591311,3000,1005,20,80,#NAME?,1000,1,2000,2,3000,3,4000,4
46.5,0.8,0.044,-0.593,0.707,0.665,0.064,-0.002,9.96,5,0,0,0,0,0,0,59.60151,5.4591311,3000,1005,20,80,#NAME?,1000,1,2000,2,3000,3,4000,4
47,0.8,0.108,-0.719,0.882,0.515,0.172,0.002,9.641,5,0,0,0,0,0,0,59.60151,5.4591311,3000,1005,20,80,#NAME?,1000,1,2000,2,3000,3,4000,4
47.5,0.8,0.175,-0.828,0.923,0.267,0.219,0.002,9.438,5,0,0,0,0,0,0,59.60151,5.4591311,3000,1005,20,80,#NAME?,1000,1,2000,2,3000,3,4000,4
48,0.8,0.251,-0.904,0.809,-0.065,0.31,-0.002,9.166,5,0,0,0,0,0,0,59.60151,5.4591311,3000,1005,20,80,#NAME?,1000,1,2000,2,3000,3,4000,4
48.5,0.8,0.33,-0.918,0.537,-0.415,0.31,-0.003,9.097,5,0,0,0,0,0,0,59.60151,5.4591311,3000,1005,20,80,#NAME?,1000,1,2000,2,3000,3,4000,4
49,0.8,0.41,-0.867,0.138,-0.739,0.33,0.03,9.027,5,0,0,0,0,0,0,59.60151,5.4591311,3000,1005,20,80,#NAME?,1000,1,2000,2,3000,3,4000,4
49.5,0.8,0.489,-0.744,-0.342,-0.988,0.272,0.044,9.148,5,0,0,0,0,0,0,59.60151,5.4591311,3000,1005,20,80,#NAME?,1000,1,2000,2,3000,3,4000,4
50,0.8,0.56,-0.565,-0.832,-1.102,0.195,0.12,9.328,5,0,0,0,0,0,0,59.60151,5.4591311,3000,1005,20,80,#NAME?,1000,1,2000,2,3000,3,4000,4
50.5,0.8,0.62,-0.349,-1.263,-1.08,0.094,0.188,9.618,5,0,0,0,0,0,0,59.60151,5.4591311,3000,1005,20,80,#NAME?,1000,1,2000,2,3000,3,4000,4
51,0.9,0.664,-0.123,-1.56,-0.882,-0.006,0.252,9.942,5,0,0,0,0,0,0,59.60151,5.4591311,3000,1005,20,80,#NAME?,1000,1,2000,2,3000,3,4000,4
51.5,0.9,0.691,0.08,-1.671,-0.565,-0.105,0.295,10.251,5,0,0,0,0,0,0,59.60151,5.4591311,3000,1005,20,80,#NAME?,1000,1,2000,2,3000,3,4000,4
52,0.9,0.7,0.229,-1.563,-0.133,-0.202,0.252,10.537,5,0,0,0,0,0,0,59.60151,5.4591311,3000,1005,20,80,#NAME?,1000,1,2000,2,3000,3,4000,4
52.5,0.9,0.685,0.305,-1.241,0.316,-0.228,0.209,10.672,5,0,0,0,0,0,0,59.60151,5.4591311,3000,1005,20,80,#NAME?,1000,1,2000,2,3000,3,4000,4
53,0.9,0.651,0.293,-0.739,0.747,-0.239,0.176,10.735,5,0,0,0,0,0,0,59.60151,5.4591311,3000,1005,20,80,#NAME?,1000,1,2000,2,3000,3,4000,4
53.5,0.9,0.604,0.192,-0.12,1.072,-0.183,0.121,10.621,5,0,0,0,0,0,0,59.60151,5.4591311,3000,1005,20,80,#NAME?,1000,1,2000,2,3000,3,4000,4
54,0.9,0.543,0.015,0.537,1.285,-0.137,0.041,10.494,5,0,0,0,0,0,0,59.60151,5.4591311,3000,1005,20,80,#NAME?,1000,1,2000,2,3000,3,4000,4
54.5,0.9,0.47,-0.225,1.155,1.336,-0.024,-0.02,10.211,5,0,0,0,0,0,0,59.60151,5.4591311,3000,1005,20,80,#NAME?,1000,1,2000,2,3000,3,4000,4
55,0.9,0.395,-0.497,1.657,1.244,0.042,-0.081,9.979,5,0,0,0,0,0,0,59.60151,5.4591311,3000,1005,20,80,#NAME?,1000,1,2000,2,3000,3,4000,4
55.5,0.9,0.317,-0.775,1.986,1.009,0.158,-0.124,9.647,5,0,0,0,0,0,0,59.60151,5.4591311,3000,1005,20,80,#NAME?,1000,1,2000,2,3000,3,4000,4
56,0.9,0.24,-1.026,2.1,0.66,0.24,-0.128,9.403,5,0,0,0,0,0,0,59.60151,5.4591311,3000,1005,20,80,#NAME?,1000,1,2000,2,3000,3,4000,4
56.5,0.9,0.166,-1.22,1.989,0.241,0.326,-0.11,9.148,5,0,0,0,0,0,0,59.60151,5.4591311,3000,1005,20,80,#NAME?,1000,1,2000,2,3000,3,4000,4
57,1,0.096,-1.337,1.657,-0.214,0.367,-0.065,9.005,5,0,0,0,0,0,0,59.60151,5.4591311,3000,1005,20,80,#NAME?,1000,1,2000,2,3000,3,4000,4
57.5,1,0.032,-1.361,1.141,-0.645,0.391,-0.012,8.92,5,0,0,0,0,0,0,59.60151,5.4591311,3000,1005,20,80,#NAME?,1000,1,2000,2,3000,3,4000,4
58,1,-0.027,-1.291,0.491,-1.02,0.383,0.094,8.941,5,0,0,0,0,0,0,59.60151,5.4591311,3000,1005,20,80,#NAME?,1000,1,2000,2,3000,3,4000,4
58.5,1,-0.08,-1.13,-0.22,-1.275,0.336,0.187,9.072,5,0,0,0,0,0,0,59.60151,5.4591311,3000,1005,20,80,#NAME?,1000,1,2000,2,3000,3,4000,4
59,1,-0.123,-0.897,-0.916,-1.402,0.268,0.269,9.269,5,0,0,0,0,0,0,59.60151,5.4591311,3000,1005,20,80,#NAME?,1000,1,2000,2,3000,3,4000,4
59.5,1,-0.161,-0.619,-1.519,-1.362,0.157,0.251,9.556,5,0,0,0,0,0,0,59.60151,5.4591311,3000,1005,20,80,#NAME?,1000,1,2000,2,3000,3,4000,4
60,1,-0.199,-0.322,-1.964,-1.191,0.06,0.163,9.818,5,0,0,0,0,0,0,59.60151,5.4591311,3000,1005,20,80,#NAME?,1000,1,2000,2,3000,3,4000,4
