Time(s),Time(m),"Roll (deg, +ve R)","Pitch (deg, +ve UP)",Heave (m),Heave Velocity (m/s),AX (m/s^2),AY (m/s^2),AZ (m/s^2),Vessel heading (degT),SOG (knots),COG (M deg),STATUS_MRU (1=OK),STATUS_GYRO (1=OK),STATUS_WIND (1=OK),STATUS_GPS (SOG_VOG) (1=OK),GPS Lat,GPS Lon,Visibility,Air Pressure,Air Temperature,Air Humidity,WX code,Cloud layer 1 altitude,Cloud layer 1 oct,Cloud layer 1 altitude,Cloud layer 1 oct,Cloud layer 1 altitude,Cloud layer 1 oct,Cloud layer 1 altitude,Cloud layer 1 oct
29700,0.0,-0.386,-0.379,0.972,0.684,0.057,-0.004,9.932,279.77,0,0,1,1,1,1,59.60151,5.4591311,3000,1005,20,80,+SHRA,1000,1,2000,2,3000,3,4000,4
29700.5,0.0,-0.406,-0.514,1.168,0.588,0.098,-0.046,9.812,279.77,0,0,1,1,1,1,59.60151,5.4591311,3000,1005,20,80,+SHRA,1000,1,2000,2,3000,3,4000,4
29701,0.0,-0.418,-0.639,1.264,0.449,0.122,-0.106,9.715,279.77,0,0,1,1,1,1,59.60151,5.4591311,3000,1005,20,80,+SHRA,1000,1,2000,2,3000,3,4000,4
29701.5,0.0,-0.426,-0.744,1.254,0.279,0.146,-0.151,9.62,279.77,0,0,1,1,1,1,59.60151,5.4591311,3000,1005,20,80,+SHRA,1000,1,2000,2,3000,3,4000,4
29702,0.0,-0.424,-0.822,1.143,0.088,0.166,-0.174,9.537,279.77,0,0,1,1,1,1,59.60151,5.4591311,3000,1005,20,80,+SHRA,1000,1,2000,2,3000,3,4000,4
29702.5,0.0,-0.418,-0.865,0.939,-0.112,0.189,-0.165,9.464,279.67,0,0,1,1,1,1,59.60151,5.4591311,3000,1005,20,80,+SHRA,1000,1,2000,2,3000,3,4000,4
29703,0.1,-0.407,-0.872,0.659,-0.306,0.196,-0.147,9.424,279.67,0,0,1,1,1,1,59.60151,5.4591311,3000,1005,20,80,+SHRA,1000,1,2000,2,3000,3,4000,4
29703.5,0.1,-0.39,-0.843,0.322,-0.477,0.189,-0.117,9.418,279.67,0,0,1,1,1,1,59.60151,5.4591311,3000,1005,20,80,+SHRA,1000,1,2000,2,3000,3,4000,4
29704,0.1,-0.366,-0.779,-0.042,-0.609,0.17,-0.072,9.447,279.67,0,0,1,1,1,1,59.60151,5.4591311,3000,1005,20,80,+SHRA,1000,1,2000,2,3000,3,4000,4
29704.5,0.1,-0.335,-0.683,-0.403,-0.689,0.144,-0.06,9.512,279.67,0,0,1,1,1,1,59.60151,5.4591311,3000,1005,20,80,+SHRA,1000,1,2000,2,3000,3,4000,4
29705,0.1,-0.303,-0.569,-0.731,-0.71,0.115,-0.03,9.602,279.67,0,0,1,1,1,1,59.60151,5.4591311,3000,1005,20,80,+SHRA,1000,1,2000,2,3000,3,4000,4
29705.5,0.1,-0.269,-0.441,-0.996,-0.667,0.073,-0.031,9.724,279.67,0,0,1,1,1,1,59.60151,5.4591311,3000,1005,20,80,+SHRA,1000,1,2000,2,3000,3,4000,4
29706,0.1,-0.236,-0.315,-1.173,-0.559,0.035,-0.048,9.857,279.67,0,0,1,1,1,1,59.60151,5.4591311,3000,1005,20,80,+SHRA,1000,1,2000,2,3000,3,4000,4
29706.5,0.1,-0.207,-0.201,-1.243,-0.393,-0.004,-0.075,10.003,279.57,0,0,1,1,1,1,59.60151,5.4591311,3000,1005,20,80,+SHRA,1000,1,2000,2,3000,3,4000,4
29707,0.1,-0.184,-0.109,-1.196,-0.18,-0.04,-0.088,10.131,279.57,0,0,1,1,1,1,59.60151,5.4591311,3000,1005,20,80,+SHRA,1000,1,2000,2,3000,3,4000,4
29707.5,0.1,-0.168,-0.049,-1.033,0.055,-0.064,-0.095,10.226,279.57,0,0,1,1,1,1,59.60151,5.4591311,3000,1005,20,80,+SHRA,1000,1,2000,2,3000,3,4000,4
29708,0.1,-0.163,-0.024,-0.769,0.285,-0.068,-0.072,10.273,279.57,0,0,1,1,1,1,59.60151,5.4591311,3000,1005,20,80,+SHRA,1000,1,2000,2,3000,3,4000,4
29708.5,0.1,-0.169,-0.042,-0.43,0.484,-0.056,-0.027,10.266,279.57,0,0,1,1,1,1,59.60151,5.4591311,3000,1005,20,80,+SHRA,1000,1,2000,2,3000,3,4000,4
29709,0.2,-0.182,-0.095,-0.054,0.624,-0.022,0.018,10.193,279.57,0,0,1,1,1,1,59.60151,5.4591311,3000,1005,20,80,+SHRA,1000,1,2000,2,3000,3,4000,4
29709.5,0.2,-0.202,-0.176,0.318,0.688,0.024,0.037,10.077,279.57,0,0,1,1,1,1,59.60151,5.4591311,3000,1005,20,80,+SHRA,1000,1,2000,2,3000,3,4000,4
29710,0.2,-0.226,-0.275,0.641,0.666,0.077,0.057,9.916,279.57,0,0,1,1,1,1,59.60151,5.4591311,3000,1005,20,80,+SHRA,1000,1,2000,2,3000,3,4000,4
29710.5,0.2,-0.25,-0.375,0.879,0.564,0.111,0.081,9.765,279.67,0,0,1,1,1,1,59.60151,5.4591311,3000,1005,20,80,+SHRA,1000,1,2000,2,3000,3,4000,4
29711,0.2,-0.273,-0.466,1.008,0.4,0.136,0.085,9.627,279.67,0,0,1,1,1,1,59.60151,5.4591311,3000,1005,20,80,+SHRA,1000,1,2000,2,3000,3,4000,4
29711.5,0.2,-0.285,-0.533,1.017,0.199,0.154,0.071,9.521,279.77,0,0,1,1,1,1,59.60151,5.4591311,3000,1005,20,80,+SHRA,1000,1,2000,2,3000,3,4000,4
29712,0.2,-0.291,-0.575,0.914,-0.008,0.157,0.02,9.467,279.77,0,0,1,1,1,1,59.60151,5.4591311,3000,1005,20,80,+SHRA,1000,1,2000,2,3000,3,4000,4
29712.5,0.2,-0.29,-0.584,0.72,-0.194,0.139,-0.058,9.469,279.77,0,0,1,1,1,1,59.60151,5.4591311,3000,1005,20,80,+SHRA,1000,1,2000,2,3000,3,4000,4
29713,0.2,-0.277,-0.569,0.467,-0.337,0.118,-0.13,9.512,279.77,0,0,1,1,1,1,59.60151,5.4591311,3000,1005,20,80,+SHRA,1000,1,2000,2,3000,3,4000,4
29713.5,0.2,-0.26,-0.531,0.189,-0.425,0.093,-0.176,9.591,279.77,0,0,1,1,1,1,59.60151,5.4591311,3000,1005,20,80,+SHRA,1000,1,2000,2,3000,3,4000,4
29714,0.2,-0.234,-0.481,-0.079,-0.454,0.074,-0.226,9.679,279.77,0,0,1,1,1,1,59.60151,5.4591311,3000,1005,20,80,+SHRA,1000,1,2000,2,3000,3,4000,4
29714.5,0.2,-0.21,-0.428,-0.308,-0.427,0.051,-0.227,9.778,279.67,0,0,1,1,1,1,59.60151,5.4591311,3000,1005,20,80,+SHRA,1000,1,2000,2,3000,3,4000,4
29715,0.3,-0.189,-0.381,-0.475,-0.351,0.03,-0.17,9.878,279.67,0,0,1,1,1,1,59.60151,5.4591311,3000,1005,20,80,+SHRA,1000,1,2000,2,3000,3,4000,4
29715.5,0.3,-0.179,-0.349,-0.569,-0.244,0.024,-0.12,9.95,279.67,0,0,1,1,1,1,59.60151,5.4591311,3000,1005,20,80,+SHRA,1000,1,2000,2,3000,3,4000,4
29716,0.3,-0.185,-0.335,-0.587,-0.122,0.025,-0.049,10,279.67,0,0,1,1,1,1,59.60151,5.4591311,3000,1005,20,80,+SHRA,1000,1,2000,2,3000,3,4000,4
29716.5,0.3,-0.203,-0.341,-0.536,0.001,0.028,0.034,10.027,279.67,0,0,1,1,1,1,59.60151,5.4591311,3000,1005,20,80,+SHRA,1000,1,2000,2,3000,3,4000,4
29717,0.3,-0.237,-0.366,-0.429,0.114,0.033,0.083,10.039,279.67,0,0,1,1,1,1,59.60151,5.4591311,3000,1005,20,80,+SHRA,1000,1,2000,2,3000,3,4000,4
29717.5,0.3,-0.275,-0.405,-0.283,0.208,0.045,0.134,10.026,279.77,0,0,1,1,1,1,59.60151,5.4591311,3000,1005,20,80,+SHRA,1000,1,2000,2,3000,3,4000,4
29718,0.3,-0.313,-0.455,-0.116,0.278,0.049,0.151,10.004,279.77,0,0,1,1,1,1,59.60151,5.4591311,3000,1005,20,80,+SHRA,1000,1,2000,2,3000,3,4000,4
29718.5,0.3,-0.342,-0.507,0.054,0.315,0.057,0.139,9.959,279.77,0,0,1,1,1,1,59.60151,5.4591311,3000,1005,20,80,+SHRA,1000,1,2000,2,3000,3,4000,4
29719,0.3,-0.362,-0.558,0.209,0.316,0.076,0.078,9.897,279.77,0,0,1,1,1,1,59.60151,5.4591311,3000,1005,20,80,+SHRA,1000,1,2000,2,3000,3,4000,4
29719.5,0.3,-0.369,-0.598,0.329,0.278,0.101,0.016,9.814,279.67,0,0,1,1,1,1,59.60151,5.4591311,3000,1005,20,80,+SHRA,1000,1,2000,2,3000,3,4000,4
29720,0.3,-0.365,-0.62,0.402,0.206,0.118,-0.099,9.741,279.67,0,0,1,1,1,1,59.60151,5.4591311,3000,1005,20,80,+SHRA,1000,1,2000,2,3000,3,4000,4
29720.5,0.3,-0.353,-0.622,0.417,0.104,0.141,-0.203,9.654,279.57,0,0,1,1,1,1,59.60151,5.4591311,3000,1005,20,80,+SHRA,1000,1,2000,2,3000,3,4000,4
29721,0.4,-0.342,-0.594,0.37,-0.023,0.156,-0.234,9.582,279.57,0,0,1,1,1,1,59.60151,5.4591311,3000,1005,20,80,+SHRA,1000,1,2000,2,3000,3,4000,4
29721.5,0.4,-0.33,-0.544,0.263,-0.158,0.16,-0.249,9.526,279.47,0,0,1,1,1,1,59.60151,5.4591311,3000,1005,20,80,+SHRA,1000,1,2000,2,3000,3,4000,4
29722,0.4,-0.329,-0.469,0.105,-0.286,0.145,-0.218,9.514,279.47,0,0,1,1,1,1,59.60151,5.4591311,3000,1005,20,80,+SHRA,1000,1,2000,2,3000,3,4000,4
29722.5,0.4,-0.339,-0.372,-0.085,-0.385,0.123,-0.177,9.535,279.57,0,0,1,1,1,1,59.60151,5.4591311,3000,1005,20,80,+SHRA,1000,1,2000,2,3000,3,4000,4
29723,0.4,-0.357,-0.266,-0.284,-0.444,0.086,-0.124,9.599,279.57,0,0,1,1,1,1,59.60151,5.4591311,3000,1005,20,80,+SHRA,1000,1,2000,2,3000,3,4000,4
29723.5,0.4,-0.384,-0.156,-0.465,-0.447,0.043,-0.107,9.701,279.67,0,0,1,1,1,1,59.60151,5.4591311,3000,1005,20,80,+SHRA,1000,1,2000,2,3000,3,4000,4
29724,0.4,-0.415,-0.061,-0.6,-0.39,0.003,-0.086,9.817,279.67,0,0,1,1,1,1,59.60151,5.4591311,3000,1005,20,80,+SHRA,1000,1,2000,2,3000,3,4000,4
29724.5,0.4,-0.444,0.012,-0.667,-0.277,-0.039,-0.069,9.946,279.67,0,0,1,1,1,1,59.60151,5.4591311,3000,1005,20,80,+SHRA,1000,1,2000,2,3000,3,4000,4
29725,0.4,-0.466,0.05,-0.651,-0.12,-0.068,-0.033,10.063,279.67,0,0,1,1,1,1,59.60151,5.4591311,3000,1005,20,80,+SHRA,1000,1,2000,2,3000,3,4000,4
29725.5,0.4,-0.477,0.049,-0.549,0.06,-0.075,0.035,10.147,279.87,0,0,1,1,1,1,59.60151,5.4591311,3000,1005,20,80,+SHRA,1000,1,2000,2,3000,3,4000,4
29726,0.4,-0.475,0.003,-0.367,0.243,-0.064,0.058,10.189,279.87,0,0,1,1,1,1,59.60151,5.4591311,3000,1005,20,80,+SHRA,1000,1,2000,2,3000,3,4000,4
29726.5,0.4,-0.465,-0.082,-0.124,0.406,-0.055,0.077,10.203,279.87,0,0,1,1,1,1,59.60151,5.4591311,3000,1005,20,80,+SHRA,1000,1,2000,2,3000,3,4000,4
29727,0.5,-0.447,-0.201,0.152,0.526,-0.018,0.057,10.158,279.87,0,0,1,1,1,1,59.60151,5.4591311,3000,1005,20,80,+SHRA,1000,1,2000,2,3000,3,4000,4
29727.5,0.5,-0.428,-0.345,0.43,0.591,0.031,0.007,10.078,279.87,0,0,1,1,1,1,59.60151,5.4591311,3000,1005,20,80,+SHRA,1000,1,2000,2,3000,3,4000,4
29728,0.5,-0.407,-0.495,0.677,0.593,0.078,-0.074,9.97,279.87,0,0,1,1,1,1,59.60151,5.4591311,3000,1005,20,80,+SHRA,1000,1,2000,2,3000,3,4000,4
29728.5,0.5,-0.39,-0.643,0.866,0.535,0.115,-0.14,9.859,279.77,0,0,1,1,1,1,59.60151,5.4591311,3000,1005,20,80,+SHRA,1000,1,2000,2,3000,3,4000,4
29729,0.5,-0.376,-0.773,0.974,0.419,0.157,-0.158,9.732,279.77,0,0,1,1,1,1,59.60151,5.4591311,3000,1005,20,80,+SHRA,1000,1,2000,2,3000,3,4000,4
29729.5,0.5,-0.366,-0.867,0.987,0.26,0.186,-0.172,9.624,279.67,0,0,1,1,1,1,59.60151,5.4591311,3000,1005,20,80,+SHRA,1000,1,2000,2,3000,3,4000,4
29730,0.5,-0.354,-0.922,0.904,0.075,0.207,-0.144,9.529,279.67,0,0,1,1,1,1,59.60151,5.4591311,3000,1005,20,80,+SHRA,1000,1,2000,2,3000,3,4000,4
29730.5,0.5,-0.338,-0.93,0.73,-0.116,0.209,-0.105,9.479,279.67,0,0,1,1,1,1,59.60151,5.4591311,3000,1005,20,80,+SHRA,1000,1,2000,2,3000,3,4000,4
29731,0.5,-0.313,-0.893,0.485,-0.293,0.201,-0.048,9.458,279.67,0,0,1,1,1,1,59.60151,5.4591311,3000,1005,20,80,+SHRA,1000,1,2000,2,3000,3,4000,4
29731.5,0.5,-0.274,-0.817,0.191,-0.44,0.18,0.005,9.471,279.77,0,0,1,1,1,1,59.60151,5.4591311,3000,1005,20,80,+SHRA,1000,1,2000,2,3000,3,4000,4
29732,0.5,-0.223,-0.709,-0.124,-0.547,0.153,0.015,9.507,279.77,0,0,1,1,1,1,59.60151,5.4591311,3000,1005,20,80,+SHRA,1000,1,2000,2,3000,3,4000,4
29732.5,0.5,-0.166,-0.582,-0.43,-0.604,0.111,0.028,9.58,279.77,0,0,1,1,1,1,59.60151,5.4591311,3000,1005,20,80,+SHRA,1000,1,2000,2,3000,3,4000,4
29733,0.6,-0.104,-0.446,-0.699,-0.605,0.07,0.026,9.668,279.77,0,0,1,1,1,1,59.60151,5.4591311,3000,1005,20,80,+SHRA,1000,1,2000,2,3000,3,4000,4
29733.5,0.6,-0.048,-0.314,-0.908,-0.553,0.035,0.006,9.762,279.77,0,0,1,1,1,1,59.60151,5.4591311,3000,1005,20,80,+SHRA,1000,1,2000,2,3000,3,4000,4
29734,0.6,-0.005,-0.194,-1.039,-0.455,0,-0.013,9.859,279.77,0,0,1,1,1,1,59.60151,5.4591311,3000,1005,20,80,+SHRA,1000,1,2000,2,3000,3,4000,4
29734.5,0.6,0.019,-0.097,-1.082,-0.328,-0.018,-0.041,9.933,279.67,0,0,1,1,1,1,59.60151,5.4591311,3000,1005,20,80,+SHRA,1000,1,2000,2,3000,3,4000,4
29735,0.6,0.023,-0.024,-1.04,-0.182,-0.029,-0.065,9.996,279.67,0,0,1,1,1,1,59.60151,5.4591311,3000,1005,20,80,+SHRA,1000,1,2000,2,3000,3,4000,4
29735.5,0.6,0.007,0.019,-0.919,-0.033,-0.029,-0.107,10.031,279.67,0,0,1,1,1,1,59.60151,5.4591311,3000,1005,20,80,+SHRA,1000,1,2000,2,3000,3,4000,4
29736,0.6,-0.023,0.032,-0.734,0.109,-0.029,-0.131,10.061,279.67,0,0,1,1,1,1,59.60151,5.4591311,3000,1005,20,80,+SHRA,1000,1,2000,2,3000,3,4000,4
29736.5,0.6,-0.062,0.02,-0.501,0.238,-0.016,-0.115,10.066,279.67,0,0,1,1,1,1,59.60151,5.4591311,3000,1005,20,80,+SHRA,1000,1,2000,2,3000,3,4000,4
29737,0.6,-0.101,-0.016,-0.238,0.346,-0.005,-0.098,10.071,279.67,0,0,1,1,1,1,59.60151,5.4591311,3000,1005,20,80,+SHRA,1000,1,2000,2,3000,3,4000,4
29737.5,0.6,-0.138,-0.073,0.036,0.433,0.01,-0.049,10.06,279.67,0,0,1,1,1,1,59.60151,5.4591311,3000,1005,20,80,+SHRA,1000,1,2000,2,3000,3,4000,4
29738,0.6,-0.168,-0.145,0.305,0.49,0.026,0.035,10.038,279.67,0,0,1,1,1,1,59.60151,5.4591311,3000,1005,20,80,+SHRA,1000,1,2000,2,3000,3,4000,4
29738.5,0.6,-0.193,-0.233,0.552,0.523,0.039,0.105,10.01,279.87,0,0,1,1,1,1,59.60151,5.4591311,3000,1005,20,80,+SHRA,1000,1,2000,2,3000,3,4000,4
29739,0.7,-0.208,-0.332,0.764,0.523,0.055,0.167,9.966,279.87,0,0,1,1,1,1,59.60151,5.4591311,3000,1005,20,80,+SHRA,1000,1,2000,2,3000,3,4000,4
29739.5,0.7,-0.218,-0.433,0.928,0.496,0.065,0.183,9.918,279.97,0,0,1,1,1,1,59.60151,5.4591311,3000,1005,20,80,+SHRA,1000,1,2000,2,3000,3,4000,4
29740,0.7,-0.229,-0.539,1.034,0.433,0.087,0.168,9.839,279.97,0,0,1,1,1,1,59.60151,5.4591311,3000,1005,20,80,+SHRA,1000,1,2000,2,3000,3,4000,4
29740.5,0.7,-0.244,-0.64,1.073,0.337,0.101,0.103,9.766,279.97,0,0,1,1,1,1,59.60151,5.4591311,3000,1005,20,80,+SHRA,1000,1,2000,2,3000,3,4000,4
29741,0.7,-0.271,-0.725,1.038,0.209,0.127,0.02,9.67,279.97,0,0,1,1,1,1,59.60151,5.4591311,3000,1005,20,80,+SHRA,1000,1,2000,2,3000,3,4000,4
29741.5,0.7,-0.311,-0.791,0.927,0.057,0.144,-0.068,9.595,279.97,0,0,1,1,1,1,59.60151,5.4591311,3000,1005,20,80,+SHRA,1000,1,2000,2,3000,3,4000,4
29742,0.7,-0.365,-0.829,0.743,-0.108,0.164,-0.154,9.524,279.97,0,0,1,1,1,1,59.60151,5.4591311,3000,1005,20,80,+SHRA,1000,1,2000,2,3000,3,4000,4
29742.5,0.7,-0.431,-0.837,0.498,-0.272,0.174,-0.205,9.484,279.77,0,0,1,1,1,1,59.60151,5.4591311,3000,1005,20,80,+SHRA,1000,1,2000,2,3000,3,4000,4
29743,0.7,-0.504,-0.813,0.207,-0.419,0.177,-0.232,9.471,279.77,0,0,1,1,1,1,59.60151,5.4591311,3000,1005,20,80,+SHRA,1000,1,2000,2,3000,3,4000,4
29743.5,0.7,-0.573,-0.757,-0.107,-0.534,0.166,-0.225,9.497,279.77,0,0,1,1,1,1,59.60151,5.4591311,3000,1005,20,80,+SHRA,1000,1,2000,2,3000,3,4000,4
29744,0.7,-0.634,-0.674,-0.418,-0.601,0.145,-0.193,9.554,279.77,0,0,1,1,1,1,59.60151,5.4591311,3000,1005,20,80,+SHRA,1000,1,2000,2,3000,3,4000,4
29744.5,0.7,-0.675,-0.571,-0.698,-0.619,0.114,-0.17,9.638,279.67,0,0,1,1,1,1,59.60151,5.4591311,3000,1005,20,80,+SHRA,1000,1,2000,2,3000,3,4000,4
29745,0.8,-0.691,-0.451,-0.923,-0.578,0.079,-0.167,9.743,279.67,0,0,1,1,1,1,59.60151,5.4591311,3000,1005,20,80,+SHRA,1000,1,2000,2,3000,3,4000,4
29745.5,0.8,-0.675,-0.331,-1.071,-0.488,0.049,-0.141,9.841,279.67,0,0,1,1,1,1,59.60151,5.4591311,3000,1005,20,80,+SHRA,1000,1,2000,2,3000,3,4000,4
29746,0.8,-0.629,-0.219,-1.13,-0.355,0.015,-0.142,9.943,279.67,0,0,1,1,1,1,59.60151,5.4591311,3000,1005,20,80,+SHRA,1000,1,2000,2,3000,3,4000,4
29746.5,0.8,-0.563,-0.122,-1.095,-0.197,-0.007,-0.116,10.017,279.77,0,0,1,1,1,1,59.60151,5.4591311,3000,1005,20,80,+SHRA,1000,1,2000,2,3000,3,4000,4
29747,0.8,-0.484,-0.05,-0.972,-0.025,-0.032,-0.109,10.083,279.77,0,0,1,1,1,1,59.60151,5.4591311,3000,1005,20,80,+SHRA,1000,1,2000,2,3000,3,4000,4
29747.5,0.8,-0.408,-0.004,-0.773,0.138,-0.036,-0.085,10.104,279.77,0,0,1,1,1,1,59.60151,5.4591311,3000,1005,20,80,+SHRA,1000,1,2000,2,3000,3,4000,4
29748,0.8,-0.341,0.012,-0.519,0.286,-0.037,-0.032,10.121,279.77,0,0,1,1,1,1,59.60151,5.4591311,3000,1005,20,80,+SHRA,1000,1,2000,2,3000,3,4000,4
29748.5,0.8,-0.299,-0.003,-0.23,0.405,-0.029,0.013,10.099,279.87,0,0,1,1,1,1,59.60151,5.4591311,3000,1005,20,80,+SHRA,1000,1,2000,2,3000,3,4000,4
29749,0.8,-0.285,-0.047,0.069,0.493,-0.029,0.034,10.084,279.87,0,0,1,1,1,1,59.60151,5.4591311,3000,1005,20,80,+SHRA,1000,1,2000,2,3000,3,4000,4
29749.5,0.8,-0.297,-0.12,0.356,0.541,-0.004,0.031,10.025,279.87,0,0,1,1,1,1,59.60151,5.4591311,3000,1005,20,80,+SHRA,1000,1,2000,2,3000,3,4000,4
29750,0.8,-0.329,-0.215,0.609,0.545,0.022,0.033,9.963,279.87,0,0,1,1,1,1,59.60151,5.4591311,3000,1005,20,80,+SHRA,1000,1,2000,2,3000,3,4000,4
29750.5,0.8,-0.374,-0.319,0.81,0.506,0.052,-0.007,9.879,279.97,0,0,1,1,1,1,59.60151,5.4591311,3000,1005,20,80,+SHRA,1000,1,2000,2,3000,3,4000,4
29751,0.9,-0.422,-0.433,0.942,0.425,0.083,-0.08,9.797,279.97,0,0,1,1,1,1,59.60151,5.4591311,3000,1005,20,80,+SHRA,1000,1,2000,2,3000,3,4000,4
29751.5,0.9,-0.46,-0.543,0.994,0.308,0.121,-0.117,9.703,279.97,0,0,1,1,1,1,59.60151,5.4591311,3000,1005,20,80,+SHRA,1000,1,2000,2,3000,3,4000,4
29752,0.9,-0.481,-0.64,0.963,0.164,0.145,-0.13,9.627,279.97,0,0,1,1,1,1,59.60151,5.4591311,3000,1005,20,80,+SHRA,1000,1,2000,2,3000,3,4000,4
29752.5,0.9,-0.479,-0.716,0.853,0.011,0.159,-0.118,9.578,279.97,0,0,1,1,1,1,59.60151,5.4591311,3000,1005,20,80,+SHRA,1000,1,2000,2,3000,3,4000,4
29753,0.9,-0.452,-0.762,0.673,-0.141,0.171,-0.096,9.547,279.97,0,0,1,1,1,1,59.60151,5.4591311,3000,1005,20,80,+SHRA,1000,1,2000,2,3000,3,4000,4
29753.5,0.9,-0.409,-0.774,0.444,-0.273,0.177,-0.089,9.541,279.87,0,0,1,1,1,1,59.60151,5.4591311,3000,1005,20,80,+SHRA,1000,1,2000,2,3000,3,4000,4
29754,0.9,-0.351,-0.758,0.185,-0.379,0.165,-0.054,9.562,279.87,0,0,1,1,1,1,59.60151,5.4591311,3000,1005,20,80,+SHRA,1000,1,2000,2,3000,3,4000,4
29754.5,0.9,-0.284,-0.714,-0.081,-0.445,0.147,-0.046,9.608,279.87,0,0,1,1,1,1,59.60151,5.4591311,3000,1005,20,80,+SHRA,1000,1,2000,2,3000,3,4000,4
29755,0.9,-0.215,-0.643,-0.329,-0.472,0.133,-0.042,9.662,279.87,0,0,1,1,1,1,59.60151,5.4591311,3000,1005,20,80,+SHRA,1000,1,2000,2,3000,3,4000,4
29755.5,0.9,-0.149,-0.555,-0.538,-0.454,0.099,-0.025,9.741,279.87,0,0,1,1,1,1,59.60151,5.4591311,3000,1005,20,80,+SHRA,1000,1,2000,2,3000,3,4000,4
29756,0.9,-0.094,-0.461,-0.693,-0.397,0.07,-0.014,9.815,279.87,0,0,1,1,1,1,59.60151,5.4591311,3000,1005,20,80,+SHRA,1000,1,2000,2,3000,3,4000,4
29756.5,0.9,-0.049,-0.361,-0.781,-0.308,0.041,0.017,9.892,279.77,0,0,1,1,1,1,59.60151,5.4591311,3000,1005,20,80,+SHRA,1000,1,2000,2,3000,3,4000,4
29757,1.0,-0.021,-0.27,-0.798,-0.197,0.018,0.008,9.946,279.77,0,0,1,1,1,1,59.60151,5.4591311,3000,1005,20,80,+SHRA,1000,1,2000,2,3000,3,4000,4
29757.5,1.0,-0.006,-0.196,-0.746,-0.076,-0.003,0,9.993,279.77,0,0,1,1,1,1,59.60151,5.4591311,3000,1005,20,80,+SHRA,1000,1,2000,2,3000,3,4000,4
29758,1.0,-0.009,-0.141,-0.634,0.045,-0.012,-0.036,10.018,279.77,0,0,1,1,1,1,59.60151,5.4591311,3000,1005,20,80,+SHRA,1000,1,2000,2,3000,3,4000,4
29758.5,1.0,-0.023,-0.113,-0.475,0.154,-0.017,-0.084,10.026,279.77,0,0,1,1,1,1,59.60151,5.4591311,3000,1005,20,80,+SHRA,1000,1,2000,2,3000,3,4000,4
29759,1.0,-0.044,-0.108,-0.286,0.239,-0.007,-0.097,10.002,279.77,0,0,1,1,1,1,59.60151,5.4591311,3000,1005,20,80,+SHRA,1000,1,2000,2,3000,3,4000,4
29759.5,1.0,-0.078,-0.128,-0.088,0.292,0.008,-0.108,9.964,279.77,0,0,1,1,1,1,59.60151,5.4591311,3000,1005,20,80,+SHRA,1000,1,2000,2,3000,3,4000,4
29760,1.0,-0.118,-0.166,0.101,0.313,0.027,-0.07,9.916,279.77,0,0,1,1,1,1,59.60151,5.4591311,3000,1005,20,80,+SHRA,1000,1,2000,2,3000,3,4000,4
29760.5,1.0,-0.168,-0.216,0.264,0.304,0.042,-0.027,9.871,279.87,0,0,1,1,1,1,59.60151,5.4591311,3000,1005,20,80,+SHRA,1000,1,2000,2,3000,3,4000,4
29761,1.0,-0.221,-0.273,0.389,0.27,0.064,0.052,9.822,279.87,0,0,1,1,1,1,59.60151,5.4591311,3000,1005,20,80,+SHRA,1000,1,2000,2,3000,3,4000,4
29761.5,1.0,-0.28,-0.331,0.471,0.219,0.081,0.095,9.793,279.87,0,0,1,1,1,1,59.60151,5.4591311,3000,1005,20,80,+SHRA,1000,1,2000,2,3000,3,4000,4
29762,1.0,-0.337,-0.386,0.51,0.168,0.085,0.099,9.79,279.87,0,0,1,1,1,1,59.60151,5.4591311,3000,1005,20,80,+SHRA,1000,1,2000,2,3000,3,4000,4
29762.5,1.0,-0.387,-0.441,0.515,0.125,0.082,0.079,9.808,279.97,0,0,1,1,1,1,59.60151,5.4591311,3000,1005,20,80,+SHRA,1000,1,2000,2,3000,3,4000,4
29763,1.1,-0.428,-0.494,0.494,0.096,0.082,0.03,9.826,279.97,0,0,1,1,1,1,59.60151,5.4591311,3000,1005,20,80,+SHRA,1000,1,2000,2,3000,3,4000,4
29763.5,1.1,-0.453,-0.544,0.459,0.076,0.083,-0.016,9.833,279.97,0,0,1,1,1,1,59.60151,5.4591311,3000,1005,20,80,+SHRA,1000,1,2000,2,3000,3,4000,4
29764,1.1,-0.463,-0.59,0.412,0.051,0.095,-0.057,9.81,279.97,0,0,1,1,1,1,59.60151,5.4591311,3000,1005,20,80,+SHRA,1000,1,2000,2,3000,3,4000,4
29764.5,1.1,-0.454,-0.631,0.351,0.015,0.108,-0.084,9.77,279.97,0,0,1,1,1,1,59.60151,5.4591311,3000,1005,20,80,+SHRA,1000,1,2000,2,3000,3,4000,4
29765,1.1,-0.434,-0.662,0.272,-0.04,0.117,-0.113,9.719,279.97,0,0,1,1,1,1,59.60151,5.4591311,3000,1005,20,80,+SHRA,1000,1,2000,2,3000,3,4000,4
29765.5,1.1,-0.406,-0.67,0.17,-0.112,0.131,-0.132,9.666,279.87,0,0,1,1,1,1,59.60151,5.4591311,3000,1005,20,80,+SHRA,1000,1,2000,2,3000,3,4000,4
29766,1.1,-0.379,-0.662,0.044,-0.193,0.14,-0.166,9.622,279.87,0,0,1,1,1,1,59.60151,5.4591311,3000,1005,20,80,+SHRA,1000,1,2000,2,3000,3,4000,4
29766.5,1.1,-0.354,-0.631,-0.102,-0.271,0.133,-0.187,9.607,279.77,0,0,1,1,1,1,59.60151,5.4591311,3000,1005,20,80,+SHRA,1000,1,2000,2,3000,3,4000,4
29767,1.1,-0.336,-0.574,-0.259,-0.335,0.124,-0.184,9.615,279.77,0,0,1,1,1,1,59.60151,5.4591311,3000,1005,20,80,+SHRA,1000,1,2000,2,3000,3,4000,4
29767.5,1.1,-0.322,-0.5,-0.414,-0.37,0.106,-0.178,9.656,279.77,0,0,1,1,1,1,59.60151,5.4591311,3000,1005,20,80,+SHRA,1000,1,2000,2,3000,3,4000,4
29768,1.1,-0.318,-0.412,-0.548,-0.366,0.081,-0.164,9.731,279.77,0,0,1,1,1,1,59.60151,5.4591311,3000,1005,20,80,+SHRA,1000,1,2000,2,3000,3,4000,4
29768.5,1.1,-0.321,-0.319,-0.643,-0.319,0.052,-0.135,9.817,279.77,0,0,1,1,1,1,59.60151,5.4591311,3000,1005,20,80,+SHRA,1000,1,2000,2,3000,3,4000,4
29769,1.2,-0.329,-0.235,-0.682,-0.23,0.023,-0.098,9.91,279.77,0,0,1,1,1,1,59.60151,5.4591311,3000,1005,20,80,+SHRA,1000,1,2000,2,3000,3,4000,4
29769.5,1.2,-0.338,-0.166,-0.658,-0.115,0.006,-0.048,9.982,279.77,0,0,1,1,1,1,59.60151,5.4591311,3000,1005,20,80,+SHRA,1000,1,2000,2,3000,3,4000,4
29770,1.2,-0.346,-0.12,-0.571,0.012,0.001,-0.017,10.03,279.77,0,0,1,1,1,1,59.60151,5.4591311,3000,1005,20,80,+SHRA,1000,1,2000,2,3000,3,4000,4
29770.5,1.2,-0.348,-0.102,-0.429,0.131,0.005,0.023,10.038,279.87,0,0,1,1,1,1,59.60151,5.4591311,3000,1005,20,80,+SHRA,1000,1,2000,2,3000,3,4000,4
29771,1.2,-0.342,-0.11,-0.251,0.23,0.008,0.022,10.028,279.87,0,0,1,1,1,1,59.60151,5.4591311,3000,1005,20,80,+SHRA,1000,1,2000,2,3000,3,4000,4
29771.5,1.2,-0.329,-0.139,-0.056,0.297,0.02,0.032,9.995,279.97,0,0,1,1,1,1,59.60151,5.4591311,3000,1005,20,80,+SHRA,1000,1,2000,2,3000,3,4000,4
29772,1.2,-0.306,-0.189,0.137,0.331,0.039,0.021,9.944,279.97,0,0,1,1,1,1,59.60151,5.4591311,3000,1005,20,80,+SHRA,1000,1,2000,2,3000,3,4000,4
29772.5,1.2,-0.277,-0.247,0.307,0.332,0.046,-0.008,9.895,279.97,0,0,1,1,1,1,59.60151,5.4591311,3000,1005,20,80,+SHRA,1000,1,2000,2,3000,3,4000,4
29773,1.2,-0.246,-0.311,0.443,0.306,0.058,-0.047,9.851,279.97,0,0,1,1,1,1,59.60151,5.4591311,3000,1005,20,80,+SHRA,1000,1,2000,2,3000,3,4000,4
29773.5,1.2,-0.213,-0.372,0.537,0.265,0.073,-0.031,9.817,279.97,0,0,1,1,1,1,59.60151,5.4591311,3000,1005,20,80,+SHRA,1000,1,2000,2,3000,3,4000,4
29774,1.2,-0.179,-0.429,0.589,0.219,0.065,-0.022,9.809,279.97,0,0,1,1,1,1,59.60151,5.4591311,3000,1005,20,80,+SHRA,1000,1,2000,2,3000,3,4000,4
29774.5,1.2,-0.152,-0.481,0.605,0.176,0.061,-0.042,9.822,279.87,0,0,1,1,1,1,59.60151,5.4591311,3000,1005,20,80,+SHRA,1000,1,2000,2,3000,3,4000,4
29775,1.3,-0.132,-0.528,0.59,0.136,0.086,-0.012,9.806,279.87,0,0,1,1,1,1,59.60151,5.4591311,3000,1005,20,80,+SHRA,1000,1,2000,2,3000,3,4000,4
29775.5,1.3,-0.12,-0.568,0.551,0.099,0.085,-0.011,9.812,279.87,0,0,1,1,1,1,59.60151,5.4591311,3000,1005,20,80,+SHRA,1000,1,2000,2,3000,3,4000,4
29776,1.3,-0.113,-0.604,0.492,0.057,0.092,-0.004,9.787,279.87,0,0,1,1,1,1,59.60151,5.4591311,3000,1005,20,80,+SHRA,1000,1,2000,2,3000,3,4000,4
29776.5,1.3,-0.115,-0.634,0.41,0.002,0.115,0.032,9.739,279.87,0,0,1,1,1,1,59.60151,5.4591311,3000,1005,20,80,+SHRA,1000,1,2000,2,3000,3,4000,4
29777,1.3,-0.12,-0.655,0.306,-0.067,0.124,0.054,9.691,279.87,0,0,1,1,1,1,59.60151,5.4591311,3000,1005,20,80,+SHRA,1000,1,2000,2,3000,3,4000,4
29777.5,1.3,-0.127,-0.665,0.175,-0.15,0.13,0.037,9.641,279.87,0,0,1,1,1,1,59.60151,5.4591311,3000,1005,20,80,+SHRA,1000,1,2000,2,3000,3,4000,4
29778,1.3,-0.132,-0.659,0.019,-0.244,0.148,0.013,9.586,279.87,0,0,1,1,1,1,59.60151,5.4591311,3000,1005,20,80,+SHRA,1000,1,2000,2,3000,3,4000,4
29778.5,1.3,-0.13,-0.635,-0.159,-0.336,0.153,-0.047,9.558,279.87,0,0,1,1,1,1,59.60151,5.4591311,3000,1005,20,80,+SHRA,1000,1,2000,2,3000,3,4000,4
29779,1.3,-0.127,-0.586,-0.35,-0.418,0.145,-0.083,9.557,279.87,0,0,1,1,1,1,59.60151,5.4591311,3000,1005,20,80,+SHRA,1000,1,2000,2,3000,3,4000,4
29779.5,1.3,-0.12,-0.517,-0.542,-0.474,0.128,-0.127,9.585,279.77,0,0,1,1,1,1,59.60151,5.4591311,3000,1005,20,80,+SHRA,1000,1,2000,2,3000,3,4000,4
29780,1.3,-0.116,-0.43,-0.715,-0.488,0.106,-0.142,9.653,279.77,0,0,1,1,1,1,59.60151,5.4591311,3000,1005,20,80,+SHRA,1000,1,2000,2,3000,3,4000,4
29780.5,1.3,-0.118,-0.33,-0.847,-0.448,0.067,-0.156,9.767,279.77,0,0,1,1,1,1,59.60151,5.4591311,3000,1005,20,80,+SHRA,1000,1,2000,2,3000,3,4000,4
29781,1.4,-0.127,-0.226,-0.915,-0.351,0.026,-0.15,9.893,279.77,0,0,1,1,1,1,59.60151,5.4591311,3000,1005,20,80,+SHRA,1000,1,2000,2,3000,3,4000,4
29781.5,1.4,-0.141,-0.132,-0.902,-0.203,-0.01,-0.136,10.018,279.67,0,0,1,1,1,1,59.60151,5.4591311,3000,1005,20,80,+SHRA,1000,1,2000,2,3000,3,4000,4
29782,1.4,-0.16,-0.058,-0.799,-0.015,-0.04,-0.12,10.134,279.67,0,0,1,1,1,1,59.60151,5.4591311,3000,1005,20,80,+SHRA,1000,1,2000,2,3000,3,4000,4
29782.5,1.4,-0.182,-0.017,-0.606,0.188,-0.059,-0.021,10.21,279.77,0,0,1,1,1,1,59.60151,5.4591311,3000,1005,20,80,+SHRA,1000,1,2000,2,3000,3,4000,4
29783,1.4,-0.208,-0.014,-0.339,0.38,-0.059,0.045,10.237,279.77,0,0,1,1,1,1,59.60151,5.4591311,3000,1005,20,80,+SHRA,1000,1,2000,2,3000,3,4000,4
29783.5,1.4,-0.236,-0.052,-0.023,0.536,-0.042,0.109,10.209,279.87,0,0,1,1,1,1,59.60151,5.4591311,3000,1005,20,80,+SHRA,1000,1,2000,2,3000,3,4000,4
29784,1.4,-0.269,-0.128,0.307,0.633,-0.014,0.189,10.133,279.87,0,0,1,1,1,1,59.60151,5.4591311,3000,1005,20,80,+SHRA,1000,1,2000,2,3000,3,4000,4
29784.5,1.4,-0.307,-0.234,0.614,0.658,0.028,0.214,10.016,279.97,0,0,1,1,1,1,59.60151,5.4591311,3000,1005,20,80,+SHRA,1000,1,2000,2,3000,3,4000,4
29785,1.4,-0.346,-0.36,0.863,0.612,0.067,0.18,9.888,279.97,0,0,1,1,1,1,59.60151,5.4591311,3000,1005,20,80,+SHRA,1000,1,2000,2,3000,3,4000,4
29785.5,1.4,-0.387,-0.491,1.027,0.501,0.109,0.079,9.752,279.97,0,0,1,1,1,1,59.60151,5.4591311,3000,1005,20,80,+SHRA,1000,1,2000,2,3000,3,4000,4
29786,1.4,-0.427,-0.612,1.089,0.341,0.141,-0.051,9.63,279.97,0,0,1,1,1,1,59.60151,5.4591311,3000,1005,20,80,+SHRA,1000,1,2000,2,3000,3,4000,4
29786.5,1.4,-0.465,-0.714,1.042,0.144,0.172,-0.156,9.519,279.97,0,0,1,1,1,1,59.60151,5.4591311,3000,1005,20,80,+SHRA,1000,1,2000,2,3000,3,4000,4
29787,1.5,-0.492,-0.78,0.89,-0.068,0.192,-0.238,9.441,279.97,0,0,1,1,1,1,59.60151,5.4591311,3000,1005,20,80,+SHRA,1000,1,2000,2,3000,3,4000,4
29787.5,1.5,-0.51,-0.805,0.649,-0.273,0.199,-0.281,9.407,279.77,0,0,1,1,1,1,59.60151,5.4591311,3000,1005,20,80,+SHRA,1000,1,2000,2,3000,3,4000,4
29788,1.5,-0.516,-0.782,0.343,-0.45,0.198,-0.297,9.416,279.77,0,0,1,1,1,1,59.60151,5.4591311,3000,1005,20,80,+SHRA,1000,1,2000,2,3000,3,4000,4
29788.5,1.5,-0.508,-0.717,0.005,-0.573,0.185,-0.256,9.475,279.77,0,0,1,1,1,1,59.60151,5.4591311,3000,1005,20,80,+SHRA,1000,1,2000,2,3000,3,4000,4
29789,1.5,-0.482,-0.619,-0.327,-0.63,0.147,-0.196,9.578,279.77,0,0,1,1,1,1,59.60151,5.4591311,3000,1005,20,80,+SHRA,1000,1,2000,2,3000,3,4000,4
29789.5,1.5,-0.445,-0.492,-0.616,-0.614,0.103,-0.147,9.707,279.67,0,0,1,1,1,1,59.60151,5.4591311,3000,1005,20,80,+SHRA,1000,1,2000,2,3000,3,4000,4
29790,1.5,-0.404,-0.359,-0.83,-0.528,0.059,-0.048,9.843,279.67,0,0,1,1,1,1,59.60151,5.4591311,3000,1005,20,80,+SHRA,1000,1,2000,2,3000,3,4000,4
29790.5,1.5,-0.367,-0.232,-0.947,-0.382,0.006,0.025,9.98,279.77,0,0,1,1,1,1,59.60151,5.4591311,3000,1005,20,80,+SHRA,1000,1,2000,2,3000,3,4000,4
29791,1.5,-0.334,-0.128,-0.957,-0.199,-0.034,0.046,10.089,279.77,0,0,1,1,1,1,59.60151,5.4591311,3000,1005,20,80,+SHRA,1000,1,2000,2,3000,3,4000,4
29791.5,1.5,-0.319,-0.059,-0.86,0.004,-0.057,0.061,10.164,279.77,0,0,1,1,1,1,59.60151,5.4591311,3000,1005,20,80,+SHRA,1000,1,2000,2,3000,3,4000,4
29792,1.5,-0.318,-0.031,-0.67,0.203,-0.075,0.05,10.205,279.77,0,0,1,1,1,1,59.60151,5.4591311,3000,1005,20,80,+SHRA,1000,1,2000,2,3000,3,4000,4
29792.5,1.5,-0.34,-0.052,-0.409,0.379,-0.082,0.016,10.209,279.87,0,0,1,1,1,1,59.60151,5.4591311,3000,1005,20,80,+SHRA,1000,1,2000,2,3000,3,4000,4
29793,1.6,-0.372,-0.115,-0.108,0.505,-0.054,-0.042,10.149,279.87,0,0,1,1,1,1,59.60151,5.4591311,3000,1005,20,80,+SHRA,1000,1,2000,2,3000,3,4000,4
29793.5,1.6,-0.411,-0.217,0.196,0.57,-0.009,-0.067,10.054,279.87,0,0,1,1,1,1,59.60151,5.4591311,3000,1005,20,80,+SHRA,1000,1,2000,2,3000,3,4000,4
29794,1.6,-0.448,-0.345,0.466,0.559,0.045,-0.091,9.917,279.87,0,0,1,1,1,1,59.60151,5.4591311,3000,1005,20,80,+SHRA,1000,1,2000,2,3000,3,4000,4
29794.5,1.6,-0.474,-0.481,0.669,0.477,0.097,-0.137,9.782,279.87,0,0,1,1,1,1,59.60151,5.4591311,3000,1005,20,80,+SHRA,1000,1,2000,2,3000,3,4000,4
29795,1.6,-0.485,-0.61,0.779,0.332,0.161,-0.135,9.63,279.87,0,0,1,1,1,1,59.60151,5.4591311,3000,1005,20,80,+SHRA,1000,1,2000,2,3000,3,4000,4
29795.5,1.6,-0.476,-0.71,0.784,0.146,0.201,-0.118,9.522,279.77,0,0,1,1,1,1,59.60151,5.4591311,3000,1005,20,80,+SHRA,1000,1,2000,2,3000,3,4000,4
29796,1.6,-0.447,-0.772,0.684,-0.062,0.23,-0.104,9.432,279.77,0,0,1,1,1,1,59.60151,5.4591311,3000,1005,20,80,+SHRA,1000,1,2000,2,3000,3,4000,4
29796.5,1.6,-0.402,-0.788,0.493,-0.26,0.231,-0.064,9.416,279.77,0,0,1,1,1,1,59.60151,5.4591311,3000,1005,20,80,+SHRA,1000,1,2000,2,3000,3,4000,4
29797,1.6,-0.344,-0.751,0.238,-0.423,0.223,-0.058,9.433,279.77,0,0,1,1,1,1,59.60151,5.4591311,3000,1005,20,80,+SHRA,1000,1,2000,2,3000,3,4000,4
29797.5,1.6,-0.282,-0.667,-0.048,-0.527,0.178,-0.063,9.527,279.77,0,0,1,1,1,1,59.60151,5.4591311,3000,1005,20,80,+SHRA,1000,1,2000,2,3000,3,4000,4
29798,1.6,-0.22,-0.549,-0.323,-0.556,0.13,-0.057,9.639,279.77,0,0,1,1,1,1,59.60151,5.4591311,3000,1005,20,80,+SHRA,1000,1,2000,2,3000,3,4000,4
29798.5,1.6,-0.163,-0.409,-0.55,-0.511,0.071,-0.069,9.789,279.77,0,0,1,1,1,1,59.60151,5.4591311,3000,1005,20,80,+SHRA,1000,1,2000,2,3000,3,4000,4
29799,1.7,-0.12,-0.27,-0.697,-0.394,0.017,-0.074,9.932,279.77,0,0,1,1,1,1,59.60151,5.4591311,3000,1005,20,80,+SHRA,1000,1,2000,2,3000,3,4000,4
29799.5,1.7,-0.089,-0.147,-0.746,-0.222,-0.044,-0.07,10.079,279.77,0,0,1,1,1,1,59.60151,5.4591311,3000,1005,20,80,+SHRA,1000,1,2000,2,3000,3,4000,4
29800,1.7,-0.074,-0.062,-0.687,-0.014,-0.086,-0.064,10.186,279.77,0,0,1,1,1,1,59.60151,5.4591311,3000,1005,20,80,+SHRA,1000,1,2000,2,3000,3,4000,4
29800.5,1.7,-0.071,-0.024,-0.528,0.197,-0.1,-0.04,10.239,279.67,0,0,1,1,1,1,59.60151,5.4591311,3000,1005,20,80,+SHRA,1000,1,2000,2,3000,3,4000,4
29801,1.7,-0.081,-0.042,-0.29,0.384,-0.09,0.002,10.232,279.67,0,0,1,1,1,1,59.60151,5.4591311,3000,1005,20,80,+SHRA,1000,1,2000,2,3000,3,4000,4
29801.5,1.7,-0.097,-0.112,-0.008,0.512,-0.06,0.051,10.158,279.77,0,0,1,1,1,1,59.60151,5.4591311,3000,1005,20,80,+SHRA,1000,1,2000,2,3000,3,4000,4
29802,1.7,-0.12,-0.219,0.278,0.573,-0.02,0.078,10.059,279.77,0,0,1,1,1,1,59.60151,5.4591311,3000,1005,20,80,+SHRA,1000,1,2000,2,3000,3,4000,4
29802.5,1.7,-0.149,-0.355,0.528,0.553,0.043,0.113,9.905,279.87,0,0,1,1,1,1,59.60151,5.4591311,3000,1005,20,80,+SHRA,1000,1,2000,2,3000,3,4000,4
29803,1.7,-0.185,-0.502,0.709,0.467,0.086,0.111,9.782,279.87,0,0,1,1,1,1,59.60151,5.4591311,3000,1005,20,80,+SHRA,1000,1,2000,2,3000,3,4000,4
29803.5,1.7,-0.223,-0.639,0.8,0.322,0.142,0.098,9.643,279.77,0,0,1,1,1,1,59.60151,5.4591311,3000,1005,20,80,+SHRA,1000,1,2000,2,3000,3,4000,4
29804,1.7,-0.267,-0.751,0.79,0.146,0.179,0.049,9.56,279.77,0,0,1,1,1,1,59.60151,5.4591311,3000,1005,20,80,+SHRA,1000,1,2000,2,3000,3,4000,4
29804.5,1.7,-0.311,-0.824,0.685,-0.045,0.22,-0.034,9.475,279.77,0,0,1,1,1,1,59.60151,5.4591311,3000,1005,20,80,+SHRA,1000,1,2000,2,3000,3,4000,4
29805,1.8,-0.355,-0.852,0.496,-0.227,0.229,-0.112,9.457,279.77,0,0,1,1,1,1,59.60151,5.4591311,3000,1005,20,80,+SHRA,1000,1,2000,2,3000,3,4000,4
29805.5,1.8,-0.395,-0.832,0.248,-0.385,0.233,-0.186,9.447,279.67,0,0,1,1,1,1,59.60151,5.4591311,3000,1005,20,80,+SHRA,1000,1,2000,2,3000,3,4000,4
29806,1.8,-0.428,-0.768,-0.035,-0.505,0.21,-0.234,9.496,279.67,0,0,1,1,1,1,59.60151,5.4591311,3000,1005,20,80,+SHRA,1000,1,2000,2,3000,3,4000,4
29806.5,1.8,-0.453,-0.665,-0.319,-0.569,0.178,-0.247,9.56,279.67,0,0,1,1,1,1,59.60151,5.4591311,3000,1005,20,80,+SHRA,1000,1,2000,2,3000,3,4000,4
29807,1.8,-0.47,-0.532,-0.575,-0.579,0.131,-0.225,9.657,279.67,0,0,1,1,1,1,59.60151,5.4591311,3000,1005,20,80,+SHRA,1000,1,2000,2,3000,3,4000,4
29807.5,1.8,-0.474,-0.385,-0.777,-0.529,0.082,-0.172,9.764,279.57,0,0,1,1,1,1,59.60151,5.4591311,3000,1005,20,80,+SHRA,1000,1,2000,2,3000,3,4000,4
29808,1.8,-0.469,-0.237,-0.904,-0.432,0.035,-0.13,9.865,279.57,0,0,1,1,1,1,59.60151,5.4591311,3000,1005,20,80,+SHRA,1000,1,2000,2,3000,3,4000,4
29808.5,1.8,-0.452,-0.101,-0.943,-0.289,-0.018,-0.091,9.979,279.77,0,0,1,1,1,1,59.60151,5.4591311,3000,1005,20,80,+SHRA,1000,1,2000,2,3000,3,4000,4
29809,1.8,-0.429,0.006,-0.89,-0.12,-0.054,-0.057,10.066,279.77,0,0,1,1,1,1,59.60151,5.4591311,3000,1005,20,80,+SHRA,1000,1,2000,2,3000,3,4000,4
29809.5,1.8,-0.406,0.076,-0.747,0.068,-0.087,-0.034,10.149,279.77,0,0,1,1,1,1,59.60151,5.4591311,3000,1005,20,80,+SHRA,1000,1,2000,2,3000,3,4000,4
29810,1.8,-0.386,0.099,-0.526,0.252,-0.093,0.025,10.181,279.77,0,0,1,1,1,1,59.60151,5.4591311,3000,1005,20,80,+SHRA,1000,1,2000,2,3000,3,4000,4
29810.5,1.8,-0.372,0.074,-0.247,0.418,-0.1,0.003,10.207,279.77,0,0,1,1,1,1,59.60151,5.4591311,3000,1005,20,80,+SHRA,1000,1,2000,2,3000,3,4000,4
29811,1.9,-0.369,-0.001,0.066,0.548,-0.076,0.014,10.176,279.77,0,0,1,1,1,1,59.60151,5.4591311,3000,1005,20,80,+SHRA,1000,1,2000,2,3000,3,4000,4
29811.5,1.9,-0.376,-0.121,0.385,0.639,-0.055,-0.002,10.147,279.97,0,0,1,1,1,1,59.60151,5.4591311,3000,1005,20,80,+SHRA,1000,1,2000,2,3000,3,4000,4
29812,1.9,-0.39,-0.277,0.684,0.679,-0.01,-0.013,10.065,279.97,0,0,1,1,1,1,59.60151,5.4591311,3000,1005,20,80,+SHRA,1000,1,2000,2,3000,3,4000,4
29812.5,1.9,-0.408,-0.459,0.935,0.664,0.036,-0.032,9.975,279.97,0,0,1,1,1,1,59.60151,5.4591311,3000,1005,20,80,+SHRA,1000,1,2000,2,3000,3,4000,4
29813,1.9,-0.422,-0.646,1.116,0.588,0.087,-0.019,9.851,279.97,0,0,1,1,1,1,59.60151,5.4591311,3000,1005,20,80,+SHRA,1000,1,2000,2,3000,3,4000,4
29813.5,1.9,-0.428,-0.828,1.205,0.454,0.141,-0.02,9.726,279.87,0,0,1,1,1,1,59.60151,5.4591311,3000,1005,20,80,+SHRA,1000,1,2000,2,3000,3,4000,4
29814,1.9,-0.422,-0.983,1.19,0.272,0.206,-0.054,9.585,279.87,0,0,1,1,1,1,59.60151,5.4591311,3000,1005,20,80,+SHRA,1000,1,2000,2,3000,3,4000,4
29814.5,1.9,-0.403,-1.093,1.065,0.052,0.254,-0.044,9.467,279.77,0,0,1,1,1,1,59.60151,5.4591311,3000,1005,20,80,+SHRA,1000,1,2000,2,3000,3,4000,4
29815,1.9,-0.368,-1.148,0.836,-0.181,0.278,-0.057,9.381,279.77,0,0,1,1,1,1,59.60151,5.4591311,3000,1005,20,80,+SHRA,1000,1,2000,2,3000,3,4000,4
29815.5,1.9,-0.321,-1.142,0.517,-0.413,0.288,-0.065,9.326,279.67,0,0,1,1,1,1,59.60151,5.4591311,3000,1005,20,80,+SHRA,1000,1,2000,2,3000,3,4000,4
29816,1.9,-0.264,-1.067,0.135,-0.613,0.276,-0.081,9.321,279.67,0,0,1,1,1,1,59.60151,5.4591311,3000,1005,20,80,+SHRA,1000,1,2000,2,3000,3,4000,4
29816.5,1.9,-0.206,-0.931,-0.278,-0.767,0.242,-0.093,9.36,279.67,0,0,1,1,1,1,59.60151,5.4591311,3000,1005,20,80,+SHRA,1000,1,2000,2,3000,3,4000,4
29817,2.0,-0.152,-0.743,-0.684,-0.851,0.182,-0.141,9.458,279.67,0,0,1,1,1,1,59.60151,5.4591311,3000,1005,20,80,+SHRA,1000,1,2000,2,3000,3,4000,4
29817.5,2.0,-0.104,-0.52,-1.045,-0.866,0.127,-0.139,9.565,279.57,0,0,1,1,1,1,59.60151,5.4591311,3000,1005,20,80,+SHRA,1000,1,2000,2,3000,3,4000,4
29818,2.0,-0.072,-0.284,-1.326,-0.796,0.055,-0.14,9.724,279.57,0,0,1,1,1,1,59.60151,5.4591311,3000,1005,20,80,+SHRA,1000,1,2000,2,3000,3,4000,4
29818.5,2.0,-0.056,-0.054,-1.498,-0.653,-0.01,-0.133,9.885,279.57,0,0,1,1,1,1,59.60151,5.4591311,3000,1005,20,80,+SHRA,1000,1,2000,2,3000,3,4000,4
29819,2.0,-0.053,0.146,-1.539,-0.438,-0.078,-0.091,10.062,279.57,0,0,1,1,1,1,59.60151,5.4591311,3000,1005,20,80,+SHRA,1000,1,2000,2,3000,3,4000,4
29819.5,2.0,-0.065,0.295,-1.441,-0.182,-0.11,-0.089,10.18,279.77,0,0,1,1,1,1,59.60151,5.4591311,3000,1005,20,80,+SHRA,1000,1,2000,2,3000,3,4000,4
29820,2.0,-0.09,0.38,-1.211,0.089,-0.143,-0.021,10.276,279.77,0,0,1,1,1,1,59.60151,5.4591311,3000,1005,20,80,+SHRA,1000,1,2000,2,3000,3,4000,4
29820.5,2.0,-0.125,0.393,-0.872,0.347,-0.148,0.019,10.313,279.77,0,0,1,1,1,1,59.60151,5.4591311,3000,1005,20,80,+SHRA,1000,1,2000,2,3000,3,4000,4
29821,2.0,-0.166,0.336,-0.457,0.568,-0.132,0.04,10.312,279.77,0,0,1,1,1,1,59.60151,5.4591311,3000,1005,20,80,+SHRA,1000,1,2000,2,3000,3,4000,4
29821.5,2.0,-0.202,0.217,-0.003,0.734,-0.094,0.057,10.256,279.87,0,0,1,1,1,1,59.60151,5.4591311,3000,1005,20,80,+SHRA,1000,1,2000,2,3000,3,4000,4
29822,2.0,-0.23,0.046,0.448,0.832,-0.06,0.106,10.183,279.87,0,0,1,1,1,1,59.60151,5.4591311,3000,1005,20,80,+SHRA,1000,1,2000,2,3000,3,4000,4
29822.5,2.0,-0.248,-0.16,0.857,0.861,-0.011,0.107,10.08,279.97,0,0,1,1,1,1,59.60151,5.4591311,3000,1005,20,80,+SHRA,1000,1,2000,2,3000,3,4000,4
29823,2.1,-0.255,-0.378,1.192,0.818,0.052,0.09,9.953,279.97,0,0,1,1,1,1,59.60151,5.4591311,3000,1005,20,80,+SHRA,1000,1,2000,2,3000,3,4000,4
29823.5,2.1,-0.258,-0.598,1.429,0.718,0.102,0.106,9.846,279.97,0,0,1,1,1,1,59.60151,5.4591311,3000,1005,20,80,+SHRA,1000,1,2000,2,3000,3,4000,4
29824,2.1,-0.253,-0.799,1.552,0.568,0.15,0.072,9.739,279.97,0,0,1,1,1,1,59.60151,5.4591311,3000,1005,20,80,+SHRA,1000,1,2000,2,3000,3,4000,4
29824.5,2.1,-0.246,-0.968,1.558,0.389,0.193,0.031,9.65,279.87,0,0,1,1,1,1,59.60151,5.4591311,3000,1005,20,80,+SHRA,1000,1,2000,2,3000,3,4000,4
29825,2.1,-0.241,-1.095,1.451,0.19,0.224,-0.003,9.565,279.87,0,0,1,1,1,1,59.60151,5.4591311,3000,1005,20,80,+SHRA,1000,1,2000,2,3000,3,4000,4
29825.5,2.1,-0.238,-1.174,1.245,-0.008,0.226,-0.054,9.521,279.87,0,0,1,1,1,1,59.60151,5.4591311,3000,1005,20,80,+SHRA,1000,1,2000,2,3000,3,4000,4
29826,2.1,-0.244,-1.205,0.958,-0.204,0.231,-0.088,9.478,279.87,0,0,1,1,1,1,59.60151,5.4591311,3000,1005,20,80,+SHRA,1000,1,2000,2,3000,3,4000,4
29826.5,2.1,-0.255,-1.183,0.611,-0.383,0.235,-0.1,9.453,279.77,0,0,1,1,1,1,59.60151,5.4591311,3000,1005,20,80,+SHRA,1000,1,2000,2,3000,3,4000,4
29827,2.1,-0.276,-1.113,0.226,-0.536,0.222,-0.144,9.438,279.77,0,0,1,1,1,1,59.60151,5.4591311,3000,1005,20,80,+SHRA,1000,1,2000,2,3000,3,4000,4
29827.5,2.1,-0.304,-0.996,-0.173,-0.659,0.189,-0.179,9.46,279.67,0,0,1,1,1,1,59.60151,5.4591311,3000,1005,20,80,+SHRA,1000,1,2000,2,3000,3,4000,4
29828,2.1,-0.337,-0.845,-0.56,-0.742,0.168,-0.161,9.491,279.67,0,0,1,1,1,1,59.60151,5.4591311,3000,1005,20,80,+SHRA,1000,1,2000,2,3000,3,4000,4
29828.5,2.1,-0.371,-0.666,-0.913,-0.779,0.139,-0.156,9.544,279.67,0,0,1,1,1,1,59.60151,5.4591311,3000,1005,20,80,+SHRA,1000,1,2000,2,3000,3,4000,4
29829,2.2,-0.406,-0.474,-1.208,-0.768,0.099,-0.132,9.621,279.67,0,0,1,1,1,1,59.60151,5.4591311,3000,1005,20,80,+SHRA,1000,1,2000,2,3000,3,4000,4
29829.5,2.2,-0.435,-0.279,-1.427,-0.707,0.058,-0.097,9.717,279.67,0,0,1,1,1,1,59.60151,5.4591311,3000,1005,20,80,+SHRA,1000,1,2000,2,3000,3,4000,4
29830,2.2,-0.456,-0.097,-1.553,-0.597,0.028,-0.091,9.815,279.67,0,0,1,1,1,1,59.60151,5.4591311,3000,1005,20,80,+SHRA,1000,1,2000,2,3000,3,4000,4
29830.5,2.2,-0.468,0.065,-1.579,-0.448,-0.007,-0.1,9.918,279.67,0,0,1,1,1,1,59.60151,5.4591311,3000,1005,20,80,+SHRA,1000,1,2000,2,3000,3,4000,4
29831,2.2,-0.468,0.198,-1.498,-0.261,-0.046,-0.121,10.03,279.67,0,0,1,1,1,1,59.60151,5.4591311,3000,1005,20,80,+SHRA,1000,1,2000,2,3000,3,4000,4
29831.5,2.2,-0.456,0.295,-1.315,-0.053,-0.067,-0.15,10.119,279.77,0,0,1,1,1,1,59.60151,5.4591311,3000,1005,20,80,+SHRA,1000,1,2000,2,3000,3,4000,4
29832,2.2,-0.436,0.341,-1.038,0.165,-0.085,-0.155,10.19,279.77,0,0,1,1,1,1,59.60151,5.4591311,3000,1005,20,80,+SHRA,1000,1,2000,2,3000,3,4000,4
29832.5,2.2,-0.41,0.339,-0.684,0.379,-0.108,-0.12,10.253,279.77,0,0,1,1,1,1,59.60151,5.4591311,3000,1005,20,80,+SHRA,1000,1,2000,2,3000,3,4000,4
29833,2.2,-0.382,0.284,-0.272,0.581,-0.117,-0.049,10.294,279.77,0,0,1,1,1,1,59.60151,5.4591311,3000,1005,20,80,+SHRA,1000,1,2000,2,3000,3,4000,4
29833.5,2.2,-0.361,0.178,0.173,0.754,-0.108,0.026,10.296,279.97,0,0,1,1,1,1,59.60151,5.4591311,3000,1005,20,80,+SHRA,1000,1,2000,2,3000,3,4000,4
29834,2.2,-0.348,0.027,0.623,0.881,-0.094,0.089,10.265,279.97,0,0,1,1,1,1,59.60151,5.4591311,3000,1005,20,80,+SHRA,1000,1,2000,2,3000,3,4000,4
29834.5,2.2,-0.345,-0.161,1.044,0.944,-0.052,0.111,10.176,279.97,0,0,1,1,1,1,59.60151,5.4591311,3000,1005,20,80,+SHRA,1000,1,2000,2,3000,3,4000,4
29835,2.3,-0.352,-0.375,1.402,0.931,0.01,0.109,10.05,279.97,0,0,1,1,1,1,59.60151,5.4591311,3000,1005,20,80,+SHRA,1000,1,2000,2,3000,3,4000,4
29835.5,2.3,-0.365,-0.599,1.663,0.837,0.083,0.081,9.888,280.07,0,0,1,1,1,1,59.60151,5.4591311,3000,1005,20,80,+SHRA,1000,1,2000,2,3000,3,4000,4
29836,2.3,-0.378,-0.813,1.8,0.664,0.149,0.043,9.716,280.07,0,0,1,1,1,1,59.60151,5.4591311,3000,1005,20,80,+SHRA,1000,1,2000,2,3000,3,4000,4
29836.5,2.3,-0.378,-0.813,1.8,0.664,0.149,0.043,9.716,280.07,0,0,1,1,1,1,59.60151,5.4591311,3000,1005,20,80,+SHRA,1000,1,2000,2,3000,3,4000,4
29837,2.3,-0.401,-1.144,1.639,0.139,0.269,-0.041,9.393,280.07,0,0,1,1,1,1,59.60151,5.4591311,3000,1005,20,80,+SHRA,1000,1,2000,2,3000,3,4000,4
29837.5,2.3,-0.401,-1.231,1.344,-0.164,0.307,-0.056,9.276,279.87,0,0,1,1,1,1,59.60151,5.4591311,3000,1005,20,80,+SHRA,1000,1,2000,2,3000,3,4000,4
29838,2.3,-0.391,-1.252,0.931,-0.457,0.305,-0.116,9.234,279.87,0,0,1,1,1,1,59.60151,5.4591311,3000,1005,20,80,+SHRA,1000,1,2000,2,3000,3,4000,4
29838.5,2.3,-0.374,-1.204,0.436,-0.704,0.291,-0.163,9.244,279.77,0,0,1,1,1,1,59.60151,5.4591311,3000,1005,20,80,+SHRA,1000,1,2000,2,3000,3,4000,4
29839,2.3,-0.349,-1.094,-0.094,-0.882,0.257,-0.185,9.317,279.77,0,0,1,1,1,1,59.60151,5.4591311,3000,1005,20,80,+SHRA,1000,1,2000,2,3000,3,4000,4
29839.5,2.3,-0.32,-0.929,-0.609,-0.967,0.19,-0.192,9.454,279.67,0,0,1,1,1,1,59.60151,5.4591311,3000,1005,20,80,+SHRA,1000,1,2000,2,3000,3,4000,4
29840,2.3,-0.288,-0.727,-1.06,-0.958,0.125,-0.172,9.605,279.67,0,0,1,1,1,1,59.60151,5.4591311,3000,1005,20,80,+SHRA,1000,1,2000,2,3000,3,4000,4
29840.5,2.3,-0.258,-0.505,-1.405,-0.861,0.061,-0.13,9.773,279.57,0,0,1,1,1,1,59.60151,5.4591311,3000,1005,20,80,+SHRA,1000,1,2000,2,3000,3,4000,4
29841,2.4,-0.232,-0.286,-1.618,-0.692,0.001,-0.111,9.931,279.57,0,0,1,1,1,1,59.60151,5.4591311,3000,1005,20,80,+SHRA,1000,1,2000,2,3000,3,4000,4
29841.5,2.4,-0.214,-0.088,-1.684,-0.469,-0.045,-0.052,10.066,279.57,0,0,1,1,1,1,59.60151,5.4591311,3000,1005,20,80,+SHRA,1000,1,2000,2,3000,3,4000,4
29842,2.4,-0.204,0.073,-1.606,-0.219,-0.079,-0.001,10.157,279.57,0,0,1,1,1,1,59.60151,5.4591311,3000,1005,20,80,+SHRA,1000,1,2000,2,3000,3,4000,4
29842.5,2.4,-0.199,0.182,-1.397,0.032,-0.108,0.007,10.219,279.67,0,0,1,1,1,1,59.60151,5.4591311,3000,1005,20,80,+SHRA,1000,1,2000,2,3000,3,4000,4
29843,2.4,-0.2,0.234,-1.086,0.257,-0.107,0.048,10.225,279.67,0,0,1,1,1,1,59.60151,5.4591311,3000,1005,20,80,+SHRA,1000,1,2000,2,3000,3,4000,4
29843.5,2.4,-0.204,0.235,-0.709,0.436,-0.088,0.032,10.185,279.77,0,0,1,1,1,1,59.60151,5.4591311,3000,1005,20,80,+SHRA,1000,1,2000,2,3000,3,4000,4
29844,2.4,-0.216,0.184,-0.305,0.56,-0.073,0.012,10.132,279.77,0,0,1,1,1,1,59.60151,5.4591311,3000,1005,20,80,+SHRA,1000,1,2000,2,3000,3,4000,4
29844.5,2.4,-0.233,0.091,0.091,0.63,-0.054,-0.015,10.072,279.77,0,0,1,1,1,1,59.60151,5.4591311,3000,1005,20,80,+SHRA,1000,1,2000,2,3000,3,4000,4
29845,2.4,-0.259,-0.033,0.451,0.649,-0.019,0.001,9.998,279.77,0,0,1,1,1,1,59.60151,5.4591311,3000,1005,20,80,+SHRA,1000,1,2000,2,3000,3,4000,4
29845.5,2.4,-0.292,-0.178,0.75,0.623,0.016,-0.008,9.928,279.77,0,0,1,1,1,1,59.60151,5.4591311,3000,1005,20,80,+SHRA,1000,1,2000,2,3000,3,4000,4
29846,2.4,-0.337,-0.332,0.975,0.556,0.058,-0.037,9.849,279.77,0,0,1,1,1,1,59.60151,5.4591311,3000,1005,20,80,+SHRA,1000,1,2000,2,3000,3,4000,4
29846.5,2.4,-0.382,-0.483,1.114,0.457,0.105,-0.037,9.779,279.77,0,0,1,1,1,1,59.60151,5.4591311,3000,1005,20,80,+SHRA,1000,1,2000,2,3000,3,4000,4
29847,2.5,-0.428,-0.624,1.166,0.337,0.141,-0.054,9.719,279.77,0,0,1,1,1,1,59.60151,5.4591311,3000,1005,20,80,+SHRA,1000,1,2000,2,3000,3,4000,4
29847.5,2.5,-0.47,-0.744,1.134,0.202,0.169,-0.067,9.667,279.77,0,0,1,1,1,1,59.60151,5.4591311,3000,1005,20,80,+SHRA,1000,1,2000,2,3000,3,4000,4
29848,2.5,-0.5,-0.836,1.025,0.059,0.2,-0.086,9.615,279.77,0,0,1,1,1,1,59.60151,5.4591311,3000,1005,20,80,+SHRA,1000,1,2000,2,3000,3,4000,4
29848.5,2.5,-0.512,-0.899,0.85,-0.086,0.222,-0.073,9.562,279.77,0,0,1,1,1,1,59.60151,5.4591311,3000,1005,20,80,+SHRA,1000,1,2000,2,3000,3,4000,4
29849,2.5,-0.508,-0.922,0.618,-0.231,0.223,-0.106,9.524,279.77,0,0,1,1,1,1,59.60151,5.4591311,3000,1005,20,80,+SHRA,1000,1,2000,2,3000,3,4000,4
29849.5,2.5,-0.485,-0.908,0.345,-0.364,0.218,-0.119,9.507,279.67,0,0,1,1,1,1,59.60151,5.4591311,3000,1005,20,80,+SHRA,1000,1,2000,2,3000,3,4000,4
29850,2.5,-0.448,-0.851,0.048,-0.476,0.207,-0.113,9.509,279.67,0,0,1,1,1,1,59.60151,5.4591311,3000,1005,20,80,+SHRA,1000,1,2000,2,3000,3,4000,4
29850.5,2.5,-0.397,-0.757,-0.251,-0.549,0.169,-0.11,9.558,279.67,0,0,1,1,1,1,59.60151,5.4591311,3000,1005,20,80,+SHRA,1000,1,2000,2,3000,3,4000,4
29851,2.5,-0.337,-0.635,-0.526,-0.572,0.122,-0.129,9.639,279.67,0,0,1,1,1,1,59.60151,5.4591311,3000,1005,20,80,+SHRA,1000,1,2000,2,3000,3,4000,4
29851.5,2.5,-0.265,-0.494,-0.752,-0.539,0.075,-0.136,9.746,279.67,0,0,1,1,1,1,59.60151,5.4591311,3000,1005,20,80,+SHRA,1000,1,2000,2,3000,3,4000,4
29852,2.5,-0.194,-0.346,-0.906,-0.448,0.028,-0.104,9.862,279.67,0,0,1,1,1,1,59.60151,5.4591311,3000,1005,20,80,+SHRA,1000,1,2000,2,3000,3,4000,4
29852.5,2.5,-0.124,-0.209,-0.969,-0.305,-0.029,-0.063,9.996,279.57,0,0,1,1,1,1,59.60151,5.4591311,3000,1005,20,80,+SHRA,1000,1,2000,2,3000,3,4000,4
29853,2.6,-0.067,-0.092,-0.933,-0.122,-0.068,0.004,10.105,279.57,0,0,1,1,1,1,59.60151,5.4591311,3000,1005,20,80,+SHRA,1000,1,2000,2,3000,3,4000,4
29853.5,2.6,-0.028,-0.018,-0.797,0.079,-0.094,0.053,10.187,279.57,0,0,1,1,1,1,59.60151,5.4591311,3000,1005,20,80,+SHRA,1000,1,2000,2,3000,3,4000,4
29854,2.6,-0.009,0.011,-0.575,0.278,-0.105,0.102,10.226,279.57,0,0,1,1,1,1,59.60151,5.4591311,3000,1005,20,80,+SHRA,1000,1,2000,2,3000,3,4000,4
29854.5,2.6,-0.012,-0.008,-0.291,0.444,-0.093,0.129,10.212,279.67,0,0,1,1,1,1,59.60151,5.4591311,3000,1005,20,80,+SHRA,1000,1,2000,2,3000,3,4000,4
29855,2.6,-0.033,-0.077,0.023,0.56,-0.063,0.143,10.151,279.67,0,0,1,1,1,1,59.60151,5.4591311,3000,1005,20,80,+SHRA,1000,1,2000,2,3000,3,4000,4
29855.5,2.6,-0.077,-0.187,0.331,0.607,-0.015,0.123,10.037,279.67,0,0,1,1,1,1,59.60151,5.4591311,3000,1005,20,80,+SHRA,1000,1,2000,2,3000,3,4000,4
29856,2.6,-0.136,-0.324,0.594,0.58,0.036,0.085,9.905,279.67,0,0,1,1,1,1,59.60151,5.4591311,3000,1005,20,80,+SHRA,1000,1,2000,2,3000,3,4000,4
29856.5,2.6,-0.208,-0.473,0.779,0.475,0.1,0.027,9.741,279.67,0,0,1,1,1,1,59.60151,5.4591311,3000,1005,20,80,+SHRA,1000,1,2000,2,3000,3,4000,4
29857,2.6,-0.283,-0.613,0.863,0.305,0.162,-0.05,9.586,279.67,0,0,1,1,1,1,59.60151,5.4591311,3000,1005,20,80,+SHRA,1000,1,2000,2,3000,3,4000,4
29857.5,2.6,-0.359,-0.729,0.83,0.09,0.215,-0.11,9.452,279.57,0,0,1,1,1,1,59.60151,5.4591311,3000,1005,20,80,+SHRA,1000,1,2000,2,3000,3,4000,4
29858,2.6,-0.428,-0.801,0.685,-0.144,0.247,-0.17,9.369,279.57,0,0,1,1,1,1,59.60151,5.4591311,3000,1005,20,80,+SHRA,1000,1,2000,2,3000,3,4000,4
29858.5,2.6,-0.48,-0.818,0.443,-0.364,0.264,-0.211,9.34,279.47,0,0,1,1,1,1,59.60151,5.4591311,3000,1005,20,80,+SHRA,1000,1,2000,2,3000,3,4000,4
29859,2.7,-0.511,-0.781,0.136,-0.542,0.254,-0.241,9.375,279.47,0,0,1,1,1,1,59.60151,5.4591311,3000,1005,20,80,+SHRA,1000,1,2000,2,3000,3,4000,4
29859.5,2.7,-0.521,-0.691,-0.197,-0.649,0.216,-0.239,9.477,279.47,0,0,1,1,1,1,59.60151,5.4591311,3000,1005,20,80,+SHRA,1000,1,2000,2,3000,3,4000,4
29860,2.7,-0.505,-0.565,-0.508,-0.671,0.158,-0.219,9.624,279.47,0,0,1,1,1,1,59.60151,5.4591311,3000,1005,20,80,+SHRA,1000,1,2000,2,3000,3,4000,4
29860.5,2.7,-0.469,-0.415,-0.756,-0.6,0.082,-0.183,9.806,279.47,0,0,1,1,1,1,59.60151,5.4591311,3000,1005,20,80,+SHRA,1000,1,2000,2,3000,3,4000,4
29861,2.7,-0.424,-0.263,-0.904,-0.446,0.009,-0.135,9.988,279.47,0,0,1,1,1,1,59.60151,5.4591311,3000,1005,20,80,+SHRA,1000,1,2000,2,3000,3,4000,4
29861.5,2.7,-0.374,-0.129,-0.93,-0.227,-0.061,-0.06,10.155,279.47,0,0,1,1,1,1,59.60151,5.4591311,3000,1005,20,80,+SHRA,1000,1,2000,2,3000,3,4000,4
29862,2.7,-0.33,-0.032,-0.827,0.028,-0.109,0.013,10.271,279.47,0,0,1,1,1,1,59.60151,5.4591311,3000,1005,20,80,+SHRA,1000,1,2000,2,3000,3,4000,4
29862.5,2.7,-0.302,0.015,-0.606,0.282,-0.132,0.083,10.328,279.57,0,0,1,1,1,1,59.60151,5.4591311,3000,1005,20,80,+SHRA,1000,1,2000,2,3000,3,4000,4
29863,2.7,-0.287,0.007,-0.297,0.502,-0.126,0.128,10.317,279.57,0,0,1,1,1,1,59.60151,5.4591311,3000,1005,20,80,+SHRA,1000,1,2000,2,3000,3,4000,4
29863.5,2.7,-0.288,-0.056,0.06,0.657,-0.096,0.12,10.243,279.57,0,0,1,1,1,1,59.60151,5.4591311,3000,1005,20,80,+SHRA,1000,1,2000,2,3000,3,4000,4
29864,2.7,-0.308,-0.166,0.42,0.733,-0.048,0.091,10.123,279.57,0,0,1,1,1,1,59.60151,5.4591311,3000,1005,20,80,+SHRA,1000,1,2000,2,3000,3,4000,4
29864.5,2.7,-0.335,-0.311,0.735,0.716,0.017,0.059,9.96,279.67,0,0,1,1,1,1,59.60151,5.4591311,3000,1005,20,80,+SHRA,1000,1,2000,2,3000,3,4000,4
29865,2.8,-0.366,-0.469,0.967,0.617,0.076,0.013,9.799,279.67,0,0,1,1,1,1,59.60151,5.4591311,3000,1005,20,80,+SHRA,1000,1,2000,2,3000,3,4000,4
29865.5,2.8,-0.398,-0.623,1.087,0.443,0.136,-0.032,9.63,279.57,0,0,1,1,1,1,59.60151,5.4591311,3000,1005,20,80,+SHRA,1000,1,2000,2,3000,3,4000,4
29866,2.8,-0.424,-0.758,1.081,0.225,0.18,-0.067,9.509,279.57,0,0,1,1,1,1,59.60151,5.4591311,3000,1005,20,80,+SHRA,1000,1,2000,2,3000,3,4000,4
29866.5,2.8,-0.443,-0.855,0.953,-0.017,0.219,-0.118,9.405,279.47,0,0,1,1,1,1,59.60151,5.4591311,3000,1005,20,80,+SHRA,1000,1,2000,2,3000,3,4000,4
29867,2.8,-0.45,-0.908,0.716,-0.253,0.238,-0.164,9.362,279.47,0,0,1,1,1,1,59.60151,5.4591311,3000,1005,20,80,+SHRA,1000,1,2000,2,3000,3,4000,4
29867.5,2.8,-0.45,-0.908,0.399,-0.462,0.246,-0.215,9.35,279.37,0,0,1,1,1,1,59.60151,5.4591311,3000,1005,20,80,+SHRA,1000,1,2000,2,3000,3,4000,4
29868,2.8,-0.438,-0.855,0.035,-0.62,0.227,-0.245,9.408,279.37,0,0,1,1,1,1,59.60151,5.4591311,3000,1005,20,80,+SHRA,1000,1,2000,2,3000,3,4000,4
29868.5,2.8,-0.418,-0.754,-0.336,-0.709,0.201,-0.255,9.492,279.37,0,0,1,1,1,1,59.60151,5.4591311,3000,1005,20,80,+SHRA,1000,1,2000,2,3000,3,4000,4
29869,2.8,-0.39,-0.617,-0.672,-0.722,0.148,-0.198,9.63,279.37,0,0,1,1,1,1,59.60151,5.4591311,3000,1005,20,80,+SHRA,1000,1,2000,2,3000,3,4000,4
29869.5,2.8,-0.354,-0.461,-0.938,-0.654,0.096,-0.152,9.774,279.27,0,0,1,1,1,1,59.60151,5.4591311,3000,1005,20,80,+SHRA,1000,1,2000,2,3000,3,4000,4
29870,2.8,-0.32,-0.3,-1.104,-0.523,0.043,-0.056,9.914,279.27,0,0,1,1,1,1,59.60151,5.4591311,3000,1005,20,80,+SHRA,1000,1,2000,2,3000,3,4000,4
29870.5,2.8,-0.286,-0.151,-1.157,-0.34,-0.004,0.033,10.036,279.27,0,0,1,1,1,1,59.60151,5.4591311,3000,1005,20,80,+SHRA,1000,1,2000,2,3000,3,4000,4
29871,2.9,-0.259,-0.031,-1.094,-0.134,-0.043,0.053,10.123,279.27,0,0,1,1,1,1,59.60151,5.4591311,3000,1005,20,80,+SHRA,1000,1,2000,2,3000,3,4000,4
29871.5,2.9,-0.24,0.052,-0.926,0.075,-0.068,0.076,10.17,279.37,0,0,1,1,1,1,59.60151,5.4591311,3000,1005,20,80,+SHRA,1000,1,2000,2,3000,3,4000,4
29872,2.9,-0.24,0.052,-0.926,0.075,-0.068,0.076,10.17,279.37,0,0,1,1,1,1,59.60151,5.4591311,3000,1005,20,80,+SHRA,1000,1,2000,2,3000,3,4000,4
29872.5,2.9,-0.215,0.085,-0.376,0.405,-0.074,0.021,10.143,279.47,0,0,1,1,1,1,59.60151,5.4591311,3000,1005,20,80,+SHRA,1000,1,2000,2,3000,3,4000,4
29873,2.9,-0.213,0.036,-0.056,0.499,-0.054,-0.005,10.075,279.47,0,0,1,1,1,1,59.60151,5.4591311,3000,1005,20,80,+SHRA,1000,1,2000,2,3000,3,4000,4
29873.5,2.9,-0.214,-0.049,0.251,0.545,-0.036,-0.045,10.018,279.47,0,0,1,1,1,1,59.60151,5.4591311,3000,1005,20,80,+SHRA,1000,1,2000,2,3000,3,4000,4
29874,2.9,-0.217,-0.163,0.521,0.544,-0.003,-0.075,9.947,279.47,0,0,1,1,1,1,59.60151,5.4591311,3000,1005,20,80,+SHRA,1000,1,2000,2,3000,3,4000,4
29874.5,2.9,-0.219,-0.294,0.737,0.508,0.027,-0.069,9.889,279.47,0,0,1,1,1,1,59.60151,5.4591311,3000,1005,20,80,+SHRA,1000,1,2000,2,3000,3,4000,4
29875,2.9,-0.218,-0.434,0.886,0.438,0.066,-0.041,9.816,279.47,0,0,1,1,1,1,59.60151,5.4591311,3000,1005,20,80,+SHRA,1000,1,2000,2,3000,3,4000,4
29875.5,2.9,-0.213,-0.569,0.961,0.34,0.105,0.007,9.751,279.47,0,0,1,1,1,1,59.60151,5.4591311,3000,1005,20,80,+SHRA,1000,1,2000,2,3000,3,4000,4
29876,2.9,-0.207,-0.693,0.961,0.219,0.145,0.052,9.681,279.47,0,0,1,1,1,1,59.60151,5.4591311,3000,1005,20,80,+SHRA,1000,1,2000,2,3000,3,4000,4
29876.5,2.9,-0.2,-0.793,0.887,0.086,0.169,0.039,9.635,279.47,0,0,1,1,1,1,59.60151,5.4591311,3000,1005,20,80,+SHRA,1000,1,2000,2,3000,3,4000,4
29877,3.0,-0.195,-0.861,0.747,-0.049,0.192,0,9.596,279.47,0,0,1,1,1,1,59.60151,5.4591311,3000,1005,20,80,+SHRA,1000,1,2000,2,3000,3,4000,4
29877.5,3.0,-0.194,-0.892,0.555,-0.176,0.203,-0.033,9.58,279.37,0,0,1,1,1,1,59.60151,5.4591311,3000,1005,20,80,+SHRA,1000,1,2000,2,3000,3,4000,4
29878,3.0,-0.201,-0.885,0.327,-0.286,0.205,-0.058,9.572,279.37,0,0,1,1,1,1,59.60151,5.4591311,3000,1005,20,80,+SHRA,1000,1,2000,2,3000,3,4000,4
29878.5,3.0,-0.213,-0.839,0.08,-0.374,0.195,-0.087,9.589,279.27,0,0,1,1,1,1,59.60151,5.4591311,3000,1005,20,80,+SHRA,1000,1,2000,2,3000,3,4000,4
29879,3.0,-0.227,-0.756,-0.166,-0.429,0.178,-0.095,9.625,279.27,0,0,1,1,1,1,59.60151,5.4591311,3000,1005,20,80,+SHRA,1000,1,2000,2,3000,3,4000,4
29879.5,3.0,-0.245,-0.649,-0.393,-0.448,0.143,-0.098,9.685,279.17,0,0,1,1,1,1,59.60151,5.4591311,3000,1005,20,80,+SHRA,1000,1,2000,2,3000,3,4000,4
29880,3.0,-0.261,-0.521,-0.58,-0.423,0.099,-0.094,9.759,279.17,0,0,1,1,1,1,59.60151,5.4591311,3000,1005,20,80,+SHRA,1000,1,2000,2,3000,3,4000,4
29880.5,3.0,-0.271,-0.392,-0.712,-0.362,0.056,-0.072,9.835,279.17,0,0,1,1,1,1,59.60151,5.4591311,3000,1005,20,80,+SHRA,1000,1,2000,2,3000,3,4000,4
29881,3.0,-0.274,-0.268,-0.777,-0.264,0.009,-0.047,9.922,279.17,0,0,1,1,1,1,59.60151,5.4591311,3000,1005,20,80,+SHRA,1000,1,2000,2,3000,3,4000,4
29881.5,3.0,-0.271,-0.165,-0.77,-0.145,-0.024,-0.031,9.983,279.17,0,0,1,1,1,1,59.60151,5.4591311,3000,1005,20,80,+SHRA,1000,1,2000,2,3000,3,4000,4
29882,3.0,-0.267,-0.089,-0.695,-0.015,-0.049,-0.013,10.03,279.17,0,0,1,1,1,1,59.60151,5.4591311,3000,1005,20,80,+SHRA,1000,1,2000,2,3000,3,4000,4
29882.5,3.0,-0.263,-0.049,-0.561,0.103,-0.05,-0.002,10.028,279.27,0,0,1,1,1,1,59.60151,5.4591311,3000,1005,20,80,+SHRA,1000,1,2000,2,3000,3,4000,4
29883,3.1,-0.262,-0.043,-0.389,0.199,-0.049,0.01,10.013,279.27,0,0,1,1,1,1,59.60151,5.4591311,3000,1005,20,80,+SHRA,1000,1,2000,2,3000,3,4000,4
29883.5,3.1,-0.266,-0.069,-0.199,0.258,-0.025,0.026,9.955,279.27,0,0,1,1,1,1,59.60151,5.4591311,3000,1005,20,80,+SHRA,1000,1,2000,2,3000,3,4000,4
29884,3.1,-0.279,-0.123,-0.015,0.277,-0.001,0.012,9.898,279.27,0,0,1,1,1,1,59.60151,5.4591311,3000,1005,20,80,+SHRA,1000,1,2000,2,3000,3,4000,4
29884.5,3.1,-0.302,-0.196,0.143,0.259,0.034,-0.031,9.824,279.37,0,0,1,1,1,1,59.60151,5.4591311,3000,1005,20,80,+SHRA,1000,1,2000,2,3000,3,4000,4
29885,3.1,-0.333,-0.278,0.26,0.209,0.065,-0.065,9.768,279.37,0,0,1,1,1,1,59.60151,5.4591311,3000,1005,20,80,+SHRA,1000,1,2000,2,3000,3,4000,4
29885.5,3.1,-0.366,-0.359,0.329,0.143,0.095,-0.115,9.728,279.37,0,0,1,1,1,1,59.60151,5.4591311,3000,1005,20,80,+SHRA,1000,1,2000,2,3000,3,4000,4
29886,3.1,-0.401,-0.433,0.351,0.073,0.117,-0.168,9.713,279.37,0,0,1,1,1,1,59.60151,5.4591311,3000,1005,20,80,+SHRA,1000,1,2000,2,3000,3,4000,4
29886.5,3.1,-0.429,-0.497,0.335,0.013,0.13,-0.2,9.721,279.37,0,0,1,1,1,1,59.60151,5.4591311,3000,1005,20,80,+SHRA,1000,1,2000,2,3000,3,4000,4
29887,3.1,-0.448,-0.544,0.292,-0.034,0.139,-0.194,9.733,279.37,0,0,1,1,1,1,59.60151,5.4591311,3000,1005,20,80,+SHRA,1000,1,2000,2,3000,3,4000,4
29887.5,3.1,-0.454,-0.574,0.233,-0.061,0.137,-0.155,9.766,279.37,0,0,1,1,1,1,59.60151,5.4591311,3000,1005,20,80,+SHRA,1000,1,2000,2,3000,3,4000,4
29888,3.1,-0.451,-0.589,0.171,-0.07,0.132,-0.117,9.797,279.37,0,0,1,1,1,1,59.60151,5.4591311,3000,1005,20,80,+SHRA,1000,1,2000,2,3000,3,4000,4
29888.5,3.1,-0.439,-0.587,0.116,-0.059,0.117,-0.074,9.838,279.37,0,0,1,1,1,1,59.60151,5.4591311,3000,1005,20,80,+SHRA,1000,1,2000,2,3000,3,4000,4
29889,3.2,-0.416,-0.572,0.076,-0.031,0.104,-0.008,9.871,279.37,0,0,1,1,1,1,59.60151,5.4591311,3000,1005,20,80,+SHRA,1000,1,2000,2,3000,3,4000,4
29889.5,3.2,-0.391,-0.549,0.057,0.008,0.085,0.057,9.907,279.27,0,0,1,1,1,1,59.60151,5.4591311,3000,1005,20,80,+SHRA,1000,1,2000,2,3000,3,4000,4
29890,3.2,-0.36,-0.52,0.059,0.053,0.071,0.094,9.924,279.27,0,0,1,1,1,1,59.60151,5.4591311,3000,1005,20,80,+SHRA,1000,1,2000,2,3000,3,4000,4
29890.5,3.2,-0.33,-0.489,0.08,0.093,0.058,0.11,9.925,279.37,0,0,1,1,1,1,59.60151,5.4591311,3000,1005,20,80,+SHRA,1000,1,2000,2,3000,3,4000,4
29891,3.2,-0.297,-0.461,0.114,0.124,0.046,0.109,9.915,279.37,0,0,1,1,1,1,59.60151,5.4591311,3000,1005,20,80,+SHRA,1000,1,2000,2,3000,3,4000,4
29891.5,3.2,-0.263,-0.441,0.152,0.14,0.034,0.08,9.895,279.37,0,0,1,1,1,1,59.60151,5.4591311,3000,1005,20,80,+SHRA,1000,1,2000,2,3000,3,4000,4
29892,3.2,-0.228,-0.43,0.185,0.139,0.027,0.031,9.861,279.37,0,0,1,1,1,1,59.60151,5.4591311,3000,1005,20,80,+SHRA,1000,1,2000,2,3000,3,4000,4
29892.5,3.2,-0.195,-0.43,0.206,0.115,0.029,-0.021,9.814,279.27,0,0,1,1,1,1,59.60151,5.4591311,3000,1005,20,80,+SHRA,1000,1,2000,2,3000,3,4000,4
29893,3.2,-0.165,-0.439,0.204,0.068,0.041,-0.085,9.753,279.27,0,0,1,1,1,1,59.60151,5.4591311,3000,1005,20,80,+SHRA,1000,1,2000,2,3000,3,4000,4
29893.5,3.2,-0.142,-0.453,0.17,-0.009,0.069,-0.161,9.675,279.17,0,0,1,1,1,1,59.60151,5.4591311,3000,1005,20,80,+SHRA,1000,1,2000,2,3000,3,4000,4
29894,3.2,-0.124,-0.464,0.096,-0.109,0.098,-0.228,9.6,279.17,0,0,1,1,1,1,59.60151,5.4591311,3000,1005,20,80,+SHRA,1000,1,2000,2,3000,3,4000,4
29894.5,3.2,-0.113,-0.468,-0.019,-0.226,0.128,-0.274,9.535,279.17,0,0,1,1,1,1,59.60151,5.4591311,3000,1005,20,80,+SHRA,1000,1,2000,2,3000,3,4000,4
29895,3.3,-0.113,-0.459,-0.173,-0.342,0.143,-0.267,9.512,279.17,0,0,1,1,1,1,59.60151,5.4591311,3000,1005,20,80,+SHRA,1000,1,2000,2,3000,3,4000,4
29895.5,3.3,-0.122,-0.431,-0.352,-0.435,0.152,-0.224,9.522,279.17,0,0,1,1,1,1,59.60151,5.4591311,3000,1005,20,80,+SHRA,1000,1,2000,2,3000,3,4000,4
29896,3.3,-0.141,-0.382,-0.534,-0.485,0.13,-0.136,9.596,279.17,0,0,1,1,1,1,59.60151,5.4591311,3000,1005,20,80,+SHRA,1000,1,2000,2,3000,3,4000,4
29896.5,3.3,-0.165,-0.319,-0.691,-0.47,0.102,-0.052,9.718,279.27,0,0,1,1,1,1,59.60151,5.4591311,3000,1005,20,80,+SHRA,1000,1,2000,2,3000,3,4000,4
29897,3.3,-0.195,-0.25,-0.791,-0.384,0.06,0.092,9.879,279.27,0,0,1,1,1,1,59.60151,5.4591311,3000,1005,20,80,+SHRA,1000,1,2000,2,3000,3,4000,4
29897.5,3.3,-0.223,-0.189,-0.807,-0.224,0.011,0.206,10.051,279.47,0,0,1,1,1,1,59.60151,5.4591311,3000,1005,20,80,+SHRA,1000,1,2000,2,3000,3,4000,4
29898,3.3,-0.253,-0.144,-0.721,-0.01,-0.03,0.25,10.2,279.47,0,0,1,1,1,1,59.60151,5.4591311,3000,1005,20,80,+SHRA,1000,1,2000,2,3000,3,4000,4
29898.5,3.3,-0.284,-0.132,-0.528,0.231,-0.061,0.271,10.301,279.47,0,0,1,1,1,1,59.60151,5.4591311,3000,1005,20,80,+SHRA,1000,1,2000,2,3000,3,4000,4
29899,3.3,-0.311,-0.154,-0.244,0.462,-0.074,0.206,10.345,279.47,0,0,1,1,1,1,59.60151,5.4591311,3000,1005,20,80,+SHRA,1000,1,2000,2,3000,3,4000,4
29899.5,3.3,-0.337,-0.216,0.102,0.648,-0.056,0.143,10.301,279.47,0,0,1,1,1,1,59.60151,5.4591311,3000,1005,20,80,+SHRA,1000,1,2000,2,3000,3,4000,4
29900,3.3,-0.358,-0.308,0.466,0.758,-0.018,0.038,10.195,279.47,0,0,1,1,1,1,59.60151,5.4591311,3000,1005,20,80,+SHRA,1000,1,2000,2,3000,3,4000,4
29900.5,3.3,-0.375,-0.423,0.8,0.774,0.038,-0.059,10.022,279.37,0,0,1,1,1,1,59.60151,5.4591311,3000,1005,20,80,+SHRA,1000,1,2000,2,3000,3,4000,4
29901,3.4,-0.388,-0.545,1.058,0.686,0.096,-0.136,9.827,279.37,0,0,1,1,1,1,59.60151,5.4591311,3000,1005,20,80,+SHRA,1000,1,2000,2,3000,3,4000,4
29901.5,3.4,-0.396,-0.657,1.2,0.507,0.156,-0.267,9.618,279.27,0,0,1,1,1,1,59.60151,5.4591311,3000,1005,20,80,+SHRA,1000,1,2000,2,3000,3,4000,4
29902,3.4,-0.399,-0.741,1.202,0.252,0.208,-0.304,9.428,279.27,0,0,1,1,1,1,59.60151,5.4591311,3000,1005,20,80,+SHRA,1000,1,2000,2,3000,3,4000,4
29902.5,3.4,-0.404,-0.784,1.058,-0.036,0.231,-0.309,9.304,279.17,0,0,1,1,1,1,59.60151,5.4591311,3000,1005,20,80,+SHRA,1000,1,2000,2,3000,3,4000,4
29903,3.4,-0.41,-0.781,0.783,-0.329,0.246,-0.291,9.228,279.17,0,0,1,1,1,1,59.60151,5.4591311,3000,1005,20,80,+SHRA,1000,1,2000,2,3000,3,4000,4
29903.5,3.4,-0.419,-0.727,0.407,-0.58,0.221,-0.232,9.249,279.17,0,0,1,1,1,1,59.60151,5.4591311,3000,1005,20,80,+SHRA,1000,1,2000,2,3000,3,4000,4
29904,3.4,-0.437,-0.632,-0.022,-0.758,0.184,-0.142,9.333,279.17,0,0,1,1,1,1,59.60151,5.4591311,3000,1005,20,80,+SHRA,1000,1,2000,2,3000,3,4000,4
29904.5,3.4,-0.463,-0.505,-0.45,-0.836,0.124,-0.091,9.504,279.27,0,0,1,1,1,1,59.60151,5.4591311,3000,1005,20,80,+SHRA,1000,1,2000,2,3000,3,4000,4
29905,3.4,-0.497,-0.365,-0.819,-0.804,0.071,-0.014,9.686,279.27,0,0,1,1,1,1,59.60151,5.4591311,3000,1005,20,80,+SHRA,1000,1,2000,2,3000,3,4000,4
29905.5,3.4,-0.532,-0.23,-1.086,-0.671,-0.001,0.06,9.908,279.47,0,0,1,1,1,1,59.60151,5.4591311,3000,1005,20,80,+SHRA,1000,1,2000,2,3000,3,4000,4
