Time(s),Time(m),"Roll (deg, +ve R)","Pitch (deg, +ve UP)",Heave (m),Heave Velocity (m/s),AX (m/s^2),AY (m/s^2),AZ (m/s^2),Vessel heading (degT),SOG (knots),COG (M deg),STATUS_MRU (1=OK),STATUS_GYRO (1=OK),STATUS_WIND (1=OK),STATUS_GPS (SOG_VOG) (1=OK),GPS Lat,GPS Lon,Visibility,Air Pressure,Air Temperature,Air Humidity,WX code,Cloud layer 1 altitude,Cloud layer 1 oct,Cloud layer 1 altitude,Cloud layer 1 oct,Cloud layer 1 altitude,Cloud layer 1 oct,Cloud layer 1 altitude,Cloud layer 1 oct
19800,0,-0.758,-0.895,0.687,-0.392,0.224,-0.3,9.4,281.07,0,0,1,1,1,1,59.60151,5.4591311,3000,1005,20,80,+SHRA,1000,1,2000,2,3000,3,4000,4
19800.5,0.0,-0.743,-0.9,0.316,-0.541,0.204,-0.221,9.455,281.07,0,0,1,1,1,1,59.60151,5.4591311,3000,1005,20,80,+SHRA,1000,1,2000,2,3000,3,4000,4
19801,0.0,-0.714,-0.856,-0.063,-0.632,0.19,-0.168,9.521,281.07,0,0,1,1,1,1,59.60151,5.4591311,3000,1005,20,80,+SHRA,1000,1,2000,2,3000,3,4000,4
19801.5,0.0,-0.673,-0.774,-0.415,-0.662,0.156,-0.112,9.611,281.07,0,0,1,1,1,1,59.60151,5.4591311,3000,1005,20,80,+SHRA,1000,1,2000,2,3000,3,4000,4
19802,0.0,-0.622,-0.662,-0.712,-0.635,0.114,-0.042,9.707,281.07,0,0,1,1,1,1,59.60151,5.4591311,3000,1005,20,80,+SHRA,1000,1,2000,2,3000,3,4000,4
19802.5,0.0,-0.563,-0.531,-0.932,-0.561,0.077,-0.02,9.803,281.07,0,0,1,1,1,1,59.60151,5.4591311,3000,1005,20,80,+SHRA,1000,1,2000,2,3000,3,4000,4
19803,0.1,-0.497,-0.393,-1.063,-0.446,0.044,-0.013,9.886,281.07,0,0,1,1,1,1,59.60151,5.4591311,3000,1005,20,80,+SHRA,1000,1,2000,2,3000,3,4000,4
19803.5,0.1,-0.427,-0.255,-1.1,-0.307,0.012,-0.02,9.959,280.87,0,0,1,1,1,1,59.60151,5.4591311,3000,1005,20,80,+SHRA,1000,1,2000,2,3000,3,4000,4
19804,0.1,-0.359,-0.127,-1.046,-0.153,-0.009,-0.064,10.012,280.87,0,0,1,1,1,1,59.60151,5.4591311,3000,1005,20,80,+SHRA,1000,1,2000,2,3000,3,4000,4
19804.5,0.1,-0.297,-0.016,-0.914,0,-0.023,-0.107,10.053,280.87,0,0,1,1,1,1,59.60151,5.4591311,3000,1005,20,80,+SHRA,1000,1,2000,2,3000,3,4000,4
19805,0.1,-0.243,0.075,-0.716,0.151,-0.039,-0.122,10.091,280.87,0,0,1,1,1,1,59.60151,5.4591311,3000,1005,20,80,+SHRA,1000,1,2000,2,3000,3,4000,4
19805.5,0.1,-0.204,0.139,-0.468,0.29,-0.046,-0.127,10.108,280.67,0,0,1,1,1,1,59.60151,5.4591311,3000,1005,20,80,+SHRA,1000,1,2000,2,3000,3,4000,4
19806,0.1,-0.204,0.139,-0.468,0.29,-0.046,-0.127,10.108,280.67,0,0,1,1,1,1,59.60151,5.4591311,3000,1005,20,80,+SHRA,1000,1,2000,2,3000,3,4000,4
19806.5,0.1,-0.182,0.166,0.109,0.507,-0.053,-0.067,10.097,280.67,0,0,1,1,1,1,59.60151,5.4591311,3000,1005,20,80,+SHRA,1000,1,2000,2,3000,3,4000,4
19807,0.1,-0.204,0.129,0.396,0.564,-0.045,-0.031,10.057,280.67,0,0,1,1,1,1,59.60151,5.4591311,3000,1005,20,80,+SHRA,1000,1,2000,2,3000,3,4000,4
19807.5,0.1,-0.244,0.059,0.652,0.576,-0.025,0.006,9.981,280.77,0,0,1,1,1,1,59.60151,5.4591311,3000,1005,20,80,+SHRA,1000,1,2000,2,3000,3,4000,4
19808,0.1,-0.295,-0.038,0.857,0.54,-0.006,0.059,9.904,280.77,0,0,1,1,1,1,59.60151,5.4591311,3000,1005,20,80,+SHRA,1000,1,2000,2,3000,3,4000,4
19808.5,0.1,-0.353,-0.155,0.993,0.458,0.028,0.107,9.798,280.97,0,0,1,1,1,1,59.60151,5.4591311,3000,1005,20,80,+SHRA,1000,1,2000,2,3000,3,4000,4
19809,0.2,-0.41,-0.286,1.046,0.334,0.056,0.146,9.708,280.97,0,0,1,1,1,1,59.60151,5.4591311,3000,1005,20,80,+SHRA,1000,1,2000,2,3000,3,4000,4
19809.5,0.2,-0.457,-0.421,1.011,0.18,0.085,0.14,9.611,281.07,0,0,1,1,1,1,59.60151,5.4591311,3000,1005,20,80,+SHRA,1000,1,2000,2,3000,3,4000,4
19810,0.2,-0.494,-0.547,0.889,0.006,0.113,0.083,9.543,281.07,0,0,1,1,1,1,59.60151,5.4591311,3000,1005,20,80,+SHRA,1000,1,2000,2,3000,3,4000,4
19810.5,0.2,-0.517,-0.657,0.689,-0.167,0.14,-0.022,9.495,281.17,0,0,1,1,1,1,59.60151,5.4591311,3000,1005,20,80,+SHRA,1000,1,2000,2,3000,3,4000,4
19811,0.2,-0.526,-0.735,0.43,-0.325,0.156,-0.176,9.481,281.17,0,0,1,1,1,1,59.60151,5.4591311,3000,1005,20,80,+SHRA,1000,1,2000,2,3000,3,4000,4
19811.5,0.2,-0.523,-0.78,0.136,-0.449,0.16,-0.258,9.499,281.17,0,0,1,1,1,1,59.60151,5.4591311,3000,1005,20,80,+SHRA,1000,1,2000,2,3000,3,4000,4
19812,0.2,-0.509,-0.785,-0.167,-0.535,0.163,-0.31,9.547,281.17,0,0,1,1,1,1,59.60151,5.4591311,3000,1005,20,80,+SHRA,1000,1,2000,2,3000,3,4000,4
19812.5,0.2,-0.49,-0.752,-0.453,-0.567,0.15,-0.284,9.625,280.97,0,0,1,1,1,1,59.60151,5.4591311,3000,1005,20,80,+SHRA,1000,1,2000,2,3000,3,4000,4
19813,0.2,-0.466,-0.682,-0.694,-0.548,0.127,-0.228,9.722,280.97,0,0,1,1,1,1,59.60151,5.4591311,3000,1005,20,80,+SHRA,1000,1,2000,2,3000,3,4000,4
19813.5,0.2,-0.437,-0.584,-0.869,-0.472,0.102,-0.146,9.827,280.77,0,0,1,1,1,1,59.60151,5.4591311,3000,1005,20,80,+SHRA,1000,1,2000,2,3000,3,4000,4
19814,0.2,-0.409,-0.467,-0.96,-0.357,0.076,-0.068,9.916,280.77,0,0,1,1,1,1,59.60151,5.4591311,3000,1005,20,80,+SHRA,1000,1,2000,2,3000,3,4000,4
19814.5,0.2,-0.383,-0.342,-0.963,-0.211,0.04,-0.024,10.005,280.77,0,0,1,1,1,1,59.60151,5.4591311,3000,1005,20,80,+SHRA,1000,1,2000,2,3000,3,4000,4
19815,0.3,-0.361,-0.219,-0.882,-0.058,0.02,0.002,10.044,280.77,0,0,1,1,1,1,59.60151,5.4591311,3000,1005,20,80,+SHRA,1000,1,2000,2,3000,3,4000,4
19815.5,0.3,-0.343,-0.106,-0.729,0.088,0.003,0.006,10.064,280.67,0,0,1,1,1,1,59.60151,5.4591311,3000,1005,20,80,+SHRA,1000,1,2000,2,3000,3,4000,4
19816,0.3,-0.334,-0.012,-0.524,0.209,-0.006,0.013,10.045,280.67,0,0,1,1,1,1,59.60151,5.4591311,3000,1005,20,80,+SHRA,1000,1,2000,2,3000,3,4000,4
19816.5,0.3,-0.331,0.062,-0.292,0.299,-0.018,0.004,10.022,280.67,0,0,1,1,1,1,59.60151,5.4591311,3000,1005,20,80,+SHRA,1000,1,2000,2,3000,3,4000,4
19817,0.3,-0.344,0.108,-0.055,0.35,-0.014,-0.009,9.962,280.67,0,0,1,1,1,1,59.60151,5.4591311,3000,1005,20,80,+SHRA,1000,1,2000,2,3000,3,4000,4
19817.5,0.3,-0.365,0.128,0.163,0.362,-0.012,-0.032,9.907,280.77,0,0,1,1,1,1,59.60151,5.4591311,3000,1005,20,80,+SHRA,1000,1,2000,2,3000,3,4000,4
19818,0.3,-0.396,0.123,0.346,0.342,-0.011,-0.075,9.852,280.77,0,0,1,1,1,1,59.60151,5.4591311,3000,1005,20,80,+SHRA,1000,1,2000,2,3000,3,4000,4
19818.5,0.3,-0.435,0.091,0.481,0.297,-0.009,-0.137,9.81,280.77,0,0,1,1,1,1,59.60151,5.4591311,3000,1005,20,80,+SHRA,1000,1,2000,2,3000,3,4000,4
19819,0.3,-0.477,0.035,0.567,0.242,-0.01,-0.188,9.789,280.77,0,0,1,1,1,1,59.60151,5.4591311,3000,1005,20,80,+SHRA,1000,1,2000,2,3000,3,4000,4
19819.5,0.3,-0.519,-0.04,0.607,0.188,-0.015,-0.197,9.793,280.87,0,0,1,1,1,1,59.60151,5.4591311,3000,1005,20,80,+SHRA,1000,1,2000,2,3000,3,4000,4
19820,0.3,-0.56,-0.135,0.609,0.141,0,-0.183,9.796,280.87,0,0,1,1,1,1,59.60151,5.4591311,3000,1005,20,80,+SHRA,1000,1,2000,2,3000,3,4000,4
19820.5,0.3,-0.587,-0.243,0.582,0.1,0.022,-0.123,9.795,280.97,0,0,1,1,1,1,59.60151,5.4591311,3000,1005,20,80,+SHRA,1000,1,2000,2,3000,3,4000,4
19821,0.4,-0.6,-0.361,0.532,0.063,0.04,-0.067,9.793,280.97,0,0,1,1,1,1,59.60151,5.4591311,3000,1005,20,80,+SHRA,1000,1,2000,2,3000,3,4000,4
19821.5,0.4,-0.596,-0.481,0.463,0.023,0.07,-0.01,9.774,281.07,0,0,1,1,1,1,59.60151,5.4591311,3000,1005,20,80,+SHRA,1000,1,2000,2,3000,3,4000,4
19822,0.4,-0.57,-0.593,0.378,-0.021,0.1,0.034,9.754,281.07,0,0,1,1,1,1,59.60151,5.4591311,3000,1005,20,80,+SHRA,1000,1,2000,2,3000,3,4000,4
19822.5,0.4,-0.527,-0.687,0.277,-0.072,0.128,0.065,9.727,281.07,0,0,1,1,1,1,59.60151,5.4591311,3000,1005,20,80,+SHRA,1000,1,2000,2,3000,3,4000,4
19823,0.4,-0.47,-0.757,0.161,-0.126,0.158,0.062,9.697,281.07,0,0,1,1,1,1,59.60151,5.4591311,3000,1005,20,80,+SHRA,1000,1,2000,2,3000,3,4000,4
19823.5,0.4,-0.404,-0.793,0.034,-0.181,0.172,0.03,9.682,281.07,0,0,1,1,1,1,59.60151,5.4591311,3000,1005,20,80,+SHRA,1000,1,2000,2,3000,3,4000,4
19824,0.4,-0.336,-0.789,-0.1,-0.229,0.173,-0.01,9.681,281.07,0,0,1,1,1,1,59.60151,5.4591311,3000,1005,20,80,+SHRA,1000,1,2000,2,3000,3,4000,4
19824.5,0.4,-0.277,-0.746,-0.233,-0.265,0.172,-0.072,9.682,280.97,0,0,1,1,1,1,59.60151,5.4591311,3000,1005,20,80,+SHRA,1000,1,2000,2,3000,3,4000,4
19825,0.4,-0.227,-0.668,-0.356,-0.282,0.145,-0.131,9.708,280.97,0,0,1,1,1,1,59.60151,5.4591311,3000,1005,20,80,+SHRA,1000,1,2000,2,3000,3,4000,4
19825.5,0.4,-0.189,-0.558,-0.461,-0.282,0.115,-0.123,9.74,280.77,0,0,1,1,1,1,59.60151,5.4591311,3000,1005,20,80,+SHRA,1000,1,2000,2,3000,3,4000,4
19826,0.4,-0.165,-0.422,-0.54,-0.264,0.091,-0.147,9.768,280.77,0,0,1,1,1,1,59.60151,5.4591311,3000,1005,20,80,+SHRA,1000,1,2000,2,3000,3,4000,4
19826.5,0.4,-0.151,-0.275,-0.586,-0.225,0.049,-0.142,9.813,280.67,0,0,1,1,1,1,59.60151,5.4591311,3000,1005,20,80,+SHRA,1000,1,2000,2,3000,3,4000,4
19827,0.5,-0.15,-0.127,-0.594,-0.166,0.008,-0.111,9.866,280.67,0,0,1,1,1,1,59.60151,5.4591311,3000,1005,20,80,+SHRA,1000,1,2000,2,3000,3,4000,4
19827.5,0.5,-0.155,0.007,-0.56,-0.089,-0.015,-0.104,9.917,280.67,0,0,1,1,1,1,59.60151,5.4591311,3000,1005,20,80,+SHRA,1000,1,2000,2,3000,3,4000,4
19828,0.5,-0.172,0.116,-0.483,0.005,-0.046,-0.049,9.969,280.67,0,0,1,1,1,1,59.60151,5.4591311,3000,1005,20,80,+SHRA,1000,1,2000,2,3000,3,4000,4
19828.5,0.5,-0.199,0.191,-0.364,0.107,-0.072,-0.039,10.015,280.67,0,0,1,1,1,1,59.60151,5.4591311,3000,1005,20,80,+SHRA,1000,1,2000,2,3000,3,4000,4
19829,0.5,-0.238,0.223,-0.208,0.207,-0.076,-0.033,10.035,280.67,0,0,1,1,1,1,59.60151,5.4591311,3000,1005,20,80,+SHRA,1000,1,2000,2,3000,3,4000,4
19829.5,0.5,-0.288,0.21,-0.027,0.295,-0.081,0.018,10.042,280.87,0,0,1,1,1,1,59.60151,5.4591311,3000,1005,20,80,+SHRA,1000,1,2000,2,3000,3,4000,4
19830,0.5,-0.345,0.149,0.163,0.356,-0.059,0.024,10.008,280.87,0,0,1,1,1,1,59.60151,5.4591311,3000,1005,20,80,+SHRA,1000,1,2000,2,3000,3,4000,4
19830.5,0.5,-0.407,0.051,0.343,0.38,-0.027,0.009,9.948,280.97,0,0,1,1,1,1,59.60151,5.4591311,3000,1005,20,80,+SHRA,1000,1,2000,2,3000,3,4000,4
19831,0.5,-0.465,-0.075,0.496,0.366,0.004,0.031,9.879,280.97,0,0,1,1,1,1,59.60151,5.4591311,3000,1005,20,80,+SHRA,1000,1,2000,2,3000,3,4000,4
19831.5,0.5,-0.514,-0.218,0.603,0.309,0.043,-0.001,9.794,281.07,0,0,1,1,1,1,59.60151,5.4591311,3000,1005,20,80,+SHRA,1000,1,2000,2,3000,3,4000,4
19832,0.5,-0.554,-0.368,0.649,0.216,0.083,-0.036,9.713,281.07,0,0,1,1,1,1,59.60151,5.4591311,3000,1005,20,80,+SHRA,1000,1,2000,2,3000,3,4000,4
19832.5,0.5,-0.554,-0.368,0.649,0.216,0.083,-0.036,9.713,281.17,0,0,1,1,1,1,59.60151,5.4591311,3000,1005,20,80,+SHRA,1000,1,2000,2,3000,3,4000,4
19833,0.6,-0.572,-0.504,0.63,0.095,0.126,-0.049,9.634,281.17,0,0,1,1,1,1,59.60151,5.4591311,3000,1005,20,80,+SHRA,1000,1,2000,2,3000,3,4000,4
19833.5,0.6,-0.58,-0.617,0.546,-0.03,0.151,-0.092,9.599,281.17,0,0,1,1,1,1,59.60151,5.4591311,3000,1005,20,80,+SHRA,1000,1,2000,2,3000,3,4000,4
19834,0.6,-0.577,-0.698,0.409,-0.145,0.158,-0.152,9.596,281.17,0,0,1,1,1,1,59.60151,5.4591311,3000,1005,20,80,+SHRA,1000,1,2000,2,3000,3,4000,4
19834.5,0.6,-0.568,-0.74,0.239,-0.231,0.156,-0.137,9.633,280.97,0,0,1,1,1,1,59.60151,5.4591311,3000,1005,20,80,+SHRA,1000,1,2000,2,3000,3,4000,4
19835,0.6,-0.55,-0.745,0.057,-0.284,0.16,-0.161,9.665,280.97,0,0,1,1,1,1,59.60151,5.4591311,3000,1005,20,80,+SHRA,1000,1,2000,2,3000,3,4000,4
19835.5,0.6,-0.53,-0.714,-0.115,-0.299,0.138,-0.16,9.738,280.97,0,0,1,1,1,1,59.60151,5.4591311,3000,1005,20,80,+SHRA,1000,1,2000,2,3000,3,4000,4
19836,0.6,-0.506,-0.652,-0.259,-0.276,0.117,-0.121,9.796,280.97,0,0,1,1,1,1,59.60151,5.4591311,3000,1005,20,80,+SHRA,1000,1,2000,2,3000,3,4000,4
19836.5,0.6,-0.486,-0.565,-0.362,-0.231,0.106,-0.132,9.84,280.87,0,0,1,1,1,1,59.60151,5.4591311,3000,1005,20,80,+SHRA,1000,1,2000,2,3000,3,4000,4
19837,0.6,-0.463,-0.462,-0.42,-0.168,0.081,-0.094,9.878,280.87,0,0,1,1,1,1,59.60151,5.4591311,3000,1005,20,80,+SHRA,1000,1,2000,2,3000,3,4000,4
19837.5,0.6,-0.442,-0.349,-0.434,-0.105,0.062,-0.082,9.892,280.87,0,0,1,1,1,1,59.60151,5.4591311,3000,1005,20,80,+SHRA,1000,1,2000,2,3000,3,4000,4
19838,0.6,-0.423,-0.239,-0.41,-0.044,0.048,-0.102,9.892,280.87,0,0,1,1,1,1,59.60151,5.4591311,3000,1005,20,80,+SHRA,1000,1,2000,2,3000,3,4000,4
19838.5,0.6,-0.409,-0.137,-0.358,0.006,0.024,-0.082,9.884,280.77,0,0,1,1,1,1,59.60151,5.4591311,3000,1005,20,80,+SHRA,1000,1,2000,2,3000,3,4000,4
19839,0.7,-0.401,-0.048,-0.288,0.046,0.001,-0.053,9.884,280.77,0,0,1,1,1,1,59.60151,5.4591311,3000,1005,20,80,+SHRA,1000,1,2000,2,3000,3,4000,4
19839.5,0.7,-0.4,0.018,-0.208,0.074,-0.006,-0.033,9.866,280.97,0,0,1,1,1,1,59.60151,5.4591311,3000,1005,20,80,+SHRA,1000,1,2000,2,3000,3,4000,4
19840,0.7,-0.406,0.063,-0.124,0.098,-0.03,0.002,9.879,280.97,0,0,1,1,1,1,59.60151,5.4591311,3000,1005,20,80,+SHRA,1000,1,2000,2,3000,3,4000,4
19840.5,0.7,-0.416,0.073,-0.04,0.118,-0.037,0.02,9.877,281.07,0,0,1,1,1,1,59.60151,5.4591311,3000,1005,20,80,+SHRA,1000,1,2000,2,3000,3,4000,4
19841,0.7,-0.434,0.002,0.117,0.143,-0.032,-0.021,9.871,281.07,0,0,1,1,1,1,59.60151,5.4591311,3000,1005,20,80,+SHRA,1000,1,2000,2,3000,3,4000,4
19841.5,0.7,-0.436,-0.073,0.182,0.146,-0.015,-0.056,9.863,281.07,0,0,1,1,1,1,59.60151,5.4591311,3000,1005,20,80,+SHRA,1000,1,2000,2,3000,3,4000,4
19842,0.7,-0.436,-0.167,0.236,0.144,0.009,-0.106,9.855,281.07,0,0,1,1,1,1,59.60151,5.4591311,3000,1005,20,80,+SHRA,1000,1,2000,2,3000,3,4000,4
19842.5,0.7,-0.436,-0.167,0.236,0.144,0.009,-0.106,9.855,281.07,0,0,1,1,1,1,59.60151,5.4591311,3000,1005,20,80,+SHRA,1000,1,2000,2,3000,3,4000,4
19843,0.7,-0.421,-0.374,0.299,0.113,0.064,-0.145,9.816,281.07,0,0,1,1,1,1,59.60151,5.4591311,3000,1005,20,80,+SHRA,1000,1,2000,2,3000,3,4000,4
19843.5,0.7,-0.407,-0.47,0.302,0.079,0.102,-0.153,9.78,280.97,0,0,1,1,1,1,59.60151,5.4591311,3000,1005,20,80,+SHRA,1000,1,2000,2,3000,3,4000,4
19844,0.7,-0.399,-0.55,0.281,0.033,0.126,-0.118,9.748,280.97,0,0,1,1,1,1,59.60151,5.4591311,3000,1005,20,80,+SHRA,1000,1,2000,2,3000,3,4000,4
19844.5,0.7,-0.39,-0.605,0.235,-0.023,0.15,-0.087,9.716,280.97,0,0,1,1,1,1,59.60151,5.4591311,3000,1005,20,80,+SHRA,1000,1,2000,2,3000,3,4000,4
19845,0.8,-0.383,-0.63,0.165,-0.083,0.169,-0.051,9.688,280.97,0,0,1,1,1,1,59.60151,5.4591311,3000,1005,20,80,+SHRA,1000,1,2000,2,3000,3,4000,4
19845.5,0.8,-0.376,-0.623,0.075,-0.137,0.164,-0.024,9.69,280.97,0,0,1,1,1,1,59.60151,5.4591311,3000,1005,20,80,+SHRA,1000,1,2000,2,3000,3,4000,4
19846,0.8,-0.369,-0.584,-0.025,-0.179,0.152,-0.033,9.699,280.97,0,0,1,1,1,1,59.60151,5.4591311,3000,1005,20,80,+SHRA,1000,1,2000,2,3000,3,4000,4
19846.5,0.8,-0.359,-0.518,-0.127,-0.205,0.136,-0.036,9.718,280.97,0,0,1,1,1,1,59.60151,5.4591311,3000,1005,20,80,+SHRA,1000,1,2000,2,3000,3,4000,4
19847,0.8,-0.346,-0.431,-0.22,-0.209,0.105,-0.011,9.755,280.97,0,0,1,1,1,1,59.60151,5.4591311,3000,1005,20,80,+SHRA,1000,1,2000,2,3000,3,4000,4
19847.5,0.8,-0.337,-0.334,-0.292,-0.19,0.068,0.007,9.802,280.97,0,0,1,1,1,1,59.60151,5.4591311,3000,1005,20,80,+SHRA,1000,1,2000,2,3000,3,4000,4
19848,0.8,-0.327,-0.233,-0.336,-0.148,0.032,0.02,9.852,280.97,0,0,1,1,1,1,59.60151,5.4591311,3000,1005,20,80,+SHRA,1000,1,2000,2,3000,3,4000,4
19848.5,0.8,-0.323,-0.139,-0.344,-0.084,-0.01,0.03,9.91,280.97,0,0,1,1,1,1,59.60151,5.4591311,3000,1005,20,80,+SHRA,1000,1,2000,2,3000,3,4000,4
19849,0.8,-0.326,-0.065,-0.311,-0.005,-0.043,-0.005,9.957,280.97,0,0,1,1,1,1,59.60151,5.4591311,3000,1005,20,80,+SHRA,1000,1,2000,2,3000,3,4000,4
19849.5,0.8,-0.334,-0.019,-0.24,0.078,-0.055,-0.055,9.975,280.97,0,0,1,1,1,1,59.60151,5.4591311,3000,1005,20,80,+SHRA,1000,1,2000,2,3000,3,4000,4
19850,0.8,-0.347,-0.004,-0.14,0.151,-0.059,-0.097,9.977,280.97,0,0,1,1,1,1,59.60151,5.4591311,3000,1005,20,80,+SHRA,1000,1,2000,2,3000,3,4000,4
19850.5,0.8,-0.363,-0.023,-0.022,0.202,-0.04,-0.126,9.944,281.07,0,0,1,1,1,1,59.60151,5.4591311,3000,1005,20,80,+SHRA,1000,1,2000,2,3000,3,4000,4
19851,0.9,-0.379,-0.071,0.095,0.221,-0.01,-0.138,9.893,281.07,0,0,1,1,1,1,59.60151,5.4591311,3000,1005,20,80,+SHRA,1000,1,2000,2,3000,3,4000,4
19851.5,0.9,-0.394,-0.14,0.195,0.206,0.024,-0.127,9.827,281.07,0,0,1,1,1,1,59.60151,5.4591311,3000,1005,20,80,+SHRA,1000,1,2000,2,3000,3,4000,4
19852,0.9,-0.406,-0.224,0.263,0.157,0.057,-0.104,9.759,281.07,0,0,1,1,1,1,59.60151,5.4591311,3000,1005,20,80,+SHRA,1000,1,2000,2,3000,3,4000,4
19852.5,0.9,-0.417,-0.308,0.289,0.085,0.09,-0.089,9.698,280.97,0,0,1,1,1,1,59.60151,5.4591311,3000,1005,20,80,+SHRA,1000,1,2000,2,3000,3,4000,4
19853,0.9,-0.428,-0.386,0.269,0,0.108,-0.085,9.664,280.97,0,0,1,1,1,1,59.60151,5.4591311,3000,1005,20,80,+SHRA,1000,1,2000,2,3000,3,4000,4
19853.5,0.9,-0.443,-0.444,0.209,-0.08,0.123,-0.096,9.657,280.97,0,0,1,1,1,1,59.60151,5.4591311,3000,1005,20,80,+SHRA,1000,1,2000,2,3000,3,4000,4
19854,0.9,-0.457,-0.481,0.122,-0.141,0.124,-0.102,9.683,280.97,0,0,1,1,1,1,59.60151,5.4591311,3000,1005,20,80,+SHRA,1000,1,2000,2,3000,3,4000,4
19854.5,0.9,-0.478,-0.494,0.025,-0.167,0.11,-0.089,9.748,280.97,0,0,1,1,1,1,59.60151,5.4591311,3000,1005,20,80,+SHRA,1000,1,2000,2,3000,3,4000,4
19855,0.9,-0.499,-0.486,-0.062,-0.155,0.1,-0.078,9.816,280.97,0,0,1,1,1,1,59.60151,5.4591311,3000,1005,20,80,+SHRA,1000,1,2000,2,3000,3,4000,4
19855.5,0.9,-0.519,-0.461,-0.12,-0.106,0.08,-0.058,9.895,281.07,0,0,1,1,1,1,59.60151,5.4591311,3000,1005,20,80,+SHRA,1000,1,2000,2,3000,3,4000,4
19856,0.9,-0.532,-0.428,-0.14,-0.034,0.066,-0.017,9.946,281.07,0,0,1,1,1,1,59.60151,5.4591311,3000,1005,20,80,+SHRA,1000,1,2000,2,3000,3,4000,4
19856.5,0.9,-0.536,-0.396,-0.119,0.044,0.051,0.005,9.977,281.07,0,0,1,1,1,1,59.60151,5.4591311,3000,1005,20,80,+SHRA,1000,1,2000,2,3000,3,4000,4
19857,1.0,-0.527,-0.363,-0.065,0.113,0.046,0.022,9.966,281.07,0,0,1,1,1,1,59.60151,5.4591311,3000,1005,20,80,+SHRA,1000,1,2000,2,3000,3,4000,4
19857.5,1.0,-0.502,-0.338,0.008,0.155,0.042,0.016,9.929,281.07,0,0,1,1,1,1,59.60151,5.4591311,3000,1005,20,80,+SHRA,1000,1,2000,2,3000,3,4000,4
19858,1.0,-0.457,-0.32,0.084,0.167,0.044,-0.011,9.87,281.07,0,0,1,1,1,1,59.60151,5.4591311,3000,1005,20,80,+SHRA,1000,1,2000,2,3000,3,4000,4
19858.5,1.0,-0.401,-0.307,0.144,0.141,0.048,-0.05,9.795,280.97,0,0,1,1,1,1,59.60151,5.4591311,3000,1005,20,80,+SHRA,1000,1,2000,2,3000,3,4000,4
19859,1.0,-0.34,-0.297,0.173,0.085,0.052,-0.101,9.73,280.97,0,0,1,1,1,1,59.60151,5.4591311,3000,1005,20,80,+SHRA,1000,1,2000,2,3000,3,4000,4
19859.5,1.0,-0.283,-0.284,0.164,0.007,0.059,-0.12,9.671,280.97,0,0,1,1,1,1,59.60151,5.4591311,3000,1005,20,80,+SHRA,1000,1,2000,2,3000,3,4000,4
19860,1.0,-0.283,-0.284,0.164,0.007,0.059,-0.12,9.671,280.97,0,0,1,1,1,1,59.60151,5.4591311,3000,1005,20,80,+SHRA,1000,1,2000,2,3000,3,4000,4
19860.5,1.0,-0.245,-0.268,0.116,-0.075,0.057,-0.113,9.65,280.97,0,0,1,1,1,1,59.60151,5.4591311,3000,1005,20,80,+SHRA,1000,1,2000,2,3000,3,4000,4
19861,1.0,-0.23,-0.247,0.037,-0.149,0.058,-0.095,9.647,280.97,0,0,1,1,1,1,59.60151,5.4591311,3000,1005,20,80,+SHRA,1000,1,2000,2,3000,3,4000,4
19861.5,1.0,-0.241,-0.223,-0.062,-0.201,0.055,-0.085,9.675,280.97,0,0,1,1,1,1,59.60151,5.4591311,3000,1005,20,80,+SHRA,1000,1,2000,2,3000,3,4000,4
19862,1.0,-0.28,-0.201,-0.164,-0.229,0.054,-0.076,9.709,280.97,0,0,1,1,1,1,59.60151,5.4591311,3000,1005,20,80,+SHRA,1000,1,2000,2,3000,3,4000,4
19862.5,1.0,-0.339,-0.183,-0.255,-0.226,0.046,-0.074,9.764,280.97,0,0,1,1,1,1,59.60151,5.4591311,3000,1005,20,80,+SHRA,1000,1,2000,2,3000,3,4000,4
19863,1.1,-0.408,-0.17,-0.321,-0.198,0.043,-0.086,9.812,280.97,0,0,1,1,1,1,59.60151,5.4591311,3000,1005,20,80,+SHRA,1000,1,2000,2,3000,3,4000,4
19863.5,1.1,-0.476,-0.169,-0.355,-0.146,0.034,-0.113,9.867,281.07,0,0,1,1,1,1,59.60151,5.4591311,3000,1005,20,80,+SHRA,1000,1,2000,2,3000,3,4000,4
19864,1.1,-0.529,-0.174,-0.35,-0.079,0.03,-0.131,9.905,281.07,0,0,1,1,1,1,59.60151,5.4591311,3000,1005,20,80,+SHRA,1000,1,2000,2,3000,3,4000,4
19864.5,1.1,-0.561,-0.188,-0.307,-0.004,0.027,-0.133,9.94,281.07,0,0,1,1,1,1,59.60151,5.4591311,3000,1005,20,80,+SHRA,1000,1,2000,2,3000,3,4000,4
19865,1.1,-0.572,-0.214,-0.23,0.075,0.026,-0.121,9.963,281.07,0,0,1,1,1,1,59.60151,5.4591311,3000,1005,20,80,+SHRA,1000,1,2000,2,3000,3,4000,4
19865.5,1.1,-0.561,-0.251,-0.125,0.148,0.026,-0.098,9.981,280.97,0,0,1,1,1,1,59.60151,5.4591311,3000,1005,20,80,+SHRA,1000,1,2000,2,3000,3,4000,4
19866,1.1,-0.535,-0.295,0.001,0.219,0.026,-0.049,9.997,280.97,0,0,1,1,1,1,59.60151,5.4591311,3000,1005,20,80,+SHRA,1000,1,2000,2,3000,3,4000,4
19866.5,1.1,-0.497,-0.342,0.139,0.279,0.032,0.02,10.002,281.07,0,0,1,1,1,1,59.60151,5.4591311,3000,1005,20,80,+SHRA,1000,1,2000,2,3000,3,4000,4
19867,1.1,-0.459,-0.394,0.281,0.327,0.042,0.073,9.995,281.07,0,0,1,1,1,1,59.60151,5.4591311,3000,1005,20,80,+SHRA,1000,1,2000,2,3000,3,4000,4
19867.5,1.1,-0.424,-0.446,0.415,0.348,0.059,0.101,9.952,281.07,0,0,1,1,1,1,59.60151,5.4591311,3000,1005,20,80,+SHRA,1000,1,2000,2,3000,3,4000,4
19868,1.1,-0.404,-0.498,0.526,0.332,0.082,0.102,9.881,281.07,0,0,1,1,1,1,59.60151,5.4591311,3000,1005,20,80,+SHRA,1000,1,2000,2,3000,3,4000,4
19868.5,1.1,-0.398,-0.539,0.595,0.273,0.11,0.073,9.782,280.87,0,0,1,1,1,1,59.60151,5.4591311,3000,1005,20,80,+SHRA,1000,1,2000,2,3000,3,4000,4
19869,1.2,-0.408,-0.562,0.608,0.172,0.129,0.005,9.685,280.87,0,0,1,1,1,1,59.60151,5.4591311,3000,1005,20,80,+SHRA,1000,1,2000,2,3000,3,4000,4
19869.5,1.2,-0.429,-0.568,0.554,0.039,0.141,-0.078,9.594,280.87,0,0,1,1,1,1,59.60151,5.4591311,3000,1005,20,80,+SHRA,1000,1,2000,2,3000,3,4000,4
19870,1.2,-0.462,-0.544,0.433,-0.114,0.148,-0.139,9.521,280.87,0,0,1,1,1,1,59.60151,5.4591311,3000,1005,20,80,+SHRA,1000,1,2000,2,3000,3,4000,4
19870.5,1.2,-0.502,-0.492,0.251,-0.265,0.14,-0.183,9.485,280.77,0,0,1,1,1,1,59.60151,5.4591311,3000,1005,20,80,+SHRA,1000,1,2000,2,3000,3,4000,4
19871,1.2,-0.544,-0.412,0.025,-0.398,0.12,-0.235,9.487,280.77,0,0,1,1,1,1,59.60151,5.4591311,3000,1005,20,80,+SHRA,1000,1,2000,2,3000,3,4000,4
19871.5,1.2,-0.587,-0.31,-0.222,-0.489,0.095,-0.265,9.536,280.67,0,0,1,1,1,1,59.60151,5.4591311,3000,1005,20,80,+SHRA,1000,1,2000,2,3000,3,4000,4
19872,1.2,-0.622,-0.198,-0.462,-0.529,0.068,-0.282,9.609,280.67,0,0,1,1,1,1,59.60151,5.4591311,3000,1005,20,80,+SHRA,1000,1,2000,2,3000,3,4000,4
19872.5,1.2,-0.646,-0.085,-0.664,-0.506,0.02,-0.276,9.732,280.77,0,0,1,1,1,1,59.60151,5.4591311,3000,1005,20,80,+SHRA,1000,1,2000,2,3000,3,4000,4
19873,1.2,-0.654,0.016,-0.802,-0.423,-0.015,-0.219,9.851,280.77,0,0,1,1,1,1,59.60151,5.4591311,3000,1005,20,80,+SHRA,1000,1,2000,2,3000,3,4000,4
19873.5,1.2,-0.646,0.09,-0.858,-0.289,-0.046,-0.13,9.975,280.87,0,0,1,1,1,1,59.60151,5.4591311,3000,1005,20,80,+SHRA,1000,1,2000,2,3000,3,4000,4
19874,1.2,-0.588,0.122,-0.695,0.067,-0.08,0.024,10.152,280.87,0,0,1,1,1,1,59.60151,5.4591311,3000,1005,20,80,+SHRA,1000,1,2000,2,3000,3,4000,4
19874.5,1.2,-0.547,0.066,-0.488,0.253,-0.076,0.064,10.188,280.97,0,0,1,1,1,1,59.60151,5.4591311,3000,1005,20,80,+SHRA,1000,1,2000,2,3000,3,4000,4
19875,1.3,-0.506,-0.031,-0.223,0.41,-0.064,0.045,10.182,280.97,0,0,1,1,1,1,59.60151,5.4591311,3000,1005,20,80,+SHRA,1000,1,2000,2,3000,3,4000,4
19875.5,1.3,-0.47,-0.163,0.072,0.53,-0.049,0.02,10.155,280.97,0,0,1,1,1,1,59.60151,5.4591311,3000,1005,20,80,+SHRA,1000,1,2000,2,3000,3,4000,4
19876,1.3,-0.445,-0.318,0.367,0.591,0.005,-0.016,10.065,280.97,0,0,1,1,1,1,59.60151,5.4591311,3000,1005,20,80,+SHRA,1000,1,2000,2,3000,3,4000,4
19876.5,1.3,-0.429,-0.482,0.628,0.594,0.054,-0.056,9.967,280.87,0,0,1,1,1,1,59.60151,5.4591311,3000,1005,20,80,+SHRA,1000,1,2000,2,3000,3,4000,4
19877,1.3,-0.421,-0.635,0.83,0.531,0.108,-0.089,9.841,280.87,0,0,1,1,1,1,59.60151,5.4591311,3000,1005,20,80,+SHRA,1000,1,2000,2,3000,3,4000,4
19877.5,1.3,-0.414,-0.761,0.947,0.412,0.163,-0.098,9.725,280.77,0,0,1,1,1,1,59.60151,5.4591311,3000,1005,20,80,+SHRA,1000,1,2000,2,3000,3,4000,4
19878,1.3,-0.406,-0.846,0.966,0.244,0.224,-0.084,9.588,280.77,0,0,1,1,1,1,59.60151,5.4591311,3000,1005,20,80,+SHRA,1000,1,2000,2,3000,3,4000,4
19878.5,1.3,-0.393,-0.879,0.882,0.047,0.247,-0.068,9.496,280.67,0,0,1,1,1,1,59.60151,5.4591311,3000,1005,20,80,+SHRA,1000,1,2000,2,3000,3,4000,4
19879,1.3,-0.373,-0.855,0.703,-0.158,0.258,-0.057,9.424,280.67,0,0,1,1,1,1,59.60151,5.4591311,3000,1005,20,80,+SHRA,1000,1,2000,2,3000,3,4000,4
19879.5,1.3,-0.349,-0.773,0.447,-0.347,0.236,-0.05,9.418,280.57,0,0,1,1,1,1,59.60151,5.4591311,3000,1005,20,80,+SHRA,1000,1,2000,2,3000,3,4000,4
19880,1.3,-0.326,-0.646,0.142,-0.492,0.185,-0.061,9.457,280.57,0,0,1,1,1,1,59.60151,5.4591311,3000,1005,20,80,+SHRA,1000,1,2000,2,3000,3,4000,4
19880.5,1.3,-0.307,-0.478,-0.177,-0.582,0.131,-0.066,9.532,280.57,0,0,1,1,1,1,59.60151,5.4591311,3000,1005,20,80,+SHRA,1000,1,2000,2,3000,3,4000,4
19881,1.4,-0.29,-0.292,-0.473,-0.605,0.069,-0.069,9.631,280.57,0,0,1,1,1,1,59.60151,5.4591311,3000,1005,20,80,+SHRA,1000,1,2000,2,3000,3,4000,4
19881.5,1.4,-0.276,-0.104,-0.717,-0.567,0.002,-0.09,9.747,280.57,0,0,1,1,1,1,59.60151,5.4591311,3000,1005,20,80,+SHRA,1000,1,2000,2,3000,3,4000,4
19882,1.4,-0.262,0.067,-0.883,-0.469,-0.056,-0.112,9.867,280.57,0,0,1,1,1,1,59.60151,5.4591311,3000,1005,20,80,+SHRA,1000,1,2000,2,3000,3,4000,4
19882.5,1.4,-0.25,0.201,-0.957,-0.329,-0.098,-0.105,9.97,280.57,0,0,1,1,1,1,59.60151,5.4591311,3000,1005,20,80,+SHRA,1000,1,2000,2,3000,3,4000,4
19883,1.4,-0.238,0.287,-0.933,-0.159,-0.129,-0.091,10.056,280.57,0,0,1,1,1,1,59.60151,5.4591311,3000,1005,20,80,+SHRA,1000,1,2000,2,3000,3,4000,4
19883.5,1.4,-0.231,0.314,-0.818,0.016,-0.134,-0.093,10.102,280.67,0,0,1,1,1,1,59.60151,5.4591311,3000,1005,20,80,+SHRA,1000,1,2000,2,3000,3,4000,4
19884,1.4,-0.235,0.284,-0.627,0.184,-0.13,-0.071,10.137,280.67,0,0,1,1,1,1,59.60151,5.4591311,3000,1005,20,80,+SHRA,1000,1,2000,2,3000,3,4000,4
19884.5,1.4,-0.256,0.196,-0.38,0.329,-0.101,-0.036,10.129,280.77,0,0,1,1,1,1,59.60151,5.4591311,3000,1005,20,80,+SHRA,1000,1,2000,2,3000,3,4000,4
19885,1.4,-0.294,0.062,-0.104,0.438,-0.057,-0.011,10.098,280.77,0,0,1,1,1,1,59.60151,5.4591311,3000,1005,20,80,+SHRA,1000,1,2000,2,3000,3,4000,4
19885.5,1.4,-0.351,-0.104,0.176,0.503,-0.002,0.007,10.043,280.77,0,0,1,1,1,1,59.60151,5.4591311,3000,1005,20,80,+SHRA,1000,1,2000,2,3000,3,4000,4
19886,1.4,-0.422,-0.286,0.432,0.523,0.05,0.013,9.981,280.77,0,0,1,1,1,1,59.60151,5.4591311,3000,1005,20,80,+SHRA,1000,1,2000,2,3000,3,4000,4
19886.5,1.4,-0.499,-0.468,0.644,0.496,0.108,0.028,9.895,280.77,0,0,1,1,1,1,59.60151,5.4591311,3000,1005,20,80,+SHRA,1000,1,2000,2,3000,3,4000,4
19887,1.5,-0.573,-0.634,0.794,0.429,0.152,0.025,9.818,280.77,0,0,1,1,1,1,59.60151,5.4591311,3000,1005,20,80,+SHRA,1000,1,2000,2,3000,3,4000,4
19887.5,1.5,-0.637,-0.769,0.872,0.328,0.19,0.021,9.735,280.67,0,0,1,1,1,1,59.60151,5.4591311,3000,1005,20,80,+SHRA,1000,1,2000,2,3000,3,4000,4
19888,1.5,-0.679,-0.859,0.873,0.201,0.21,0.011,9.664,280.67,0,0,1,1,1,1,59.60151,5.4591311,3000,1005,20,80,+SHRA,1000,1,2000,2,3000,3,4000,4
19888.5,1.5,-0.697,-0.903,0.797,0.059,0.217,-0.022,9.6,280.67,0,0,1,1,1,1,59.60151,5.4591311,3000,1005,20,80,+SHRA,1000,1,2000,2,3000,3,4000,4
19889,1.5,-0.688,-0.895,0.653,-0.086,0.205,-0.066,9.563,280.67,0,0,1,1,1,1,59.60151,5.4591311,3000,1005,20,80,+SHRA,1000,1,2000,2,3000,3,4000,4
19889.5,1.5,-0.656,-0.839,0.454,-0.222,0.183,-0.13,9.54,280.57,0,0,1,1,1,1,59.60151,5.4591311,3000,1005,20,80,+SHRA,1000,1,2000,2,3000,3,4000,4
19890,1.5,-0.607,-0.742,0.217,-0.343,0.155,-0.197,9.532,280.57,0,0,1,1,1,1,59.60151,5.4591311,3000,1005,20,80,+SHRA,1000,1,2000,2,3000,3,4000,4
19890.5,1.5,-0.551,-0.608,-0.041,-0.44,0.125,-0.254,9.536,280.47,0,0,1,1,1,1,59.60151,5.4591311,3000,1005,20,80,+SHRA,1000,1,2000,2,3000,3,4000,4
19891,1.5,-0.491,-0.451,-0.301,-0.515,0.099,-0.302,9.544,280.47,0,0,1,1,1,1,59.60151,5.4591311,3000,1005,20,80,+SHRA,1000,1,2000,2,3000,3,4000,4
19891.5,1.5,-0.442,-0.282,-0.549,-0.558,0.063,-0.32,9.587,280.37,0,0,1,1,1,1,59.60151,5.4591311,3000,1005,20,80,+SHRA,1000,1,2000,2,3000,3,4000,4
19892,1.5,-0.408,-0.109,-0.763,-0.56,0.03,-0.302,9.655,280.37,0,0,1,1,1,1,59.60151,5.4591311,3000,1005,20,80,+SHRA,1000,1,2000,2,3000,3,4000,4
19892.5,1.5,-0.396,0.05,-0.924,-0.504,-0.015,-0.252,9.778,280.37,0,0,1,1,1,1,59.60151,5.4591311,3000,1005,20,80,+SHRA,1000,1,2000,2,3000,3,4000,4
19893,1.6,-0.408,0.182,-1.007,-0.386,-0.062,-0.173,9.918,280.37,0,0,1,1,1,1,59.60151,5.4591311,3000,1005,20,80,+SHRA,1000,1,2000,2,3000,3,4000,4
19893.5,1.6,-0.438,0.277,-0.995,-0.209,-0.104,-0.052,10.075,280.47,0,0,1,1,1,1,59.60151,5.4591311,3000,1005,20,80,+SHRA,1000,1,2000,2,3000,3,4000,4
19894,1.6,-0.481,0.315,-0.875,0.012,-0.127,0.044,10.2,280.47,0,0,1,1,1,1,59.60151,5.4591311,3000,1005,20,80,+SHRA,1000,1,2000,2,3000,3,4000,4
19894.5,1.6,-0.53,0.294,-0.652,0.249,-0.143,0.138,10.296,280.67,0,0,1,1,1,1,59.60151,5.4591311,3000,1005,20,80,+SHRA,1000,1,2000,2,3000,3,4000,4
19895,1.6,-0.53,0.294,-0.652,0.249,-0.143,0.138,10.296,280.67,0,0,1,1,1,1,59.60151,5.4591311,3000,1005,20,80,+SHRA,1000,1,2000,2,3000,3,4000,4
19895.5,1.6,-0.584,0.212,-0.342,0.474,-0.13,0.189,10.327,280.67,0,0,1,1,1,1,59.60151,5.4591311,3000,1005,20,80,+SHRA,1000,1,2000,2,3000,3,4000,4
19896,1.6,-0.634,0.076,0.025,0.657,-0.1,0.156,10.302,280.67,0,0,1,1,1,1,59.60151,5.4591311,3000,1005,20,80,+SHRA,1000,1,2000,2,3000,3,4000,4
19896.5,1.6,-0.677,-0.102,0.409,0.775,-0.058,0.125,10.217,280.67,0,0,1,1,1,1,59.60151,5.4591311,3000,1005,20,80,+SHRA,1000,1,2000,2,3000,3,4000,4
19897,1.6,-0.707,-0.308,0.767,0.805,0.008,0.082,10.068,280.67,0,0,1,1,1,1,59.60151,5.4591311,3000,1005,20,80,+SHRA,1000,1,2000,2,3000,3,4000,4
19897.5,1.6,-0.725,-0.519,1.055,0.738,0.091,-0.03,9.878,280.67,0,0,1,1,1,1,59.60151,5.4591311,3000,1005,20,80,+SHRA,1000,1,2000,2,3000,3,4000,4
19898,1.6,-0.728,-0.717,1.231,0.576,0.163,-0.166,9.673,280.67,0,0,1,1,1,1,59.60151,5.4591311,3000,1005,20,80,+SHRA,1000,1,2000,2,3000,3,4000,4
19898.5,1.6,-0.722,-0.876,1.269,0.331,0.238,-0.229,9.463,280.57,0,0,1,1,1,1,59.60151,5.4591311,3000,1005,20,80,+SHRA,1000,1,2000,2,3000,3,4000,4
19899,1.7,-0.702,-0.976,1.153,0.029,0.301,-0.297,9.288,280.57,0,0,1,1,1,1,59.60151,5.4591311,3000,1005,20,80,+SHRA,1000,1,2000,2,3000,3,4000,4
19899.5,1.7,-0.668,-1.001,0.892,-0.286,0.32,-0.331,9.194,280.37,0,0,1,1,1,1,59.60151,5.4591311,3000,1005,20,80,+SHRA,1000,1,2000,2,3000,3,4000,4
19900,1.7,-0.618,-0.95,0.513,-0.573,0.301,-0.281,9.182,280.37,0,0,1,1,1,1,59.60151,5.4591311,3000,1005,20,80,+SHRA,1000,1,2000,2,3000,3,4000,4
19900.5,1.7,-0.557,-0.827,0.063,-0.788,0.249,-0.254,9.257,280.37,0,0,1,1,1,1,59.60151,5.4591311,3000,1005,20,80,+SHRA,1000,1,2000,2,3000,3,4000,4
19901,1.7,-0.485,-0.644,-0.401,-0.903,0.169,-0.221,9.407,280.37,0,0,1,1,1,1,59.60151,5.4591311,3000,1005,20,80,+SHRA,1000,1,2000,2,3000,3,4000,4
19901.5,1.7,-0.407,-0.426,-0.82,-0.904,0.077,-0.11,9.611,280.27,0,0,1,1,1,1,59.60151,5.4591311,3000,1005,20,80,+SHRA,1000,1,2000,2,3000,3,4000,4
19902,1.7,-0.336,-0.195,-1.14,-0.79,-0.009,-0.061,9.831,280.27,0,0,1,1,1,1,59.60151,5.4591311,3000,1005,20,80,+SHRA,1000,1,2000,2,3000,3,4000,4
19902.5,1.7,-0.274,0.018,-1.319,-0.575,-0.095,-0.018,10.056,280.37,0,0,1,1,1,1,59.60151,5.4591311,3000,1005,20,80,+SHRA,1000,1,2000,2,3000,3,4000,4
19903,1.7,-0.233,0.193,-1.336,-0.289,-0.155,0.018,10.241,280.37,0,0,1,1,1,1,59.60151,5.4591311,3000,1005,20,80,+SHRA,1000,1,2000,2,3000,3,4000,4
19903.5,1.7,-0.215,0.304,-1.188,0.026,-0.182,0.051,10.356,280.37,0,0,1,1,1,1,59.60151,5.4591311,3000,1005,20,80,+SHRA,1000,1,2000,2,3000,3,4000,4
19904,1.7,-0.222,0.344,-0.899,0.331,-0.191,0.038,10.412,280.37,0,0,1,1,1,1,59.60151,5.4591311,3000,1005,20,80,+SHRA,1000,1,2000,2,3000,3,4000,4
19904.5,1.7,-0.252,0.307,-0.507,0.587,-0.16,0.041,10.38,280.37,0,0,1,1,1,1,59.60151,5.4591311,3000,1005,20,80,+SHRA,1000,1,2000,2,3000,3,4000,4
19905,1.8,-0.298,0.203,-0.061,0.765,-0.106,0.071,10.288,280.37,0,0,1,1,1,1,59.60151,5.4591311,3000,1005,20,80,+SHRA,1000,1,2000,2,3000,3,4000,4
19905.5,1.8,-0.357,0.043,0.383,0.851,-0.052,0.056,10.157,280.47,0,0,1,1,1,1,59.60151,5.4591311,3000,1005,20,80,+SHRA,1000,1,2000,2,3000,3,4000,4
19906,1.8,-0.418,-0.153,0.775,0.837,0.015,0.025,9.99,280.47,0,0,1,1,1,1,59.60151,5.4591311,3000,1005,20,80,+SHRA,1000,1,2000,2,3000,3,4000,4
19906.5,1.8,-0.471,-0.36,1.069,0.727,0.094,-0.021,9.795,280.37,0,0,1,1,1,1,59.60151,5.4591311,3000,1005,20,80,+SHRA,1000,1,2000,2,3000,3,4000,4
19907,1.8,-0.511,-0.555,1.236,0.536,0.156,-0.068,9.619,280.37,0,0,1,1,1,1,59.60151,5.4591311,3000,1005,20,80,+SHRA,1000,1,2000,2,3000,3,4000,4
19907.5,1.8,-0.54,-0.718,1.258,0.293,0.2,-0.104,9.478,280.37,0,0,1,1,1,1,59.60151,5.4591311,3000,1005,20,80,+SHRA,1000,1,2000,2,3000,3,4000,4
19908,1.8,-0.555,-0.889,0.894,-0.236,0.248,-0.117,9.327,280.37,0,0,1,1,1,1,59.60151,5.4591311,3000,1005,20,80,+SHRA,1000,1,2000,2,3000,3,4000,4
19908.5,1.8,-0.547,-0.884,0.56,-0.454,0.226,-0.096,9.354,280.27,0,0,1,1,1,1,59.60151,5.4591311,3000,1005,20,80,+SHRA,1000,1,2000,2,3000,3,4000,4
19909,1.8,-0.529,-0.819,0.178,-0.609,0.192,-0.08,9.43,280.27,0,0,1,1,1,1,59.60151,5.4591311,3000,1005,20,80,+SHRA,1000,1,2000,2,3000,3,4000,4
19909.5,1.8,-0.503,-0.709,-0.205,-0.685,0.148,-0.092,9.539,280.17,0,0,1,1,1,1,59.60151,5.4591311,3000,1005,20,80,+SHRA,1000,1,2000,2,3000,3,4000,4
19910,1.8,-0.471,-0.565,-0.548,-0.681,0.087,-0.121,9.671,280.17,0,0,1,1,1,1,59.60151,5.4591311,3000,1005,20,80,+SHRA,1000,1,2000,2,3000,3,4000,4
19910.5,1.8,-0.435,-0.412,-0.815,-0.607,0.036,-0.134,9.802,280.07,0,0,1,1,1,1,59.60151,5.4591311,3000,1005,20,80,+SHRA,1000,1,2000,2,3000,3,4000,4
19911,1.9,-0.399,-0.257,-0.985,-0.484,0.003,-0.171,9.903,280.07,0,0,1,1,1,1,59.60151,5.4591311,3000,1005,20,80,+SHRA,1000,1,2000,2,3000,3,4000,4
19911.5,1.9,-0.37,-0.117,-1.05,-0.326,-0.034,-0.2,9.994,280.07,0,0,1,1,1,1,59.60151,5.4591311,3000,1005,20,80,+SHRA,1000,1,2000,2,3000,3,4000,4
19912,1.9,-0.357,-0.006,-1.015,-0.16,-0.041,-0.153,10.033,280.07,0,0,1,1,1,1,59.60151,5.4591311,3000,1005,20,80,+SHRA,1000,1,2000,2,3000,3,4000,4
19912.5,1.9,-0.361,0.073,-0.894,-0.003,-0.036,-0.141,10.049,280.07,0,0,1,1,1,1,59.60151,5.4591311,3000,1005,20,80,+SHRA,1000,1,2000,2,3000,3,4000,4
19913,1.9,-0.385,0.118,-0.71,0.131,-0.027,-0.119,10.04,280.07,0,0,1,1,1,1,59.60151,5.4591311,3000,1005,20,80,+SHRA,1000,1,2000,2,3000,3,4000,4
19913.5,1.9,-0.428,0.129,-0.486,0.236,-0.022,-0.064,10.029,280.07,0,0,1,1,1,1,59.60151,5.4591311,3000,1005,20,80,+SHRA,1000,1,2000,2,3000,3,4000,4
19914,1.9,-0.484,0.11,-0.243,0.316,-0.009,-0.044,10.003,280.07,0,0,1,1,1,1,59.60151,5.4591311,3000,1005,20,80,+SHRA,1000,1,2000,2,3000,3,4000,4
19914.5,1.9,-0.544,0.066,0,0.373,-0.01,-0.029,9.996,280.17,0,0,1,1,1,1,59.60151,5.4591311,3000,1005,20,80,+SHRA,1000,1,2000,2,3000,3,4000,4
19915,1.9,-0.544,0.066,0,0.373,-0.01,-0.029,9.996,280.17,0,0,1,1,1,1,59.60151,5.4591311,3000,1005,20,80,+SHRA,1000,1,2000,2,3000,3,4000,4
19915.5,1.9,-0.604,-0.002,0.232,0.414,-0.01,0.004,9.991,280.27,0,0,1,1,1,1,59.60151,5.4591311,3000,1005,20,80,+SHRA,1000,1,2000,2,3000,3,4000,4
19916,1.9,-0.653,-0.09,0.442,0.437,0,-0.005,9.973,280.27,0,0,1,1,1,1,59.60151,5.4591311,3000,1005,20,80,+SHRA,1000,1,2000,2,3000,3,4000,4
19916.5,1.9,-0.685,-0.191,0.623,0.443,0.009,-0.025,9.957,280.27,0,0,1,1,1,1,59.60151,5.4591311,3000,1005,20,80,+SHRA,1000,1,2000,2,3000,3,4000,4
19917,2.0,-0.702,-0.416,0.867,0.388,0.053,-0.056,9.868,280.27,0,0,1,1,1,1,59.60151,5.4591311,3000,1005,20,80,+SHRA,1000,1,2000,2,3000,3,4000,4
19917.5,2.0,-0.688,-0.525,0.915,0.319,0.076,-0.08,9.807,280.27,0,0,1,1,1,1,59.60151,5.4591311,3000,1005,20,80,+SHRA,1000,1,2000,2,3000,3,4000,4
19918,2.0,-0.657,-0.624,0.904,0.223,0.111,-0.088,9.73,280.27,0,0,1,1,1,1,59.60151,5.4591311,3000,1005,20,80,+SHRA,1000,1,2000,2,3000,3,4000,4
19918.5,2.0,-0.62,-0.703,0.829,0.096,0.149,-0.133,9.634,280.17,0,0,1,1,1,1,59.60151,5.4591311,3000,1005,20,80,+SHRA,1000,1,2000,2,3000,3,4000,4
19919,2.0,-0.573,-0.759,0.688,-0.051,0.159,-0.184,9.561,280.17,0,0,1,1,1,1,59.60151,5.4591311,3000,1005,20,80,+SHRA,1000,1,2000,2,3000,3,4000,4
19919.5,2.0,-0.52,-0.779,0.485,-0.21,0.17,-0.21,9.501,280.07,0,0,1,1,1,1,59.60151,5.4591311,3000,1005,20,80,+SHRA,1000,1,2000,2,3000,3,4000,4
19920,2.0,-0.52,-0.779,0.485,-0.21,0.17,-0.21,9.501,280.07,0,0,1,1,1,1,59.60151,5.4591311,3000,1005,20,80,+SHRA,1000,1,2000,2,3000,3,4000,4
19920.5,2.0,-0.459,-0.765,0.23,-0.361,0.174,-0.202,9.47,279.97,0,0,1,1,1,1,59.60151,5.4591311,3000,1005,20,80,+SHRA,1000,1,2000,2,3000,3,4000,4
19921,2.0,-0.33,-0.63,-0.353,-0.576,0.136,-0.078,9.528,279.97,0,0,1,1,1,1,59.60151,5.4591311,3000,1005,20,80,+SHRA,1000,1,2000,2,3000,3,4000,4
19921.5,2.0,-0.262,-0.518,-0.631,-0.613,0.11,-0.047,9.594,279.97,0,0,1,1,1,1,59.60151,5.4591311,3000,1005,20,80,+SHRA,1000,1,2000,2,3000,3,4000,4
19922,2.0,-0.198,-0.389,-0.865,-0.597,0.07,0.007,9.691,279.97,0,0,1,1,1,1,59.60151,5.4591311,3000,1005,20,80,+SHRA,1000,1,2000,2,3000,3,4000,4
19922.5,2.0,-0.145,-0.252,-1.033,-0.532,0.045,-0.019,9.778,279.87,0,0,1,1,1,1,59.60151,5.4591311,3000,1005,20,80,+SHRA,1000,1,2000,2,3000,3,4000,4
19923,2.1,-0.099,-0.121,-1.12,-0.416,0.007,-0.04,9.894,279.87,0,0,1,1,1,1,59.60151,5.4591311,3000,1005,20,80,+SHRA,1000,1,2000,2,3000,3,4000,4
19923.5,2.1,-0.07,-0.003,-1.115,-0.261,-0.03,-0.044,10.001,279.87,0,0,1,1,1,1,59.60151,5.4591311,3000,1005,20,80,+SHRA,1000,1,2000,2,3000,3,4000,4
19924,2.1,-0.06,0.084,-1.015,-0.08,-0.055,-0.056,10.088,279.87,0,0,1,1,1,1,59.60151,5.4591311,3000,1005,20,80,+SHRA,1000,1,2000,2,3000,3,4000,4
19924.5,2.1,-0.066,0.14,-0.828,0.102,-0.061,-0.064,10.127,279.87,0,0,1,1,1,1,59.60151,5.4591311,3000,1005,20,80,+SHRA,1000,1,2000,2,3000,3,4000,4
19925,2.1,-0.09,0.161,-0.575,0.269,-0.058,-0.029,10.144,279.87,0,0,1,1,1,1,59.60151,5.4591311,3000,1005,20,80,+SHRA,1000,1,2000,2,3000,3,4000,4
19925.5,2.1,-0.132,0.145,-0.278,0.403,-0.036,-0.011,10.115,279.87,0,0,1,1,1,1,59.60151,5.4591311,3000,1005,20,80,+SHRA,1000,1,2000,2,3000,3,4000,4
19926,2.1,-0.189,0.097,0.033,0.498,-0.018,-0.027,10.083,279.87,0,0,1,1,1,1,59.60151,5.4591311,3000,1005,20,80,+SHRA,1000,1,2000,2,3000,3,4000,4
19926.5,2.1,-0.255,0.025,0.334,0.548,0.002,-0.024,10.025,279.97,0,0,1,1,1,1,59.60151,5.4591311,3000,1005,20,80,+SHRA,1000,1,2000,2,3000,3,4000,4
19927,2.1,-0.327,-0.067,0.6,0.554,0.024,-0.035,9.967,279.97,0,0,1,1,1,1,59.60151,5.4591311,3000,1005,20,80,+SHRA,1000,1,2000,2,3000,3,4000,4
19927.5,2.1,-0.4,-0.171,0.814,0.526,0.042,-0.016,9.908,280.07,0,0,1,1,1,1,59.60151,5.4591311,3000,1005,20,80,+SHRA,1000,1,2000,2,3000,3,4000,4
19928,2.1,-0.467,-0.283,0.966,0.47,0.049,0.01,9.866,280.07,0,0,1,1,1,1,59.60151,5.4591311,3000,1005,20,80,+SHRA,1000,1,2000,2,3000,3,4000,4
19928.5,2.1,-0.528,-0.396,1.052,0.395,0.061,0.063,9.821,280.07,0,0,1,1,1,1,59.60151,5.4591311,3000,1005,20,80,+SHRA,1000,1,2000,2,3000,3,4000,4
19929,2.2,-0.575,-0.504,1.071,0.304,0.075,0.081,9.777,280.07,0,0,1,1,1,1,59.60151,5.4591311,3000,1005,20,80,+SHRA,1000,1,2000,2,3000,3,4000,4
19929.5,2.2,-0.606,-0.601,1.027,0.203,0.086,0.057,9.736,280.17,0,0,1,1,1,1,59.60151,5.4591311,3000,1005,20,80,+SHRA,1000,1,2000,2,3000,3,4000,4
19930,2.2,-0.621,-0.685,0.924,0.089,0.105,0.021,9.681,280.17,0,0,1,1,1,1,59.60151,5.4591311,3000,1005,20,80,+SHRA,1000,1,2000,2,3000,3,4000,4
19930.5,2.2,-0.617,-0.751,0.767,-0.032,0.116,-0.058,9.633,280.07,0,0,1,1,1,1,59.60151,5.4591311,3000,1005,20,80,+SHRA,1000,1,2000,2,3000,3,4000,4
19931,2.2,-0.599,-0.791,0.562,-0.161,0.13,-0.123,9.576,280.07,0,0,1,1,1,1,59.60151,5.4591311,3000,1005,20,80,+SHRA,1000,1,2000,2,3000,3,4000,4
19931.5,2.2,-0.57,-0.804,0.317,-0.293,0.149,-0.176,9.529,279.97,0,0,1,1,1,1,59.60151,5.4591311,3000,1005,20,80,+SHRA,1000,1,2000,2,3000,3,4000,4
19932,2.2,-0.537,-0.786,0.042,-0.419,0.16,-0.24,9.495,279.97,0,0,1,1,1,1,59.60151,5.4591311,3000,1005,20,80,+SHRA,1000,1,2000,2,3000,3,4000,4
19932.5,2.2,-0.508,-0.73,-0.251,-0.528,0.153,-0.266,9.493,279.87,0,0,1,1,1,1,59.60151,5.4591311,3000,1005,20,80,+SHRA,1000,1,2000,2,3000,3,4000,4
19933,2.2,-0.488,-0.642,-0.543,-0.611,0.154,-0.279,9.5,279.87,0,0,1,1,1,1,59.60151,5.4591311,3000,1005,20,80,+SHRA,1000,1,2000,2,3000,3,4000,4
19933.5,2.2,-0.479,-0.525,-0.816,-0.657,0.133,-0.283,9.553,279.77,0,0,1,1,1,1,59.60151,5.4591311,3000,1005,20,80,+SHRA,1000,1,2000,2,3000,3,4000,4
19934,2.2,-0.479,-0.525,-0.816,-0.657,0.133,-0.283,9.553,279.77,0,0,1,1,1,1,59.60151,5.4591311,3000,1005,20,80,+SHRA,1000,1,2000,2,3000,3,4000,4
19934.5,2.2,-0.479,-0.383,-1.049,-0.656,0.106,-0.259,9.628,279.77,0,0,1,1,1,1,59.60151,5.4591311,3000,1005,20,80,+SHRA,1000,1,2000,2,3000,3,4000,4
19935,2.3,-0.485,-0.229,-1.221,-0.602,0.071,-0.221,9.732,279.77,0,0,1,1,1,1,59.60151,5.4591311,3000,1005,20,80,+SHRA,1000,1,2000,2,3000,3,4000,4
19935.5,2.3,-0.497,-0.072,-1.312,-0.493,0.03,-0.199,9.852,279.77,0,0,1,1,1,1,59.60151,5.4591311,3000,1005,20,80,+SHRA,1000,1,2000,2,3000,3,4000,4
19936,2.3,-0.506,0.073,-1.308,-0.333,-0.014,-0.154,9.984,279.77,0,0,1,1,1,1,59.60151,5.4591311,3000,1005,20,80,+SHRA,1000,1,2000,2,3000,3,4000,4
19936.5,2.3,-0.512,0.189,-1.199,-0.13,-0.053,-0.097,10.109,279.97,0,0,1,1,1,1,59.60151,5.4591311,3000,1005,20,80,+SHRA,1000,1,2000,2,3000,3,4000,4
19937,2.3,-0.52,0.266,-0.986,0.103,-0.092,-0.032,10.23,279.97,0,0,1,1,1,1,59.60151,5.4591311,3000,1005,20,80,+SHRA,1000,1,2000,2,3000,3,4000,4
19937.5,2.3,-0.53,0.29,-0.676,0.352,-0.125,0.043,10.325,280.07,0,0,1,1,1,1,59.60151,5.4591311,3000,1005,20,80,+SHRA,1000,1,2000,2,3000,3,4000,4
19938,2.3,-0.544,0.255,-0.286,0.586,-0.139,0.121,10.369,280.07,0,0,1,1,1,1,59.60151,5.4591311,3000,1005,20,80,+SHRA,1000,1,2000,2,3000,3,4000,4
19938.5,2.3,-0.564,0.164,0.155,0.785,-0.126,0.174,10.355,280.07,0,0,1,1,1,1,59.60151,5.4591311,3000,1005,20,80,+SHRA,1000,1,2000,2,3000,3,4000,4
19939,2.3,-0.586,0.019,0.607,0.909,-0.088,0.156,10.259,280.07,0,0,1,1,1,1,59.60151,5.4591311,3000,1005,20,80,+SHRA,1000,1,2000,2,3000,3,4000,4
19939.5,2.3,-0.605,-0.162,1.023,0.947,-0.032,0.132,10.115,280.17,0,0,1,1,1,1,59.60151,5.4591311,3000,1005,20,80,+SHRA,1000,1,2000,2,3000,3,4000,4
19940,2.3,-0.613,-0.364,1.358,0.879,0.047,0.05,9.914,280.17,0,0,1,1,1,1,59.60151,5.4591311,3000,1005,20,80,+SHRA,1000,1,2000,2,3000,3,4000,4
19940.5,2.3,-0.6,-0.555,1.571,0.718,0.103,-0.046,9.725,280.07,0,0,1,1,1,1,59.60151,5.4591311,3000,1005,20,80,+SHRA,1000,1,2000,2,3000,3,4000,4
19941,2.4,-0.528,-0.841,1.538,0.171,0.232,-0.282,9.348,280.07,0,0,1,1,1,1,59.60151,5.4591311,3000,1005,20,80,+SHRA,1000,1,2000,2,3000,3,4000,4
19941.5,2.4,-0.477,-0.899,1.283,-0.156,0.27,-0.324,9.218,279.97,0,0,1,1,1,1,59.60151,5.4591311,3000,1005,20,80,+SHRA,1000,1,2000,2,3000,3,4000,4
19942,2.4,-0.43,-0.892,0.895,-0.468,0.279,-0.33,9.179,279.97,0,0,1,1,1,1,59.60151,5.4591311,3000,1005,20,80,+SHRA,1000,1,2000,2,3000,3,4000,4
19942.5,2.4,-0.397,-0.819,0.417,-0.724,0.257,-0.23,9.212,279.87,0,0,1,1,1,1,59.60151,5.4591311,3000,1005,20,80,+SHRA,1000,1,2000,2,3000,3,4000,4
19943,2.4,-0.386,-0.693,-0.099,-0.891,0.196,-0.129,9.342,279.87,0,0,1,1,1,1,59.60151,5.4591311,3000,1005,20,80,+SHRA,1000,1,2000,2,3000,3,4000,4
19943.5,2.4,-0.392,-0.528,-0.591,-0.944,0.122,-0.063,9.523,279.87,0,0,1,1,1,1,59.60151,5.4591311,3000,1005,20,80,+SHRA,1000,1,2000,2,3000,3,4000,4
19944,2.4,-0.418,-0.353,-1.002,-0.88,0.034,-0.025,9.746,279.87,0,0,1,1,1,1,59.60151,5.4591311,3000,1005,20,80,+SHRA,1000,1,2000,2,3000,3,4000,4
19944.5,2.4,-0.457,-0.188,-1.284,-0.713,-0.037,0,9.948,280.07,0,0,1,1,1,1,59.60151,5.4591311,3000,1005,20,80,+SHRA,1000,1,2000,2,3000,3,4000,4
19945,2.4,-0.501,-0.055,-1.411,-0.474,-0.097,0.008,10.12,280.07,0,0,1,1,1,1,59.60151,5.4591311,3000,1005,20,80,+SHRA,1000,1,2000,2,3000,3,4000,4
19945.5,2.4,-0.539,0.03,-1.378,-0.201,-0.122,-0.024,10.223,280.07,0,0,1,1,1,1,59.60151,5.4591311,3000,1005,20,80,+SHRA,1000,1,2000,2,3000,3,4000,4
19946,2.4,-0.567,0.062,-1.204,0.066,-0.127,-0.037,10.269,280.07,0,0,1,1,1,1,59.60151,5.4591311,3000,1005,20,80,+SHRA,1000,1,2000,2,3000,3,4000,4
19946.5,2.4,-0.579,0.042,-0.92,0.298,-0.107,-0.055,10.256,280.17,0,0,1,1,1,1,59.60151,5.4591311,3000,1005,20,80,+SHRA,1000,1,2000,2,3000,3,4000,4
19947,2.5,-0.576,-0.022,-0.568,0.471,-0.074,-0.09,10.195,280.17,0,0,1,1,1,1,59.60151,5.4591311,3000,1005,20,80,+SHRA,1000,1,2000,2,3000,3,4000,4
19947.5,2.5,-0.555,-0.12,-0.195,0.574,-0.027,-0.106,10.099,280.17,0,0,1,1,1,1,59.60151,5.4591311,3000,1005,20,80,+SHRA,1000,1,2000,2,3000,3,4000,4
19948,2.5,-0.525,-0.235,0.159,0.6,0.03,-0.135,9.976,280.17,0,0,1,1,1,1,59.60151,5.4591311,3000,1005,20,80,+SHRA,1000,1,2000,2,3000,3,4000,4
19948.5,2.5,-0.492,-0.355,0.456,0.559,0.078,-0.165,9.86,280.17,0,0,1,1,1,1,59.60151,5.4591311,3000,1005,20,80,+SHRA,1000,1,2000,2,3000,3,4000,4
19949,2.5,-0.464,-0.459,0.671,0.46,0.127,-0.158,9.738,280.17,0,0,1,1,1,1,59.60151,5.4591311,3000,1005,20,80,+SHRA,1000,1,2000,2,3000,3,4000,4
19949.5,2.5,-0.444,-0.537,0.788,0.319,0.164,-0.134,9.645,280.17,0,0,1,1,1,1,59.60151,5.4591311,3000,1005,20,80,+SHRA,1000,1,2000,2,3000,3,4000,4
19950,2.5,-0.441,-0.581,0.807,0.158,0.186,-0.114,9.575,280.17,0,0,1,1,1,1,59.60151,5.4591311,3000,1005,20,80,+SHRA,1000,1,2000,2,3000,3,4000,4
19950.5,2.5,-0.454,-0.587,0.736,0,0.184,-0.083,9.559,280.17,0,0,1,1,1,1,59.60151,5.4591311,3000,1005,20,80,+SHRA,1000,1,2000,2,3000,3,4000,4
19951,2.5,-0.484,-0.56,0.595,-0.137,0.172,-0.035,9.561,280.17,0,0,1,1,1,1,59.60151,5.4591311,3000,1005,20,80,+SHRA,1000,1,2000,2,3000,3,4000,4
19951.5,2.5,-0.484,-0.56,0.595,-0.137,0.172,-0.035,9.561,280.17,0,0,1,1,1,1,59.60151,5.4591311,3000,1005,20,80,+SHRA,1000,1,2000,2,3000,3,4000,4
19952,2.5,-0.524,-0.501,0.409,-0.242,0.145,-0.008,9.597,280.17,0,0,1,1,1,1,59.60151,5.4591311,3000,1005,20,80,+SHRA,1000,1,2000,2,3000,3,4000,4
19952.5,2.5,-0.573,-0.422,0.205,-0.306,0.111,-0.011,9.65,280.17,0,0,1,1,1,1,59.60151,5.4591311,3000,1005,20,80,+SHRA,1000,1,2000,2,3000,3,4000,4
19953,2.6,-0.622,-0.328,0.007,-0.326,0.071,-0.043,9.727,280.17,0,0,1,1,1,1,59.60151,5.4591311,3000,1005,20,80,+SHRA,1000,1,2000,2,3000,3,4000,4
19953.5,2.6,-0.66,-0.234,-0.16,-0.296,0.029,-0.087,9.816,280.27,0,0,1,1,1,1,59.60151,5.4591311,3000,1005,20,80,+SHRA,1000,1,2000,2,3000,3,4000,4
19954,2.6,-0.681,-0.149,-0.277,-0.228,-0.008,-0.117,9.9,280.27,0,0,1,1,1,1,59.60151,5.4591311,3000,1005,20,80,+SHRA,1000,1,2000,2,3000,3,4000,4
19954.5,2.6,-0.651,-0.052,-0.33,-0.022,-0.052,-0.11,10.002,280.27,0,0,1,1,1,1,59.60151,5.4591311,3000,1005,20,80,+SHRA,1000,1,2000,2,3000,3,4000,4
19955,2.6,-0.6,-0.047,-0.273,0.077,-0.052,-0.085,10.005,280.27,0,0,1,1,1,1,59.60151,5.4591311,3000,1005,20,80,+SHRA,1000,1,2000,2,3000,3,4000,4
19955.5,2.6,-0.531,-0.074,-0.18,0.149,-0.036,-0.064,9.972,280.37,0,0,1,1,1,1,59.60151,5.4591311,3000,1005,20,80,+SHRA,1000,1,2000,2,3000,3,4000,4
19956,2.6,-0.448,-0.127,-0.072,0.189,-0.012,-0.064,9.917,280.37,0,0,1,1,1,1,59.60151,5.4591311,3000,1005,20,80,+SHRA,1000,1,2000,2,3000,3,4000,4
19956.5,2.6,-0.369,-0.196,0.03,0.187,0.02,-0.068,9.844,280.37,0,0,1,1,1,1,59.60151,5.4591311,3000,1005,20,80,+SHRA,1000,1,2000,2,3000,3,4000,4
19957,2.6,-0.296,-0.276,0.109,0.153,0.047,-0.066,9.779,280.37,0,0,1,1,1,1,59.60151,5.4591311,3000,1005,20,80,+SHRA,1000,1,2000,2,3000,3,4000,4
19957.5,2.6,-0.239,-0.356,0.152,0.093,0.07,-0.071,9.724,280.37,0,0,1,1,1,1,59.60151,5.4591311,3000,1005,20,80,+SHRA,1000,1,2000,2,3000,3,4000,4
19958,2.6,-0.206,-0.429,0.156,0.021,0.087,-0.095,9.69,280.37,0,0,1,1,1,1,59.60151,5.4591311,3000,1005,20,80,+SHRA,1000,1,2000,2,3000,3,4000,4
19958.5,2.6,-0.201,-0.487,0.122,-0.056,0.109,-0.122,9.66,280.37,0,0,1,1,1,1,59.60151,5.4591311,3000,1005,20,80,+SHRA,1000,1,2000,2,3000,3,4000,4
19959,2.7,-0.223,-0.525,0.056,-0.124,0.117,-0.172,9.665,280.37,0,0,1,1,1,1,59.60151,5.4591311,3000,1005,20,80,+SHRA,1000,1,2000,2,3000,3,4000,4
19959.5,2.7,-0.265,-0.544,-0.028,-0.176,0.123,-0.216,9.678,280.37,0,0,1,1,1,1,59.60151,5.4591311,3000,1005,20,80,+SHRA,1000,1,2000,2,3000,3,4000,4
19960,2.7,-0.318,-0.537,-0.12,-0.204,0.122,-0.236,9.721,280.37,0,0,1,1,1,1,59.60151,5.4591311,3000,1005,20,80,+SHRA,1000,1,2000,2,3000,3,4000,4
19960.5,2.7,-0.373,-0.506,-0.201,-0.2,0.119,-0.233,9.771,280.37,0,0,1,1,1,1,59.60151,5.4591311,3000,1005,20,80,+SHRA,1000,1,2000,2,3000,3,4000,4
19961,2.7,-0.422,-0.46,-0.26,-0.165,0.099,-0.18,9.848,280.37,0,0,1,1,1,1,59.60151,5.4591311,3000,1005,20,80,+SHRA,1000,1,2000,2,3000,3,4000,4
19961.5,2.7,-0.453,-0.404,-0.281,-0.097,0.079,-0.084,9.919,280.37,0,0,1,1,1,1,59.60151,5.4591311,3000,1005,20,80,+SHRA,1000,1,2000,2,3000,3,4000,4
19962,2.7,-0.468,-0.344,-0.257,-0.004,0.053,0.037,9.993,280.37,0,0,1,1,1,1,59.60151,5.4591311,3000,1005,20,80,+SHRA,1000,1,2000,2,3000,3,4000,4
19962.5,2.7,-0.468,-0.289,-0.185,0.106,0.028,0.162,10.05,280.47,0,0,1,1,1,1,59.60151,5.4591311,3000,1005,20,80,+SHRA,1000,1,2000,2,3000,3,4000,4
19963,2.7,-0.454,-0.25,-0.069,0.216,0.006,0.271,10.082,280.47,0,0,1,1,1,1,59.60151,5.4591311,3000,1005,20,80,+SHRA,1000,1,2000,2,3000,3,4000,4
19963.5,2.7,-0.436,-0.229,0.081,0.312,-0.006,0.347,10.073,280.57,0,0,1,1,1,1,59.60151,5.4591311,3000,1005,20,80,+SHRA,1000,1,2000,2,3000,3,4000,4
19964,2.7,-0.417,-0.229,0.244,0.374,-0.008,0.312,10.029,280.57,0,0,1,1,1,1,59.60151,5.4591311,3000,1005,20,80,+SHRA,1000,1,2000,2,3000,3,4000,4
19964.5,2.7,-0.402,-0.249,0.4,0.39,0,0.262,9.952,280.67,0,0,1,1,1,1,59.60151,5.4591311,3000,1005,20,80,+SHRA,1000,1,2000,2,3000,3,4000,4
19965,2.8,-0.394,-0.281,0.521,0.347,0.028,0.152,9.827,280.67,0,0,1,1,1,1,59.60151,5.4591311,3000,1005,20,80,+SHRA,1000,1,2000,2,3000,3,4000,4
19965.5,2.8,-0.392,-0.319,0.583,0.245,0.055,-0.004,9.691,280.47,0,0,1,1,1,1,59.60151,5.4591311,3000,1005,20,80,+SHRA,1000,1,2000,2,3000,3,4000,4
19966,2.8,-0.404,-0.352,0.566,0.087,0.089,-0.137,9.545,280.47,0,0,1,1,1,1,59.60151,5.4591311,3000,1005,20,80,+SHRA,1000,1,2000,2,3000,3,4000,4
19966.5,2.8,-0.425,-0.368,0.459,-0.109,0.116,-0.317,9.427,280.47,0,0,1,1,1,1,59.60151,5.4591311,3000,1005,20,80,+SHRA,1000,1,2000,2,3000,3,4000,4
19967,2.8,-0.461,-0.361,0.266,-0.319,0.132,-0.414,9.348,280.47,0,0,1,1,1,1,59.60151,5.4591311,3000,1005,20,80,+SHRA,1000,1,2000,2,3000,3,4000,4
19967.5,2.8,-0.503,-0.322,0.002,-0.503,0.122,-0.493,9.359,280.37,0,0,1,1,1,1,59.60151,5.4591311,3000,1005,20,80,+SHRA,1000,1,2000,2,3000,3,4000,4
19968,2.8,-0.551,-0.26,-0.297,-0.632,0.107,-0.51,9.429,280.37,0,0,1,1,1,1,59.60151,5.4591311,3000,1005,20,80,+SHRA,1000,1,2000,2,3000,3,4000,4
19968.5,2.8,-0.602,-0.178,-0.59,-0.674,0.066,-0.486,9.582,280.37,0,0,1,1,1,1,59.60151,5.4591311,3000,1005,20,80,+SHRA,1000,1,2000,2,3000,3,4000,4
19969,2.8,-0.655,-0.092,-0.828,-0.619,0.023,-0.401,9.761,280.37,0,0,1,1,1,1,59.60151,5.4591311,3000,1005,20,80,+SHRA,1000,1,2000,2,3000,3,4000,4
19969.5,2.8,-0.704,-0.019,-0.973,-0.473,-0.021,-0.326,9.965,280.47,0,0,1,1,1,1,59.60151,5.4591311,3000,1005,20,80,+SHRA,1000,1,2000,2,3000,3,4000,4
19970,2.8,-0.746,0.024,-0.995,-0.252,-0.056,-0.222,10.139,280.47,0,0,1,1,1,1,59.60151,5.4591311,3000,1005,20,80,+SHRA,1000,1,2000,2,3000,3,4000,4
19970.5,2.8,-0.784,0.031,-0.886,0.009,-0.077,-0.09,10.275,280.57,0,0,1,1,1,1,59.60151,5.4591311,3000,1005,20,80,+SHRA,1000,1,2000,2,3000,3,4000,4
19971,2.9,-0.808,-0.013,-0.655,0.276,-0.077,0.033,10.345,280.57,0,0,1,1,1,1,59.60151,5.4591311,3000,1005,20,80,+SHRA,1000,1,2000,2,3000,3,4000,4
19971.5,2.9,-0.817,-0.102,-0.329,0.517,-0.067,0.124,10.362,280.67,0,0,1,1,1,1,59.60151,5.4591311,3000,1005,20,80,+SHRA,1000,1,2000,2,3000,3,4000,4
19972,2.9,-0.811,-0.233,0.055,0.7,-0.035,0.202,10.306,280.67,0,0,1,1,1,1,59.60151,5.4591311,3000,1005,20,80,+SHRA,1000,1,2000,2,3000,3,4000,4
19972.5,2.9,-0.789,-0.392,0.451,0.805,0.012,0.246,10.196,280.87,0,0,1,1,1,1,59.60151,5.4591311,3000,1005,20,80,+SHRA,1000,1,2000,2,3000,3,4000,4
19973,2.9,-0.75,-0.56,0.812,0.818,0.062,0.24,10.044,280.87,0,0,1,1,1,1,59.60151,5.4591311,3000,1005,20,80,+SHRA,1000,1,2000,2,3000,3,4000,4
19973.5,2.9,-0.7,-0.717,1.093,0.739,0.117,0.19,9.87,280.77,0,0,1,1,1,1,59.60151,5.4591311,3000,1005,20,80,+SHRA,1000,1,2000,2,3000,3,4000,4
19974,2.9,-0.642,-0.847,1.262,0.577,0.171,0.082,9.684,280.77,0,0,1,1,1,1,59.60151,5.4591311,3000,1005,20,80,+SHRA,1000,1,2000,2,3000,3,4000,4
19974.5,2.9,-0.579,-0.93,1.296,0.352,0.21,-0.031,9.525,280.67,0,0,1,1,1,1,59.60151,5.4591311,3000,1005,20,80,+SHRA,1000,1,2000,2,3000,3,4000,4
19975,2.9,-0.516,-0.955,1.192,0.09,0.232,-0.151,9.402,280.67,0,0,1,1,1,1,59.60151,5.4591311,3000,1005,20,80,+SHRA,1000,1,2000,2,3000,3,4000,4
19975.5,2.9,-0.464,-0.919,0.96,-0.18,0.239,-0.236,9.322,280.37,0,0,1,1,1,1,59.60151,5.4591311,3000,1005,20,80,+SHRA,1000,1,2000,2,3000,3,4000,4
19976,2.9,-0.425,-0.818,0.624,-0.431,0.226,-0.279,9.29,280.37,0,0,1,1,1,1,59.60151,5.4591311,3000,1005,20,80,+SHRA,1000,1,2000,2,3000,3,4000,4
19976.5,2.9,-0.398,-0.662,0.22,-0.64,0.186,-0.289,9.313,280.27,0,0,1,1,1,1,59.60151,5.4591311,3000,1005,20,80,+SHRA,1000,1,2000,2,3000,3,4000,4
19977,3.0,-0.394,-0.47,-0.213,-0.786,0.139,-0.278,9.376,280.27,0,0,1,1,1,1,59.60151,5.4591311,3000,1005,20,80,+SHRA,1000,1,2000,2,3000,3,4000,4
19977.5,3.0,-0.407,-0.253,-0.632,-0.858,0.08,-0.255,9.484,280.27,0,0,1,1,1,1,59.60151,5.4591311,3000,1005,20,80,+SHRA,1000,1,2000,2,3000,3,4000,4
19978,3.0,-0.431,-0.033,-0.996,-0.848,0.017,-0.217,9.618,280.27,0,0,1,1,1,1,59.60151,5.4591311,3000,1005,20,80,+SHRA,1000,1,2000,2,3000,3,4000,4
19978.5,3.0,-0.465,0.167,-1.271,-0.76,-0.039,-0.173,9.766,280.37,0,0,1,1,1,1,59.60151,5.4591311,3000,1005,20,80,+SHRA,1000,1,2000,2,3000,3,4000,4
19979,3.0,-0.5,0.33,-1.43,-0.603,-0.087,-0.138,9.914,280.37,0,0,1,1,1,1,59.60151,5.4591311,3000,1005,20,80,+SHRA,1000,1,2000,2,3000,3,4000,4
19979.5,3.0,-0.532,0.443,-1.459,-0.392,-0.129,-0.118,10.061,280.37,0,0,1,1,1,1,59.60151,5.4591311,3000,1005,20,80,+SHRA,1000,1,2000,2,3000,3,4000,4
19980,3.0,-0.554,0.492,-1.354,-0.14,-0.16,-0.1,10.192,280.37,0,0,1,1,1,1,59.60151,5.4591311,3000,1005,20,80,+SHRA,1000,1,2000,2,3000,3,4000,4
19980.5,3.0,-0.564,0.475,-1.123,0.127,-0.173,-0.095,10.286,280.67,0,0,1,1,1,1,59.60151,5.4591311,3000,1005,20,80,+SHRA,1000,1,2000,2,3000,3,4000,4
19981,3.0,-0.567,0.391,-0.784,0.384,-0.156,-0.063,10.331,280.67,0,0,1,1,1,1,59.60151,5.4591311,3000,1005,20,80,+SHRA,1000,1,2000,2,3000,3,4000,4
19981.5,3.0,-0.567,0.391,-0.784,0.384,-0.156,-0.063,10.331,280.67,0,0,1,1,1,1,59.60151,5.4591311,3000,1005,20,80,+SHRA,1000,1,2000,2,3000,3,4000,4
19982,3.0,-0.558,0.247,-0.37,0.607,-0.125,-0.061,10.336,280.67,0,0,1,1,1,1,59.60151,5.4591311,3000,1005,20,80,+SHRA,1000,1,2000,2,3000,3,4000,4
19982.5,3.0,-0.544,0.052,0.082,0.774,-0.075,-0.06,10.288,280.67,0,0,1,1,1,1,59.60151,5.4591311,3000,1005,20,80,+SHRA,1000,1,2000,2,3000,3,4000,4
19983,3.1,-0.53,-0.177,0.53,0.868,-0.001,-0.06,10.182,280.67,0,0,1,1,1,1,59.60151,5.4591311,3000,1005,20,80,+SHRA,1000,1,2000,2,3000,3,4000,4
19983.5,3.1,-0.518,-0.418,0.931,0.882,0.065,-0.034,10.058,280.77,0,0,1,1,1,1,59.60151,5.4591311,3000,1005,20,80,+SHRA,1000,1,2000,2,3000,3,4000,4
19984,3.1,-0.51,-0.656,1.249,0.814,0.126,0.013,9.913,280.77,0,0,1,1,1,1,59.60151,5.4591311,3000,1005,20,80,+SHRA,1000,1,2000,2,3000,3,4000,4
19984.5,3.1,-0.505,-0.866,1.455,0.678,0.188,0.029,9.767,280.67,0,0,1,1,1,1,59.60151,5.4591311,3000,1005,20,80,+SHRA,1000,1,2000,2,3000,3,4000,4
19985,3.1,-0.503,-1.034,1.533,0.485,0.237,0.046,9.626,280.67,0,0,1,1,1,1,59.60151,5.4591311,3000,1005,20,80,+SHRA,1000,1,2000,2,3000,3,4000,4
19985.5,3.1,-0.501,-1.147,1.478,0.255,0.255,0.059,9.515,280.67,0,0,1,1,1,1,59.60151,5.4591311,3000,1005,20,80,+SHRA,1000,1,2000,2,3000,3,4000,4
19986,3.1,-0.493,-1.193,1.296,0.004,0.271,0.019,9.412,280.67,0,0,1,1,1,1,59.60151,5.4591311,3000,1005,20,80,+SHRA,1000,1,2000,2,3000,3,4000,4
19986.5,3.1,-0.474,-1.169,1.005,-0.243,0.266,-0.01,9.353,280.57,0,0,1,1,1,1,59.60151,5.4591311,3000,1005,20,80,+SHRA,1000,1,2000,2,3000,3,4000,4
19987,3.1,-0.446,-1.078,0.63,-0.465,0.231,-0.038,9.347,280.57,0,0,1,1,1,1,59.60151,5.4591311,3000,1005,20,80,+SHRA,1000,1,2000,2,3000,3,4000,4
19987.5,3.1,-0.41,-0.924,0.205,-0.642,0.189,-0.058,9.384,280.37,0,0,1,1,1,1,59.60151,5.4591311,3000,1005,20,80,+SHRA,1000,1,2000,2,3000,3,4000,4
19988,3.1,-0.369,-0.72,-0.23,-0.757,0.147,-0.078,9.446,280.37,0,0,1,1,1,1,59.60151,5.4591311,3000,1005,20,80,+SHRA,1000,1,2000,2,3000,3,4000,4
19988.5,3.1,-0.325,-0.485,-0.638,-0.804,0.087,-0.112,9.544,280.27,0,0,1,1,1,1,59.60151,5.4591311,3000,1005,20,80,+SHRA,1000,1,2000,2,3000,3,4000,4
19989,3.2,-0.286,-0.238,-0.983,-0.782,0.028,-0.159,9.654,280.27,0,0,1,1,1,1,59.60151,5.4591311,3000,1005,20,80,+SHRA,1000,1,2000,2,3000,3,4000,4
19989.5,3.2,-0.251,0,-1.241,-0.703,-0.023,-0.188,9.763,280.27,0,0,1,1,1,1,59.60151,5.4591311,3000,1005,20,80,+SHRA,1000,1,2000,2,3000,3,4000,4
19990,3.2,-0.226,0.214,-1.396,-0.577,-0.062,-0.201,9.857,280.27,0,0,1,1,1,1,59.60151,5.4591311,3000,1005,20,80,+SHRA,1000,1,2000,2,3000,3,4000,4
19990.5,3.2,-0.219,0.385,-1.443,-0.421,-0.09,-0.207,9.944,280.27,0,0,1,1,1,1,59.60151,5.4591311,3000,1005,20,80,+SHRA,1000,1,2000,2,3000,3,4000,4
19991,3.2,-0.228,0.503,-1.383,-0.239,-0.122,-0.171,10.031,280.27,0,0,1,1,1,1,59.60151,5.4591311,3000,1005,20,80,+SHRA,1000,1,2000,2,3000,3,4000,4
19991.5,3.2,-0.259,0.56,-1.222,-0.044,-0.136,-0.152,10.104,280.47,0,0,1,1,1,1,59.60151,5.4591311,3000,1005,20,80,+SHRA,1000,1,2000,2,3000,3,4000,4
19992,3.2,-0.312,0.549,-0.976,0.153,-0.136,-0.117,10.161,280.47,0,0,1,1,1,1,59.60151,5.4591311,3000,1005,20,80,+SHRA,1000,1,2000,2,3000,3,4000,4
19992.5,3.2,-0.386,0.473,-0.659,0.344,-0.133,-0.076,10.203,280.57,0,0,1,1,1,1,59.60151,5.4591311,3000,1005,20,80,+SHRA,1000,1,2000,2,3000,3,4000,4
19993,3.2,-0.475,0.337,-0.292,0.516,-0.116,-0.06,10.229,280.57,0,0,1,1,1,1,59.60151,5.4591311,3000,1005,20,80,+SHRA,1000,1,2000,2,3000,3,4000,4
19993.5,3.2,-0.569,0.148,0.101,0.658,-0.081,-0.029,10.223,280.77,0,0,1,1,1,1,59.60151,5.4591311,3000,1005,20,80,+SHRA,1000,1,2000,2,3000,3,4000,4
19994,3.2,-0.656,-0.078,0.494,0.759,-0.037,0.003,10.184,280.77,0,0,1,1,1,1,59.60151,5.4591311,3000,1005,20,80,+SHRA,1000,1,2000,2,3000,3,4000,4
19994.5,3.2,-0.727,-0.327,0.857,0.804,0.023,0.019,10.106,280.87,0,0,1,1,1,1,59.60151,5.4591311,3000,1005,20,80,+SHRA,1000,1,2000,2,3000,3,4000,4
19995,3.3,-0.783,-0.81,1.382,0.693,0.16,0.074,9.848,280.87,0,0,1,1,1,1,59.60151,5.4591311,3000,1005,20,80,+SHRA,1000,1,2000,2,3000,3,4000,4
19995.5,3.3,-0.768,-1.003,1.491,0.535,0.219,0.04,9.695,280.87,0,0,1,1,1,1,59.60151,5.4591311,3000,1005,20,80,+SHRA,1000,1,2000,2,3000,3,4000,4
19996,3.3,-0.728,-1.139,1.475,0.323,0.265,-0.012,9.549,280.87,0,0,1,1,1,1,59.60151,5.4591311,3000,1005,20,80,+SHRA,1000,1,2000,2,3000,3,4000,4
19996.5,3.3,-0.678,-1.204,1.333,0.078,0.286,-0.095,9.438,280.67,0,0,1,1,1,1,59.60151,5.4591311,3000,1005,20,80,+SHRA,1000,1,2000,2,3000,3,4000,4
19997,3.3,-0.617,-1.191,1.075,-0.172,0.282,-0.17,9.369,280.67,0,0,1,1,1,1,59.60151,5.4591311,3000,1005,20,80,+SHRA,1000,1,2000,2,3000,3,4000,4
19997.5,3.3,-0.558,-1.102,0.724,-0.404,0.259,-0.208,9.344,280.47,0,0,1,1,1,1,59.60151,5.4591311,3000,1005,20,80,+SHRA,1000,1,2000,2,3000,3,4000,4
19998,3.3,-0.505,-0.949,0.315,-0.593,0.218,-0.212,9.366,280.47,0,0,1,1,1,1,59.60151,5.4591311,3000,1005,20,80,+SHRA,1000,1,2000,2,3000,3,4000,4
19998.5,3.3,-0.466,-0.745,-0.117,-0.728,0.159,-0.201,9.426,280.37,0,0,1,1,1,1,59.60151,5.4591311,3000,1005,20,80,+SHRA,1000,1,2000,2,3000,3,4000,4
19999,3.3,-0.441,-0.505,-0.534,-0.797,0.093,-0.169,9.523,280.37,0,0,1,1,1,1,59.60151,5.4591311,3000,1005,20,80,+SHRA,1000,1,2000,2,3000,3,4000,4
19999.5,3.3,-0.429,-0.257,-0.898,-0.794,0.031,-0.091,9.628,280.37,0,0,1,1,1,1,59.60151,5.4591311,3000,1005,20,80,+SHRA,1000,1,2000,2,3000,3,4000,4
20000,3.3,-0.434,-0.018,-1.18,-0.723,-0.029,-0.097,9.754,280.37,0,0,1,1,1,1,59.60151,5.4591311,3000,1005,20,80,+SHRA,1000,1,2000,2,3000,3,4000,4
20000.5,3.3,-0.45,0.187,-1.356,-0.59,-0.087,-0.097,9.884,280.47,0,0,1,1,1,1,59.60151,5.4591311,3000,1005,20,80,+SHRA,1000,1,2000,2,3000,3,4000,4
20001,3.4,-0.476,0.343,-1.415,-0.413,-0.134,-0.107,10,280.47,0,0,1,1,1,1,59.60151,5.4591311,3000,1005,20,80,+SHRA,1000,1,2000,2,3000,3,4000,4
20001.5,3.4,-0.505,0.436,-1.354,-0.205,-0.156,-0.15,10.096,280.57,0,0,1,1,1,1,59.60151,5.4591311,3000,1005,20,80,+SHRA,1000,1,2000,2,3000,3,4000,4
20002,3.4,-0.533,0.459,-1.183,0.01,-0.156,-0.154,10.155,280.57,0,0,1,1,1,1,59.60151,5.4591311,3000,1005,20,80,+SHRA,1000,1,2000,2,3000,3,4000,4
20002.5,3.4,-0.558,0.414,-0.921,0.212,-0.135,-0.156,10.178,280.67,0,0,1,1,1,1,59.60151,5.4591311,3000,1005,20,80,+SHRA,1000,1,2000,2,3000,3,4000,4
20003,3.4,-0.581,0.302,-0.595,0.384,-0.104,-0.173,10.175,280.67,0,0,1,1,1,1,59.60151,5.4591311,3000,1005,20,80,+SHRA,1000,1,2000,2,3000,3,4000,4
20003.5,3.4,-0.599,0.146,-0.236,0.514,-0.052,-0.16,10.139,280.67,0,0,1,1,1,1,59.60151,5.4591311,3000,1005,20,80,+SHRA,1000,1,2000,2,3000,3,4000,4
20004,3.4,-0.61,-0.041,0.123,0.593,0.01,-0.1,10.076,280.67,0,0,1,1,1,1,59.60151,5.4591311,3000,1005,20,80,+SHRA,1000,1,2000,2,3000,3,4000,4
20004.5,3.4,-0.615,-0.242,0.455,0.621,0.065,-0.091,10.004,280.77,0,0,1,1,1,1,59.60151,5.4591311,3000,1005,20,80,+SHRA,1000,1,2000,2,3000,3,4000,4
20005,3.4,-0.62,-0.436,0.734,0.598,0.114,-0.044,9.928,280.77,0,0,1,1,1,1,59.60151,5.4591311,3000,1005,20,80,+SHRA,1000,1,2000,2,3000,3,4000,4
20005.5,3.4,-0.62,-0.436,0.734,0.598,0.114,-0.044,9.928,280.77,0,0,1,1,1,1,59.60151,5.4591311,3000,1005,20,80,+SHRA,1000,1,2000,2,3000,3,4000,4
